{"type": "FeatureCollection", "features": [{"type": "Feature", "properties": {"id": 2125786431, "name": "Hi-Spot Cafe", "category": "cafe", "tags": ["cafe", "restaurant", "breakfast-and-brunch", "breakfast", "brunch", "american"], "sources": ["osm", "overture"], "website": "http://www.hispotcafe.com/", "phone": "+12063257905", "address": "1410 34th Ave"}, "geometry": {"type": "Point", "coordinates": [-122.2891431, 47.6132884]}}, {"type": "Feature", "properties": {"id": 2330280128, "name": "Bistro Turkuaz", "category": "restaurant", "tags": ["restaurant", "turkish", "mediterranean", "european"], "sources": ["osm", "overture"], "website": "http://www.bistroturkuaz.com/", "phone": "+12063243039", "address": "1114 34th Ave"}, "geometry": {"type": "Point", "coordinates": [-122.289151, 47.6121496]}}, {"type": "Feature", "properties": {"id": 2330280154, "name": "Mr. West Cafe Bar", "category": "cafe", "tags": ["cafe", "coffee-shop", "coffee"], "sources": ["osm", "overture"], "website": "http://mrwestcafebar.com", "phone": "(206) 900-9378", "address": "1136 34th Ave", "hours": "Mo-Su 07:00-16:00"}, "geometry": {"type": "Point", "coordinates": [-122.289146, 47.6127084]}}, {"type": "Feature", "properties": {"id": 2330280157, "name": "Madrona Arms", "category": "pub", "tags": ["pub", "outdoor-seating", "wheelchair-accessible", "bar"], "sources": ["osm", "overture"], "website": "http://madronaarms.com/", "phone": "+12067395104", "address": "1138 34th Ave", "hours": "Mo-Th 11:30-23:00; Fr-Sa 11:30-00:00; Su 11:30-22:00"}, "geometry": {"type": "Point", "coordinates": [-122.2891486, 47.6127914]}}, {"type": "Feature", "properties": {"id": 2330280177, "name": "Molly Moon's Homemade Ice Cream - Madrona", "category": "ice_cream", "tags": ["ice-cream"], "sources": ["osm"], "website": "https://www.mollymoon.com/locations/madrona", "phone": "+1-206-324-0753", "address": "1408 34th Avenue", "hours": "Mo-Su 12:00-23:00"}, "geometry": {"type": "Point", "coordinates": [-122.289151, 47.613206]}}, {"type": "Feature", "properties": {"id": 2330319731, "name": "Caf\u00e9 Soleil", "category": "restaurant", "tags": ["restaurant", "diner", "cafe"], "sources": ["osm", "overture"], "website": "http://www.cafesoleiltanning.com/", "phone": "+12063251126", "address": "1400 34th Ave"}, "geometry": {"type": "Point", "coordinates": [-122.289161, 47.6129956]}}, {"type": "Feature", "properties": {"id": 2330319732, "name": "Naam Thai", "category": "restaurant", "tags": ["restaurant", "thai"], "sources": ["osm"], "website": "http://naamseattle.com", "address": "1404 34th Avenue"}, "geometry": {"type": "Point", "coordinates": [-122.289161, 47.6130953]}}, {"type": "Feature", "properties": {"id": "77e1f353-0d18-48ee-8659-8fcb0b2edb1f", "name": "Cupcake Royale", "category": "cafe", "tags": ["cafe", "coffee"], "sources": ["overture"], "website": "http://www.cupcakeroyale.com/", "phone": "(206) 709-4497", "address": "1101 34th Ave"}, "geometry": {"type": "Point", "coordinates": [-122.2895279, 47.6116829]}}, {"type": "Feature", "properties": {"id": 3374163593, "name": "Richard\u2019s Too Good BBQ", "category": "restaurant", "tags": ["restaurant", "barbecue"], "sources": ["osm"], "website": "https://www.richardstoogood.com", "address": "1123 34th Avenue"}, "geometry": {"type": "Point", "coordinates": [-122.2894661, 47.6124]}}, {"type": "Feature", "properties": {"id": 3374164793, "name": "Red Cow", "category": "restaurant", "tags": ["restaurant", "steak-house", "french", "european"], "sources": ["osm", "overture"], "website": "https://ethanstowellrestaurants.com/restaurants/red-cow-madrona-seattle", "phone": "(206) 454-7932", "address": "1423 34th Ave"}, "geometry": {"type": "Point", "coordinates": [-122.289455, 47.613643]}}, {"type": "Feature", "properties": {"id": 6026092785, "name": "Vendemmia", "category": "restaurant", "tags": ["restaurant", "italian", "american"], "sources": ["osm", "overture"], "website": "http://vendemmiaseattle.com/", "phone": "+12064662533", "address": "1126 34th Ave"}, "geometry": {"type": "Point", "coordinates": [-122.2891364, 47.6124437]}}, {"type": "Feature", "properties": {"id": 13641768444, "name": "Yoka Tea", "category": "cafe", "tags": ["cafe", "korean", "filipino"], "sources": ["osm"], "address": "1101 34th Avenue", "hours": "Mo-Th 07:00-19:00; Fr 07:00-20:00; Sa-Su 08:00-20:00"}, "geometry": {"type": "Point", "coordinates": [-122.2895304, 47.6117799]}}, {"type": "Feature", "properties": {"id": 224205774, "name": "Bottlehouse", "category": "pub", "tags": ["pub", "bar", "wine"], "sources": ["osm", "overture"], "website": "http://bottlehouseseattle.com/", "phone": "+12067087164", "address": "1416 34th Ave"}, "geometry": {"type": "Point", "coordinates": [-122.2890172, 47.6134723]}}, {"type": "Feature", "properties": {"id": "8ad8ea44-70c6-4d50-aacf-19a639430a9a", "name": "Restaurant Bea", "category": "restaurant", "tags": ["restaurant", "american"], "sources": ["overture"], "website": "http://www.restaurantbea.com", "phone": "(206) 812-2901", "address": "1423 34th Ave"}, "geometry": {"type": "Point", "coordinates": [-122.2894897, 47.6135445]}}, {"type": "Feature", "properties": {"id": "600811b8-6488-4805-8aee-eb9388d479f8", "name": "Noyer", "category": "restaurant", "tags": ["restaurant", "american"], "sources": ["overture"], "website": "https://www.ethanstowellrestaurants.com/locations/red-cow", "phone": "(206) 838-8081", "address": "1423 34th Ave Apt A"}, "geometry": {"type": "Point", "coordinates": [-122.2895966, 47.6134796]}}, {"type": "Feature", "properties": {"id": "f773ff60-2cd7-4079-a8ce-0abd67ce02f4", "name": "Cremant", "category": "restaurant", "tags": ["restaurant"], "sources": ["overture"], "website": "http://cremantseattle.com", "phone": "(206) 322-4600", "address": "1423 34th Ave"}, "geometry": {"type": "Point", "coordinates": [-122.2895813, 47.6132469]}}, {"type": "Feature", "properties": {"id": "2da4192c-8029-45e4-8f5f-f1bfd2d37606", "name": "June", "category": "restaurant", "tags": ["restaurant", "asian"], "sources": ["overture"], "website": "http://www.immediateclinic.com/capitol-hill-urgent-care", "phone": "(206) 323-4000", "address": "1423 34th Ave"}, "geometry": {"type": "Point", "coordinates": [-122.2893906, 47.6136055]}}, {"type": "Feature", "properties": {"id": "5c3f1eea-82c1-4161-bf70-fe1bf77c9035", "name": "Dulces Latin Bistro", "category": "restaurant", "tags": ["restaurant", "latin-american", "american"], "sources": ["overture"], "website": "http://www.dulceslatinbistro.com", "phone": "(206) 322-5453", "address": "1430 34th Ave"}, "geometry": {"type": "Point", "coordinates": [-122.2891464, 47.6138649]}}, {"type": "Feature", "properties": {"id": "04b6ba9b-a586-487a-87dd-895b6cc61501", "name": "Naam Thai Cuisine", "category": "restaurant", "tags": ["restaurant", "thai", "asian"], "sources": ["overture"], "website": "http://www.naamseattle.com/", "phone": "+12065686226", "address": "1404 34th Ave"}, "geometry": {"type": "Point", "coordinates": [-122.2892151, 47.6130981]}}, {"type": "Feature", "properties": {"id": "f3828c94-7646-4830-be90-7530679ac0d6", "name": "St. Clouds", "category": "restaurant", "tags": ["restaurant", "american"], "sources": ["overture"], "website": "http://www.stclouds.com/", "phone": "(206) 726-1522", "address": "1131 34th Ave"}, "geometry": {"type": "Point", "coordinates": [-122.2894211, 47.6126442]}}, {"type": "Feature", "properties": {"id": "f2a40ea0-8876-4073-b9f8-5683bc7b1ea2", "name": "East Anchor Seafood", "category": "restaurant", "tags": ["restaurant", "seafood"], "sources": ["overture"], "website": "http://www.EastAnchorSeafood.com/", "phone": "+12067086669", "address": "1126 34th Ave"}, "geometry": {"type": "Point", "coordinates": [-122.2890625, 47.6124268]}}, {"type": "Feature", "properties": {"id": "fecabffd-3ac2-4706-afae-2cb9a7032f7f", "name": "Mr West Coffee", "category": "cafe", "tags": ["cafe", "coffee"], "sources": ["overture"], "website": "https://mrwestcafebar.com/", "phone": "2069009378", "address": "1136 34th Ave"}, "geometry": {"type": "Point", "coordinates": [-122.2892075, 47.6127129]}}, {"type": "Feature", "properties": {"id": "8291d8f0-cc72-4bad-bc34-49a054902737", "name": "Madrona Eatery & Ale House", "category": "restaurant", "tags": ["restaurant", "american"], "sources": ["overture"], "website": "http://www.madronaalehouse.com", "phone": "(206) 323-7807", "address": "1138 34th Ave"}, "geometry": {"type": "Point", "coordinates": [-122.2891541, 47.6128044]}}, {"type": "Feature", "properties": {"id": "bfeb51e6-a73b-4eaf-90f4-c2134b973ea3", "name": "Spectrum Fine Art", "category": "gallery", "tags": ["gallery", "art"], "sources": ["overture"], "website": "http://www.spectrumfineart.com/", "phone": "+12064205495", "address": "1411 34th Ave"}, "geometry": {"type": "Point", "coordinates": [-122.2895584, 47.6132927]}}, {"type": "Feature", "properties": {"id": 30199408, "name": "Madrona Playground", "category": "park", "tags": ["park", "playground"], "sources": ["osm", "overture"], "website": "http://www.seattle.gov/parks/park_detail.asp?ID=371", "phone": "+12066844075", "address": "917 34th Ave"}, "geometry": {"type": "Point", "coordinates": [-122.2899036, 47.6110056]}}, {"type": "Feature", "properties": {"id": 50275578, "name": "Alvin Larkins Park", "category": "park", "tags": ["park"], "sources": ["osm"], "website": "https://www.seattle.gov/parks/allparks/alvin-larkins-park", "address": "1501 35th Avenue"}, "geometry": {"type": "Point", "coordinates": [-122.2887078, 47.6142777]}}, {"type": "Feature", "properties": {"id": 51809157, "name": "Denny Blaine Lake Park", "category": "park", "tags": ["park"], "sources": ["osm"], "website": "https://www.seattle.gov/parks/allparks/denny-blaine-lake-park"}, "geometry": {"type": "Point", "coordinates": [-122.2849179, 47.6183236]}}, {"type": "Feature", "properties": {"id": 51809160, "name": "Viretta Park", "category": "park", "tags": ["park"], "sources": ["osm", "overture"], "website": "http://www.cityofseattle.net/parks/parkspaces/virettapark.htm", "phone": "+12066844075", "address": "Viretta Park, 151 Lake Washington Blvd E"}, "geometry": {"type": "Point", "coordinates": [-122.2820756, 47.6185069]}}, {"type": "Feature", "properties": {"id": 54905008, "name": "Howell Park", "category": "park", "tags": ["park"], "sources": ["osm", "overture"], "website": "https://www.seattle.gov/parks/find/parks/howell-park", "phone": "+12066844075", "address": "1740 Howell Pl"}, "geometry": {"type": "Point", "coordinates": [-122.2805119, 47.6175293]}}, {"type": "Feature", "properties": {"id": 57522839, "name": "Madrona Briar Patch", "category": "park", "tags": ["park"], "sources": ["osm"]}, "geometry": {"type": "Point", "coordinates": [-122.2842718, 47.61523]}}, {"type": "Feature", "properties": {"id": 294906444, "name": "Stevens Place", "category": "park", "tags": ["park"], "sources": ["osm"], "website": "https://www.seattle.gov/parks/allparks/stevens-triangle"}, "geometry": {"type": "Point", "coordinates": [-122.2835826, 47.6194677]}}, {"type": "Feature", "properties": {"id": 294467345, "name": "East Olive Lane Street End", "category": "park", "tags": ["park"], "sources": ["osm"]}, "geometry": {"type": "Point", "coordinates": [-122.2802042, 47.6164547]}}, {"type": "Feature", "properties": {"id": 385181766, "name": "East Pine Street End", "category": "park", "tags": ["park"], "sources": ["osm"]}, "geometry": {"type": "Point", "coordinates": [-122.2810137, 47.615213]}}, {"type": "Feature", "properties": {"id": "d3216468-2f72-4a85-8be6-bb2824f78ac2", "name": "Madrona Park", "category": "park", "tags": ["park"], "sources": ["overture"], "website": "http://www.seattle.gov/parks/maintenance/MadronaCreek.htm", "phone": "+12066844075", "address": "853 Lake Washington Blvd"}, "geometry": {"type": "Point", "coordinates": [-122.2833633, 47.6102257]}}, {"type": "Feature", "properties": {"id": 2330280115, "name": "Honed", "category": "jewelry", "tags": ["jewelry", "jeweler"], "sources": ["osm"], "website": "https://honedshop.com", "address": "1105 34th Avenue"}, "geometry": {"type": "Point", "coordinates": [-122.2895277, 47.6118095]}}, {"type": "Feature", "properties": {"id": 2330280143, "name": "Madrona Wine Merchants", "category": "wine", "tags": ["wine", "alcohol"], "sources": ["osm", "overture"], "website": "http://www.madronawinemerchants.com/", "phone": "+12068606017", "address": "1127 34th Ave", "hours": "Tu-Su 12:00-18:00"}, "geometry": {"type": "Point", "coordinates": [-122.2894766, 47.6124891]}}, {"type": "Feature", "properties": {"id": 2330280153, "name": "Katybird", "category": "clothes", "tags": ["clothes"], "sources": ["osm"], "website": "https://www.shopkatybird.com", "address": "1135 34th Avenue"}, "geometry": {"type": "Point", "coordinates": [-122.2894717, 47.6127077]}}, {"type": "Feature", "properties": {"id": "95901526-aab8-4b58-927e-610edc529295", "name": "Katybird", "category": "clothes", "tags": ["clothes", "womens"], "sources": ["overture"], "website": "http://shopkatybird.com/", "phone": "+12063848200", "address": "1426 34th Ave"}, "geometry": {"type": "Point", "coordinates": [-122.2891464, 47.6138268]}}, {"type": "Feature", "properties": {"id": 2330280156, "name": "Hammer + Awl", "category": "clothes", "tags": ["clothes"], "sources": ["osm"], "website": "https://hammerandawl.com", "address": "1137 34th Avenue"}, "geometry": {"type": "Point", "coordinates": [-122.2894691, 47.612743]}}, {"type": "Feature", "properties": {"id": 2330280169, "name": "Corre", "category": "shoes", "tags": ["shoes", "shoe"], "sources": ["osm", "overture"], "website": "http://shopcorre.com/", "phone": "+12066201809", "address": "1406 34th Ave"}, "geometry": {"type": "Point", "coordinates": [-122.2891565, 47.613132]}}, {"type": "Feature", "properties": {"id": 2330280333, "name": "Juniper", "category": "clothes", "tags": ["clothes"], "sources": ["osm"], "address": "3314 East Spring Street"}, "geometry": {"type": "Point", "coordinates": [-122.2896476, 47.611754]}}, {"type": "Feature", "properties": {"id": 9784238684, "name": "Eres Boutique", "category": "clothes", "tags": ["clothes"], "sources": ["osm"], "website": "https://www.eresboutiqueseattle.com", "address": "1113 34th Avenue"}, "geometry": {"type": "Point", "coordinates": [-122.2895091, 47.6120563]}}, {"type": "Feature", "properties": {"id": 224205756, "name": "Valerie Madison", "category": "jewelry", "tags": ["jewelry", "jeweller"], "sources": ["osm"], "website": "https://www.valeriemadison.com", "address": "1411 34th Avenue"}, "geometry": {"type": "Point", "coordinates": [-122.2896021, 47.613303]}}, {"type": "Feature", "properties": {"id": 337117435, "name": "Madrona Market", "category": "convenience", "tags": ["convenience"], "sources": ["osm"], "address": "3309 East Union Street"}, "geometry": {"type": "Point", "coordinates": [-122.2897818, 47.6127496]}}, {"type": "Feature", "properties": {"id": 614663416, "name": "12x74", "category": "gift", "tags": ["gift"], "sources": ["osm"], "address": "1439 34th Avenue"}, "geometry": {"type": "Point", "coordinates": [-122.2894797, 47.613951]}}, {"type": "Feature", "properties": {"id": "9b73839b-b197-4102-a262-5936c679dd74", "name": "Valerie Madison Fine Jewelry", "category": "jewelry", "tags": ["jewelry"], "sources": ["overture"], "website": "http://www.valeriemadison.com/", "phone": "+12063956359", "address": "1422 34th Ave"}, "geometry": {"type": "Point", "coordinates": [-122.2891541, 47.6134987]}}, {"type": "Feature", "properties": {"id": "f13cd339-e4d8-4ee0-8b8c-36ec7f0b14a0", "name": "Home Pros Painting & Decking", "category": "doityourself", "tags": ["doityourself", "building", "supply"], "sources": ["overture"], "website": "http://www.homeprospaintinganddecking.com", "phone": "(206) 200-4332", "address": "180 Lake Washington Blvd E"}, "geometry": {"type": "Point", "coordinates": [-122.2813644, 47.6198006]}}, {"type": "Feature", "properties": {"id": "4ef28c85-a7a4-484e-82aa-49fd0ee43f0f", "name": "Decor on 34th", "category": "furniture", "tags": ["furniture"], "sources": ["overture"], "website": "http://www.decor34.com", "phone": "(206) 571-0094", "address": "1421 34th Ave"}, "geometry": {"type": "Point", "coordinates": [-122.2895279, 47.6134529]}}, {"type": "Feature", "properties": {"id": "94da963a-d4fb-44c8-9263-fbacb5caa92f", "name": "Wilridge Winery", "category": "wine", "tags": ["wine", "winery"], "sources": ["overture"], "website": "http://www.wilridgewinery.com/", "phone": "(206) 325-3051", "address": "1416 34th Ave"}, "geometry": {"type": "Point", "coordinates": [-122.2890549, 47.6135521]}}, {"type": "Feature", "properties": {"id": "94ebc4a9-d124-46d3-8b7e-399071c87dc6", "name": "A Mano", "category": "shoes", "tags": ["shoes", "shoe"], "sources": ["overture"], "website": "http://www.shopamano.com/", "phone": "+12062921767", "address": "1406 34th Ave"}, "geometry": {"type": "Point", "coordinates": [-122.2892303, 47.6131096]}}, {"type": "Feature", "properties": {"id": "ce342fa2-9fea-4fd4-b6d6-2755dc4c6339", "name": "Hitchcock", "category": "jewelry", "tags": ["jewelry"], "sources": ["overture"], "website": "http://www.houseofhitchcock.com/", "phone": "+12062650847", "address": "1121 34th Ave"}, "geometry": {"type": "Point", "coordinates": [-122.289444, 47.6122551]}}, {"type": "Feature", "properties": {"id": "6f7931cc-b1b6-4c56-b809-52344fcae1dc", "name": "Madrona Market and Deli", "category": "deli", "tags": ["deli", "delicatessen"], "sources": ["overture"], "website": "http://www.madronamarket.com", "phone": "+12063245771", "address": "3309 E Union St"}, "geometry": {"type": "Point", "coordinates": [-122.2897873, 47.6128426]}}, {"type": "Feature", "properties": {"id": "070444f7-c85a-4ca8-b528-4bb76b26ad82", "name": "Claire Kinder Jewelry", "category": "jewelry", "tags": ["jewelry"], "sources": ["overture"], "website": "http://ClaireKinder.com/", "phone": "+19176011654", "address": "1105 34th Ave"}, "geometry": {"type": "Point", "coordinates": [-122.2895203, 47.6117935]}}, {"type": "Feature", "properties": {"id": 2330280336, "name": "Lifted Beauty & Wellness", "category": "fitness_centre", "tags": ["fitness-centre", "pilates"], "sources": ["osm"], "website": "https://www.liftedbeautyandwellness.com", "address": "3317 East Union Street"}, "geometry": {"type": "Point", "coordinates": [-122.289546, 47.6127963]}}, {"type": "Feature", "properties": {"id": 224206749, "name": "Sander-Alvord Gymnasium", "category": "sports_centre", "tags": ["sports-centre"], "sources": ["osm"], "address": "3710 East Howell Street"}, "geometry": {"type": "Point", "coordinates": [-122.2864925, 47.6178693]}}, {"type": "Feature", "properties": {"id": "c52d1e37-6596-4159-b764-788f37191359", "name": "Backcountry Pilates", "category": "fitness_centre", "tags": ["fitness-centre", "pilates", "studio"], "sources": ["overture"], "website": "http://backcountrypilates.com/", "phone": "+12062081565", "address": "1412 34th Ave"}, "geometry": {"type": "Point", "coordinates": [-122.2891541, 47.6133461]}}, {"type": "Feature", "properties": {"id": "4ae91272-5986-43ec-80ae-a6663091233f", "name": "Conscious Body Pilates", "category": "fitness_centre", "tags": ["fitness-centre", "pilates", "studio"], "sources": ["overture"], "phone": "2067092673", "address": "3317 E Union St"}, "geometry": {"type": "Point", "coordinates": [-122.2895889, 47.6127815]}}]}