{"type": "FeatureCollection", "features": [{"type": "Feature", "properties": {"id": 4789311467, "name": "Taqueria Los Chilangos", "category": "restaurant", "tags": ["restaurant", "mexican", "takeaway"], "sources": ["osm"], "website": "https://www.loschilangos.com/", "address": "14008 Northeast 8th Street"}, "geometry": {"type": "Point", "coordinates": [-122.1533606, 47.6176559]}}, {"type": "Feature", "properties": {"id": "c18893aa-0a6d-47ca-b643-e5d4014b772d", "name": "Foothill Commons", "category": "attraction", "tags": ["attraction", "landmark", "historical", "building"], "sources": ["overture"], "website": "http://FoothillCommons.com/", "phone": "+14254345195", "address": "898 137th Ave NE"}, "geometry": {"type": "Point", "coordinates": [-122.1575012, 47.6178627]}}, {"type": "Feature", "properties": {"id": "2b86d7aa-9ebf-4e39-a911-ce94ec7f67cd", "name": "Bellevue Heights", "category": "attraction", "tags": ["attraction", "landmark", "historical", "building"], "sources": ["overture"], "website": "https://www.cornellandassociates.com/bellevue-heights", "phone": "+14255623525", "address": "13902 NE 8th St"}, "geometry": {"type": "Point", "coordinates": [-122.1544724, 47.6175079]}}, {"type": "Feature", "properties": {"id": "0598faaf-f6f2-4365-beb0-d2e97fca84e5", "name": "The Martine Apartments", "category": "attraction", "tags": ["attraction", "landmark", "historical", "building"], "sources": ["overture"], "website": "http://martine-living.com/", "phone": "+14256143600", "address": "13842 NE 8th St"}, "geometry": {"type": "Point", "coordinates": [-122.1556091, 47.6178131]}}, {"type": "Feature", "properties": {"id": "5dcd3af7-5b8b-4824-aa8c-cef60f8eef6b", "name": "Cedar Park Assembly of God", "category": "park", "tags": ["park"], "sources": ["overture"], "website": "http://www.cedarpark.org", "phone": "+14254889778", "address": "625 140th Ave NE"}, "geometry": {"type": "Point", "coordinates": [-122.1541519, 47.6160889]}}, {"type": "Feature", "properties": {"id": 486274691, "name": "Shell", "category": "convenience", "tags": ["convenience"], "sources": ["osm"], "address": "14008 Northeast 8th Street"}, "geometry": {"type": "Point", "coordinates": [-122.1530936, 47.6175711]}}, {"type": "Feature", "properties": {"id": 60196856, "name": "Walgreens", "category": "pharmacy", "tags": ["pharmacy"], "sources": ["osm"], "phone": "+1-425-603-1438", "address": "647 140th Avenue Northeast"}, "geometry": {"type": "Point", "coordinates": [-122.1543508, 47.6167411]}}, {"type": "Feature", "properties": {"id": 4794690518, "name": "International Community Health Services", "category": "clinic", "tags": ["clinic"], "sources": ["osm"], "website": "https://www.ichs.com/"}, "geometry": {"type": "Point", "coordinates": [-122.153019, 47.6196432]}}, {"type": "Feature", "properties": {"id": 6418654687, "name": "Neck & Back Pain Clinic", "category": "clinic", "tags": ["clinic"], "sources": ["osm"]}, "geometry": {"type": "Point", "coordinates": [-122.1517503, 47.6174916]}}, {"type": "Feature", "properties": {"id": "61ea0dc2-14b0-4e8b-8581-e20442b33827", "name": "Walgreens Pharmacy", "category": "pharmacy", "tags": ["pharmacy"], "sources": ["overture"], "website": "https://www.walgreens.com", "phone": "+14256031438", "address": "647 140th Ave NE"}, "geometry": {"type": "Point", "coordinates": [-122.1541672, 47.6167793]}}]}