{"type": "FeatureCollection", "features": [{"type": "Feature", "properties": {"id": 1726088089, "name": "Starbucks", "category": "cafe", "tags": ["cafe", "coffee-shop", "takeaway", "wifi", "coffee"], "sources": ["osm", "overture"], "website": "https://www.starbucks.com/store-locator/store/14799/", "phone": "+12063293736", "address": "4000 E Madison St"}, "geometry": {"type": "Point", "coordinates": [-122.280812, 47.6341044]}}, {"type": "Feature", "properties": {"id": 2329620310, "name": "Hanok", "category": "restaurant", "tags": ["restaurant", "asian", "korean", "fusion"], "sources": ["osm", "overture"], "website": "http://hanokasianeatery.com/", "phone": "+12064023847", "address": "4021 E Madison St"}, "geometry": {"type": "Point", "coordinates": [-122.2803944, 47.6339546]}}, {"type": "Feature", "properties": {"id": 2329620314, "name": "Scoop Du Jour", "category": "ice_cream", "tags": ["ice-cream"], "sources": ["osm"], "address": "4029 East Madison Street"}, "geometry": {"type": "Point", "coordinates": [-122.2803271, 47.6340053]}}, {"type": "Feature", "properties": {"id": "0df65959-b14d-49d0-aa88-14e14432d190", "name": "Samuel Hyde House", "category": "attraction", "tags": ["attraction", "landmark", "historical", "building"], "sources": ["overture"], "website": "http://en.wikipedia.org/wiki/Samuel_Hyde_House", "phone": "+12062331509", "address": "3726 E Madison St"}, "geometry": {"type": "Point", "coordinates": [-122.2844391, 47.6317596]}}, {"type": "Feature", "properties": {"id": 294897971, "name": "Hyde Place", "category": "park", "tags": ["park"], "sources": ["osm"], "website": "https://www.seattle.gov/parks/history/HydePl.pdf"}, "geometry": {"type": "Point", "coordinates": [-122.2829347, 47.6323146]}}, {"type": "Feature", "properties": {"id": 294898046, "name": "Lambert Place", "category": "park", "tags": ["park"], "sources": ["osm"], "website": "https://www.seattle.gov/parks/history/HydePl.pdf"}, "geometry": {"type": "Point", "coordinates": [-122.2838066, 47.6320106]}}, {"type": "Feature", "properties": {"id": "1b67fe8c-d3ff-4a5b-93bc-57931f46a802", "name": "Toth Constuction", "category": "doityourself", "tags": ["doityourself", "home", "improvement"], "sources": ["overture"], "website": "http://www.tothconstruction.com", "phone": "(206) 913-2676", "address": "1620 Broadmoor Dr E"}, "geometry": {"type": "Point", "coordinates": [-122.2879486, 47.6336937]}}, {"type": "Feature", "properties": {"id": 224059932, "name": "Wells Fargo", "category": "bank", "tags": ["bank", "credit", "union"], "sources": ["osm", "overture"], "website": "http://www.wellsfargo.com", "phone": "+12063227720", "address": "4009 E Madison St"}, "geometry": {"type": "Point", "coordinates": [-122.280851, 47.6335991]}}, {"type": "Feature", "properties": {"id": 2423615163, "name": "Chase", "category": "bank", "tags": ["bank"], "sources": ["osm"], "website": "https://locator.chase.com/wa/seattle/4020-e-madison-st", "phone": "+1-206-461-3025", "address": "4020 East Madison Street"}, "geometry": {"type": "Point", "coordinates": [-122.280416, 47.6344042]}}, {"type": "Feature", "properties": {"id": 224042142, "name": "HomeStreet Bank", "category": "bank", "tags": ["bank", "credit", "union"], "sources": ["osm", "overture"], "website": "https://www.homestreet.com/locations/madison-park", "phone": "2064357956", "address": "4036 E Madison St"}, "geometry": {"type": "Point", "coordinates": [-122.2801877, 47.6345838]}}, {"type": "Feature", "properties": {"id": "d66ff66d-b6bc-4a8b-a42e-6e7b7eeee12c", "name": "Chase Bank", "category": "bank", "tags": ["bank", "credit", "union"], "sources": ["overture"], "website": "https://www.chase.com/locator/banking/us/wa/seattle/4020-e-madison-st", "phone": "+12064613025", "address": "4020 E Madison St"}, "geometry": {"type": "Point", "coordinates": [-122.2804947, 47.6343613]}}]}