{"type": "FeatureCollection", "features": [{"type": "Feature", "properties": {"id": "f353208a-ffdf-4d52-9bfa-d977ceac8a9d", "name": "Starbucks", "category": "cafe", "tags": ["cafe", "coffee"], "sources": ["overture"], "website": "http://www.starbucks.com", "phone": "+14256436471", "address": "15600 NE 8th St"}, "geometry": {"type": "Point", "coordinates": [-122.130722, 47.6172676]}}, {"type": "Feature", "properties": {"id": "68993d6a-1d46-48c9-a5ae-1a34b4ae003b", "name": "Starbucks", "category": "cafe", "tags": ["cafe", "coffee"], "sources": ["overture"], "website": "https://www.starbucks.com/store-locator/store/15097/", "phone": "4256436471", "address": "15600 NE 8th St"}, "geometry": {"type": "Point", "coordinates": [-122.1309891, 47.6188927]}}, {"type": "Feature", "properties": {"id": 146122981, "name": "Pizza Hut", "category": "restaurant", "tags": ["restaurant", "pizza"], "sources": ["osm"]}, "geometry": {"type": "Point", "coordinates": [-122.1313117, 47.6173352]}}, {"type": "Feature", "properties": {"id": "2c30be96-664b-477a-a474-66b94a985cce", "name": "The French Bakery", "category": "bakery", "tags": ["bakery"], "sources": ["overture"], "website": "http://www.thefrenchbakery.com/contact/", "phone": "+14257470557", "address": "15600 NE 8th St"}, "geometry": {"type": "Point", "coordinates": [-122.1310349, 47.6195335]}}, {"type": "Feature", "properties": {"id": 457863516, "name": "Cold Stone Creamery", "category": "ice_cream", "tags": ["ice-cream", "wheelchair-accessible"], "sources": ["osm"], "website": "https://www.coldstonecreamery.com/", "phone": "+1-425-957-0333", "hours": "Mo-Sa 11:00-21:00; Su 11:00-18:00"}, "geometry": {"type": "Point", "coordinates": [-122.1310018, 47.6190745]}}, {"type": "Feature", "properties": {"id": 457863568, "name": "Torero's Taqueria", "category": "fast_food", "tags": ["fast-food", "mexican", "wheelchair-accessible", "vegetarian", "restaurant"], "sources": ["osm", "overture"], "website": "http://Crossroadsbellevue.com/", "phone": "+14256447710", "address": "15600 NE 8th St"}, "geometry": {"type": "Point", "coordinates": [-122.13085, 47.6191978]}}, {"type": "Feature", "properties": {"id": "d3fba5c6-1330-478f-a8f5-a8ba006aacc2", "name": "El Maestro del Taco", "category": "restaurant", "tags": ["restaurant", "mexican", "fast-food", "taco"], "sources": ["overture"], "website": "https://www.giftrocket.com/gift-card/el-maestro-del-taco-bellevue", "phone": "+14255177111", "address": "15615 NE 8th St"}, "geometry": {"type": "Point", "coordinates": [-122.1319885, 47.6165886]}}, {"type": "Feature", "properties": {"id": 146133010, "name": "Mochinut", "category": "fast_food", "tags": ["fast-food", "donut", "bubble-tea", "outdoor-seating", "indoor-seating", "takeaway"], "sources": ["osm"], "website": "https://www.mochinut.com/", "hours": "Mo-Sa 11:00-21:00; Su 11:00-18:00"}, "geometry": {"type": "Point", "coordinates": [-122.1310409, 47.6188702]}}, {"type": "Feature", "properties": {"id": 457863569, "name": "Tutta Bella Neapolitan Pizzeria", "category": "restaurant", "tags": ["restaurant", "pizza", "outdoor-seating", "indoor-seating", "italian"], "sources": ["osm", "overture"], "website": "https://tuttabella.com/", "phone": "+14255027402", "address": "15600 NE 8th St"}, "geometry": {"type": "Point", "coordinates": [-122.1310615, 47.6192547]}}, {"type": "Feature", "properties": {"id": "38524628-1260-4f41-a430-fbf304eb7bbc", "name": "Papaya Vietnamese Caf\u00e9", "category": "restaurant", "tags": ["restaurant", "noodles", "asian"], "sources": ["overture"], "phone": "4256438999", "address": "15600 NE 8th St"}, "geometry": {"type": "Point", "coordinates": [-122.1320038, 47.616993]}}, {"type": "Feature", "properties": {"id": 457863509, "name": "Boba Express", "category": "cafe", "tags": ["cafe", "bubble-tea", "wheelchair-accessible", "vegetarian"], "sources": ["osm"], "phone": "+1-425-641-1165"}, "geometry": {"type": "Point", "coordinates": [-122.1304949, 47.6191002]}}, {"type": "Feature", "properties": {"id": 457863503, "name": "Blazing Bowl", "category": "restaurant", "tags": ["restaurant", "lao"], "sources": ["osm"], "website": "https://blazingbowl.net/", "phone": "+1-425-641-2822"}, "geometry": {"type": "Point", "coordinates": [-122.1307244, 47.6194219]}}, {"type": "Feature", "properties": {"id": 457863512, "name": "Bulgogi Korean BBQ", "category": "fast_food", "tags": ["fast-food", "korean", "wheelchair-accessible", "vegetarian"], "sources": ["osm"], "phone": "+1-425-747-7212"}, "geometry": {"type": "Point", "coordinates": [-122.1308777, 47.6195723]}}, {"type": "Feature", "properties": {"id": 457863520, "name": "Crossroads Grill & Burgers", "category": "fast_food", "tags": ["fast-food", "burger", "halal", "restaurant", "american", "bar-and-grill"], "sources": ["osm", "overture"], "website": "http://neighborhoodgrills.com/crossroads/", "phone": "+14255317914", "address": "15600 NE 8th St", "hours": "Mo-Sa 11:00-21:00; Su 11:00-18:00"}, "geometry": {"type": "Point", "coordinates": [-122.1307287, 47.6190412]}}, {"type": "Feature", "properties": {"id": 457863525, "name": "Ebru Mediterranean Grill", "category": "fast_food", "tags": ["fast-food", "mediterranean", "wheelchair-accessible", "vegetarian", "restaurant"], "sources": ["osm", "overture"], "website": "http://www.crossroadsbellevue.com", "phone": "+14256414352", "address": "15600 NE 8th St", "hours": "Mo-Sa 11:00-21:00; Su 11:00-18:00"}, "geometry": {"type": "Point", "coordinates": [-122.1306936, 47.6191033]}}, {"type": "Feature", "properties": {"id": 457863532, "name": "Rice & Noodles Chinese Kitchen", "category": "fast_food", "tags": ["fast-food", "chinese", "wheelchair-accessible", "vegetarian"], "sources": ["osm"], "phone": "+1-425-209-4970"}, "geometry": {"type": "Point", "coordinates": [-122.1304941, 47.6191698]}}, {"type": "Feature", "properties": {"id": 457863534, "name": "Island Grill", "category": "fast_food", "tags": ["fast-food", "hawaiian", "wheelchair-accessible", "restaurant", "barbecue"], "sources": ["osm", "overture"], "website": "https://www.islandgrillbellevue.com", "phone": "+14255029798", "address": "15600 NE 8th St"}, "geometry": {"type": "Point", "coordinates": [-122.1304937, 47.6192515]}}, {"type": "Feature", "properties": {"id": 457863538, "name": "Crossroads Italiano", "category": "restaurant", "tags": ["restaurant", "italian", "wheelchair-accessible"], "sources": ["osm", "overture"], "website": "https://crossroadsitaliano.com/", "phone": "+14255620210", "address": "15600 NE 8th St", "hours": "Mo-Sa 11:00-21:00; Su 11:00-18:00"}, "geometry": {"type": "Point", "coordinates": [-122.1308718, 47.6190438]}}, {"type": "Feature", "properties": {"id": 457863542, "name": "O'Char Thai", "category": "fast_food", "tags": ["fast-food", "thai", "wheelchair-accessible", "vegetarian", "restaurant", "asian"], "sources": ["osm", "overture"], "website": "http://www.ocharthai.com", "phone": "+14256030363", "address": "15600 NE 8th St", "hours": "Mo-Sa 11:00-21:00; Su 11:00-18:00"}, "geometry": {"type": "Point", "coordinates": [-122.1304733, 47.6193183]}}, {"type": "Feature", "properties": {"id": 457863543, "name": "Chakra Authentic Indian", "category": "fast_food", "tags": ["fast-food", "indian", "wheelchair-accessible"], "sources": ["osm"], "website": "https://www.onlinechakra.com/", "phone": "+1-425-641-9998", "hours": "Mo-Sa 11:00-21:00; Su 11:00-18:00"}, "geometry": {"type": "Point", "coordinates": [-122.1307665, 47.6190872]}}, {"type": "Feature", "properties": {"id": 457863547, "name": "Papaya Vietnamese Cuisine", "category": "restaurant", "tags": ["restaurant", "vietnamese", "wheelchair-accessible", "vegetarian"], "sources": ["osm", "overture"], "website": "http://www.papayamagic.com", "phone": "(425) 643-8999", "address": "15600 NE 8th St"}, "geometry": {"type": "Point", "coordinates": [-122.1308717, 47.6191039]}}, {"type": "Feature", "properties": {"id": 457863548, "name": "Papazzi Pizzeria", "category": "fast_food", "tags": ["fast-food", "pizza", "restaurant", "italian"], "sources": ["osm", "overture"], "website": "http://www.papazzipizzeria.com/", "phone": "+14257466436", "address": "15600 NE 8th St"}, "geometry": {"type": "Point", "coordinates": [-122.1307223, 47.6193033]}}, {"type": "Feature", "properties": {"id": 457863554, "name": "Piroshky Bakery", "category": "restaurant", "tags": ["restaurant", "russian", "wheelchair-accessible", "vegetarian"], "sources": ["osm"], "phone": "+1-425-401-9870"}, "geometry": {"type": "Point", "coordinates": [-122.1308643, 47.6193844]}}, {"type": "Feature", "properties": {"id": 457863563, "name": "Sushi J", "category": "fast_food", "tags": ["fast-food", "japanese"], "sources": ["osm"], "phone": "+1-425-698-1424"}, "geometry": {"type": "Point", "coordinates": [-122.1308784, 47.6194949]}}, {"type": "Feature", "properties": {"id": 457863574, "name": "Punjabi Tadka", "category": "restaurant", "tags": ["restaurant", "indian"], "sources": ["osm", "overture"], "website": "https://punjabitadkausa.com/", "phone": "+14256796880", "address": "Crossroads Mall Food Court, 15600 NE 8th St", "hours": "Mo-Sa 11:00-21:00; Su 11:00-18:00"}, "geometry": {"type": "Point", "coordinates": [-122.1307389, 47.6188935]}}, {"type": "Feature", "properties": {"id": "ffafcda2-c6be-4e5c-9e3c-b9ff27739d9a", "name": "Dick's Drive-in", "category": "restaurant", "tags": ["restaurant", "burger"], "sources": ["overture"], "website": "https://www.ddir.com/locations", "address": "15600 NE 8th St Ste O-1"}, "geometry": {"type": "Point", "coordinates": [-122.1307373, 47.6188202]}}, {"type": "Feature", "properties": {"id": "99071ef8-ac39-4eda-9681-ad8f59067d64", "name": "Mix Sushi Bar", "category": "restaurant", "tags": ["restaurant", "sushi", "japanese", "asian"], "sources": ["overture"], "phone": "+14255909284", "address": "15600 NE 8th St"}, "geometry": {"type": "Point", "coordinates": [-122.130867, 47.6194572]}}, {"type": "Feature", "properties": {"id": "d65f2c96-ceee-4f51-9880-9f203f5ee096", "name": "International Food Bazaar", "category": "restaurant", "tags": ["restaurant", "halal"], "sources": ["overture"], "website": "http://www.ifbazaar.com", "phone": "+14256140500", "address": "1313 156th Ave NE"}, "geometry": {"type": "Point", "coordinates": [-122.1306763, 47.619175]}}, {"type": "Feature", "properties": {"id": "6f4559f8-c5c6-4b07-8612-9675941ecf9e", "name": "Burney Brothers BBQ", "category": "restaurant", "tags": ["restaurant", "barbecue"], "sources": ["overture"], "website": "http://www.burneybrothersbbq.com/", "phone": "(425) 653-4272", "address": "15600 NE 8th St"}, "geometry": {"type": "Point", "coordinates": [-122.1306534, 47.6192932]}}, {"type": "Feature", "properties": {"id": "b7f40e94-056e-42cc-966a-3a8cfde5949a", "name": "Coyote Creek Pizza Company", "category": "restaurant", "tags": ["restaurant", "pizza"], "sources": ["overture"], "website": "http://www.coyotecreekpizza.com/", "phone": "(425) 746-7460", "address": "15600 NE 8th St"}, "geometry": {"type": "Point", "coordinates": [-122.1323471, 47.6172142]}}, {"type": "Feature", "properties": {"id": "267d8c4a-0cea-4714-964c-f31f686c73ff", "name": "Wunderbrat Sausages and Pretzels", "category": "restaurant", "tags": ["restaurant", "hot-dog", "hot", "dog"], "sources": ["overture"], "website": "http://www.wunderbrat.com", "phone": "(425) 643-9388", "address": "15600 NE 8th St Ste H7"}, "geometry": {"type": "Point", "coordinates": [-122.1317978, 47.6173973]}}, {"type": "Feature", "properties": {"id": "92769816-56bc-4466-ae1b-68537fbc4415", "name": "Tanpopo", "category": "restaurant", "tags": ["restaurant", "japanese"], "sources": ["overture"], "website": "http://tanpopo.org", "phone": "(425) 644-7400", "address": "15600 NE 8th St"}, "geometry": {"type": "Point", "coordinates": [-122.1307602, 47.6195145]}}, {"type": "Feature", "properties": {"id": "0b74d123-0ae7-41c3-9cd6-e3f31e9a7fa4", "name": "Bulgogi", "category": "restaurant", "tags": ["restaurant", "korean", "asian"], "sources": ["overture"], "website": "http://www.crossroadsbellevue.com", "phone": "+14257477212", "address": "15600 NE 8th St"}, "geometry": {"type": "Point", "coordinates": [-122.1309128, 47.6195526]}}, {"type": "Feature", "properties": {"id": "f4f64f5b-0050-418f-8e4e-59edee1152fa", "name": "La Que Restaurant", "category": "restaurant", "tags": ["restaurant", "vietnamese"], "sources": ["overture"], "phone": "+14256438999", "address": "15600 NE 8th St"}, "geometry": {"type": "Point", "coordinates": [-122.1311111, 47.6194916]}}, {"type": "Feature", "properties": {"id": "e60cc1c8-ca16-4250-b2e8-8f393111690b", "name": "Delhi Bombay Pizza", "category": "restaurant", "tags": ["restaurant", "pizza"], "sources": ["overture"], "website": "https://delhibombaypizzamenu.com/", "phone": "4257464911", "address": "15600 NE 8th St"}, "geometry": {"type": "Point", "coordinates": [-122.1303711, 47.6194115]}}, {"type": "Feature", "properties": {"id": "fea435a2-52a5-4bd6-942d-7dd467231984", "name": "MiniMoon Dumplings", "category": "restaurant", "tags": ["restaurant", "dumplings"], "sources": ["overture"], "website": "http://nuodle.love", "phone": "(425) 393-5028", "address": "15600 NE 8th St Ste PM13"}, "geometry": {"type": "Point", "coordinates": [-122.1309586, 47.6194725]}}, {"type": "Feature", "properties": {"id": "7d2337cf-8ba4-41cc-8e9f-2f0fe5da931d", "name": "Crossroads Cafe", "category": "restaurant", "tags": ["restaurant", "american"], "sources": ["overture"], "website": "http://www.crossroadsbellevue.com", "phone": "(425) 747-6375", "address": "15600 NE 8th St"}, "geometry": {"type": "Point", "coordinates": [-122.1307602, 47.6190033]}}, {"type": "Feature", "properties": {"id": "9531c031-f4b1-4d65-aa7b-02ab3505f8c5", "name": "June Bakery", "category": "bakery", "tags": ["bakery"], "sources": ["overture"], "website": "https://crossroadsbellevue.com/directory#june-bakery", "phone": "(425) 502-7082", "address": "15600 NE 8th St Ste H7"}, "geometry": {"type": "Point", "coordinates": [-122.1306839, 47.618988]}}, {"type": "Feature", "properties": {"id": "ae7d2db2-6de0-4e55-9c82-3cf5170e2757", "name": "Eat Street", "category": "restaurant", "tags": ["restaurant", "indian", "asian"], "sources": ["overture"], "website": "http://www.ohindiaeatstreet.com/", "phone": "+14256419998", "address": "15600 NE 8th St"}, "geometry": {"type": "Point", "coordinates": [-122.1305389, 47.618824]}}, {"type": "Feature", "properties": {"id": "3e5b37c8-4a39-45a8-b0a3-aa3281ef6b0b", "name": "Shiraz Pizza & Pasta", "category": "restaurant", "tags": ["restaurant", "pizza"], "sources": ["overture"], "phone": "4257464911", "address": "15600 NE 8th St"}, "geometry": {"type": "Point", "coordinates": [-122.1314316, 47.6187057]}}, {"type": "Feature", "properties": {"id": "11bd3fb2-fb2f-4baf-9818-ea24aa628dd9", "name": "Punjabi Tadka - Crossroads Bellevue", "category": "restaurant", "tags": ["restaurant"], "sources": ["overture"], "website": "https://www.punjabitadkausa.com/", "phone": "4256796880", "address": "15600 NE 8th St, PM20 (Inside Crossroads Mall Food Court)"}, "geometry": {"type": "Point", "coordinates": [-122.1313324, 47.6189766]}}, {"type": "Feature", "properties": {"id": "3dd796b9-7049-4688-a88d-934e092e3cbf", "name": "Green Bamboo Wok", "category": "restaurant", "tags": ["restaurant", "chinese"], "sources": ["overture"], "website": "http://www.crossroadsbellevue.com/", "phone": "(425) 562-5150", "address": "15600 NE 8th St"}, "geometry": {"type": "Point", "coordinates": [-122.1306839, 47.6191139]}}, {"type": "Feature", "properties": {"id": "e389d582-a4c9-407e-9bcd-0bd4e6c559fe", "name": "Chakra", "category": "restaurant", "tags": ["restaurant", "indian", "asian"], "sources": ["overture"], "website": "https://www.onlinechakra.com/", "phone": "+14256419998", "address": "15600 NE 8th St"}, "geometry": {"type": "Point", "coordinates": [-122.1307144, 47.6191368]}}, {"type": "Feature", "properties": {"id": "958dd72a-055f-49f2-9e54-b78e2d9e33c3", "name": "Torrero's Food Court, Crossroads Mall", "category": "restaurant", "tags": ["restaurant", "mexican"], "sources": ["overture"], "website": "http://www.crossroadsbellevue.com", "phone": "(425) 644-1111", "address": "15600 NE 8th St"}, "geometry": {"type": "Point", "coordinates": [-122.1308136, 47.6191978]}}, {"type": "Feature", "properties": {"id": 12245117174, "name": "Story Pole IV", "category": "artwork", "tags": ["artwork"], "sources": ["osm"]}, "geometry": {"type": "Point", "coordinates": [-122.132918, 47.617099]}}, {"type": "Feature", "properties": {"id": "5abc19bc-a6cf-4f9d-ae37-1a2f58c468dd", "name": "Champagne at Bellevue", "category": "attraction", "tags": ["attraction", "landmark", "historical", "building"], "sources": ["overture"], "website": "http://www.champagneapartments.com/", "phone": "+14257850101", "address": "15165 NE 8th St"}, "geometry": {"type": "Point", "coordinates": [-122.1389618, 47.6168213]}}, {"type": "Feature", "properties": {"id": "7fdf9301-de21-4a55-a0b1-f4e1b042194c", "name": "Madison Bellevue Apartment Homes", "category": "attraction", "tags": ["attraction", "landmark", "historical", "building"], "sources": ["overture"], "website": "https://www.madison-bellevue.com/", "phone": "+18553910335", "address": "799 154th Pl NE"}, "geometry": {"type": "Point", "coordinates": [-122.1347275, 47.6179695]}}, {"type": "Feature", "properties": {"id": 457863573, "name": "WiggleWorks Kids", "category": "playground", "tags": ["playground"], "sources": ["osm", "overture"], "website": "http://www.wiggleworkskids.com", "phone": "+14256412186", "address": "15600 NE 8th St"}, "geometry": {"type": "Point", "coordinates": [-122.1304218, 47.6184542]}}, {"type": "Feature", "properties": {"id": 56228516, "name": "Grocery Outlet", "category": "supermarket", "tags": ["supermarket"], "sources": ["osm", "overture"], "website": "https://www.groceryoutlet.com/circulars/storeid/243", "phone": "+14256331640", "address": "15625 NE 8th St", "hours": "Mo-Su 08:00-21:00"}, "geometry": {"type": "Point", "coordinates": [-122.1313703, 47.6163939]}}, {"type": "Feature", "properties": {"id": 457863571, "name": "Barnes & Noble", "category": "books", "tags": ["books"], "sources": ["osm"], "website": "https://stores.barnesandnoble.com/store/3418", "hours": "Mo-Sa 10:00-09:00,11:00-18:00"}, "geometry": {"type": "Point", "coordinates": [-122.1309483, 47.6181544]}}, {"type": "Feature", "properties": {"id": 146133011, "name": "Old Navy", "category": "clothes", "tags": ["clothes", "wheelchair-accessible"], "sources": ["osm", "overture"], "website": "https://oldnavy.gap.com/products/bellevue-wa-store-5655.jsp", "phone": "+14255624252", "address": "15600 NE 8th St", "hours": "Mo-Sa 10:00-21:00; Su 11:00-18:00"}, "geometry": {"type": "Point", "coordinates": [-122.1309477, 47.6184289]}}, {"type": "Feature", "properties": {"id": 146133012, "name": "Half Price Books", "category": "books", "tags": ["books", "wifi"], "sources": ["osm", "overture"], "website": "https://www.hpb.com/store?storeid=HPB-022&showMap=true&horizontalView=true&isForm=true&y_source=1_MTExNTM1NC01NTktbG9jYXRpb24ud2Vic2l0ZQ%3D%3D", "phone": "+14257476616", "address": "15600 NE 8th St", "hours": "Mo-Sa 09:00-22:00; Su 09:00-20:00"}, "geometry": {"type": "Point", "coordinates": [-122.1310342, 47.6187351]}}, {"type": "Feature", "properties": {"id": 457863551, "name": "Hallmark", "category": "gift", "tags": ["gift"], "sources": ["osm", "overture"], "website": "https://www.hallmark.com", "phone": "(425) 747-6787", "address": "15600 NE 8th St Ste G2", "hours": "Mo-Sa 10:00-18:00; Su 11:00-18:00"}, "geometry": {"type": "Point", "coordinates": [-122.1301926, 47.61802]}}, {"type": "Feature", "properties": {"id": 481427684, "name": "Rocket", "category": "convenience", "tags": ["convenience"], "sources": ["osm", "overture"], "website": "https://rocketstores.com/", "phone": "+14259570306", "address": "15615 NE 8th St"}, "geometry": {"type": "Point", "coordinates": [-122.131869, 47.6166343]}}, {"type": "Feature", "properties": {"id": 457863553, "name": "Cycle Gear", "category": "clothes", "tags": ["clothes"], "sources": ["osm"], "website": "https://www.cyclegear.com/", "phone": "+1-425-818-2248"}, "geometry": {"type": "Point", "coordinates": [-122.1311281, 47.6179169]}}, {"type": "Feature", "properties": {"id": 40149345, "name": "India Metro Hypermarket", "category": "supermarket", "tags": ["supermarket"], "sources": ["osm", "overture"], "website": "https://www.kiranalist.com/storeclosed", "phone": "+14256433992", "address": "653 156th Ave NE"}, "geometry": {"type": "Point", "coordinates": [-122.1336242, 47.6162293]}}, {"type": "Feature", "properties": {"id": 457863501, "name": "Sakkhi Style", "category": "clothes", "tags": ["clothes"], "sources": ["osm"], "website": "https://sakkhistyle.com/", "phone": "+1-425-698-9400", "hours": "Mo-Sa 10:00-21:00; Su 11:00-18:00"}, "geometry": {"type": "Point", "coordinates": [-122.1307588, 47.6187398]}}, {"type": "Feature", "properties": {"id": 457863504, "name": "OTA World", "category": "furniture", "tags": ["furniture", "wheelchair-accessible"], "sources": ["osm"], "phone": "+1-425-760-3821"}, "geometry": {"type": "Point", "coordinates": [-122.1304355, 47.6194614]}}, {"type": "Feature", "properties": {"id": 457863560, "name": "Silver Palms Jewelry and Perfumery", "category": "jewelry", "tags": ["jewelry", "wheelchair-accessible"], "sources": ["osm"], "hours": "Mo-Sa 10:00-21:00; Su 11:00-18:00"}, "geometry": {"type": "Point", "coordinates": [-122.1304995, 47.618787]}}, {"type": "Feature", "properties": {"id": "72fd3ef3-6538-4e70-ab62-14d5a7916a11", "name": "dressbarn", "category": "clothes", "tags": ["clothes", "womens"], "sources": ["overture"], "website": "https://locations.dressbarn.com/wa/bellevue/dresses-bellevue-wa-914.html", "phone": "4256141211", "address": "15600 NE 8th St Ste G5"}, "geometry": {"type": "Point", "coordinates": [-122.1306152, 47.6186066]}}, {"type": "Feature", "properties": {"id": "e6856c6e-ba23-4f20-a78a-403728dd9e1f", "name": "Pier 1 Imports", "category": "furniture", "tags": ["furniture"], "sources": ["overture"], "website": "https://www.pier1.com/on/demandware.store/Sites-pier1_us-Site/default/LocalStore?s_cid=lsl0000001&storeId=1472", "phone": "(425) 643-2042", "address": "15600 NE 8th St Ste F21"}, "geometry": {"type": "Point", "coordinates": [-122.1309814, 47.6179504]}}, {"type": "Feature", "properties": {"id": "67c08b2f-4648-4320-bf8e-41a0b84af232", "name": "Bellevue Crossroads Florist", "category": "florist", "tags": ["florist"], "sources": ["overture"], "website": "http://www.bellevuecrossroadsflowers.com/", "phone": "4257475654", "address": "15600 NE 8th St Ste B3"}, "geometry": {"type": "Point", "coordinates": [-122.1313324, 47.6189766]}}, {"type": "Feature", "properties": {"id": "fb384c20-df0f-4878-a94a-cb2614412211", "name": "Cricket Wireless (Inside Gamestop)", "category": "mobile_phone", "tags": ["mobile-phone", "mobile"], "sources": ["overture"], "phone": "8002743983", "address": "15600 NE 8th St Ste B-2"}, "geometry": {"type": "Point", "coordinates": [-122.1318588, 47.6174049]}}, {"type": "Feature", "properties": {"id": "b082d976-62ca-41c9-a255-f28eb5027271", "name": "Barnes & Noble Bellevue | Bellevue WA", "category": "books", "tags": ["books"], "sources": ["overture"], "website": "http://bn.com/", "phone": "+14255196192", "address": "Crossroads Shopping Center, 15600 NE 8th St"}, "geometry": {"type": "Point", "coordinates": [-122.1313705, 47.6181641]}}, {"type": "Feature", "properties": {"id": "903f8d47-7453-415a-ba2b-939c9aed6bbc", "name": "The Store From Layas Pottery", "category": "gift", "tags": ["gift"], "sources": ["overture"], "website": "http://www.layaspottery.com/", "phone": "4256056674", "address": "Crossroads mall, 15600 Northeast 8th St Ste F-12"}, "geometry": {"type": "Point", "coordinates": [-122.1307449, 47.6185188]}}, {"type": "Feature", "properties": {"id": "01ef87d9-e92a-4c2f-98b9-643e33add116", "name": "Uncle's Games (Bellevue)", "category": "toys", "tags": ["toys"], "sources": ["overture"], "website": "http://www.unclesgames.com/", "phone": "+14257461539"}, "geometry": {"type": "Point", "coordinates": [-122.1306076, 47.6195183]}}, {"type": "Feature", "properties": {"id": "951e2973-0835-4ac2-b1e4-ed1bdfc838af", "name": "OTA World (Osaki Massage Chair)", "category": "furniture", "tags": ["furniture"], "sources": ["overture"], "website": "http://joymassagechair.com/", "phone": "+14257601773", "address": "15600 NE 8th St"}, "geometry": {"type": "Point", "coordinates": [-122.1308365, 47.619648]}}, {"type": "Feature", "properties": {"id": "74ff57c8-40c4-40e5-b667-af0c545e7e22", "name": "Trudy's Hallmark Shop", "category": "gift", "tags": ["gift"], "sources": ["overture"], "website": "https://stores.hallmark.com/wa/bellevue/trudys-hallmark-shop-bellevue-wa-043576.html", "phone": "4256438427", "address": "15600 NE 8th St Ste E4"}, "geometry": {"type": "Point", "coordinates": [-122.1313324, 47.6189766]}}, {"type": "Feature", "properties": {"id": 146122985, "name": "Indigo Urgent Care", "category": "clinic", "tags": ["clinic"], "sources": ["osm"], "website": "https://www.indigourgentcare.com/", "phone": "+1-425-643-3331"}, "geometry": {"type": "Point", "coordinates": [-122.1313921, 47.6174571]}}, {"type": "Feature", "properties": {"id": "775ce86c-0f10-4db8-bbed-2fb7e5819318", "name": "Bartell Drugs", "category": "pharmacy", "tags": ["pharmacy"], "sources": ["overture"], "website": "https://www.bartelldrugs.com/store/crossroads/?utm_source=local+listing&utm_medium=organic&utm_content=store&utm_campaign=fm", "phone": "4256419105", "address": "653 156th Ave NE"}, "geometry": {"type": "Point", "coordinates": [-122.1333847, 47.6166306]}}, {"type": "Feature", "properties": {"id": "20c8fa3c-a942-44fb-a7d0-23fea8603e62", "name": "MultiCare Indigo Urgent Care - Bellevue", "category": "hospital", "tags": ["hospital"], "sources": ["overture"], "website": "https://www.indigohealth.com/locations/urgent-care-bellevue/?utm_source=pg-bing&utm_medium=organic&utm_campaign=pg-listings", "phone": "4256433331", "address": "15600 NE 8th St Ste A4"}, "geometry": {"type": "Point", "coordinates": [-122.1314697, 47.6173401]}}, {"type": "Feature", "properties": {"id": "5a45b7ff-d57c-4332-aa35-de16254766ea", "name": "Bartell Drug Stores", "category": "pharmacy", "tags": ["pharmacy"], "sources": ["overture"], "website": "http://www.bellevuecrossroadsflowers.com", "phone": "+14256437300", "address": "15600 NE 8th St Ste F1"}, "geometry": {"type": "Point", "coordinates": [-122.1336975, 47.6163635]}}, {"type": "Feature", "properties": {"id": "5eb27180-35a8-4c1a-8642-c17b75d6d38f", "name": "Indigo Urgent Care - Bellevue", "category": "hospital", "tags": ["hospital"], "sources": ["overture"], "website": "https://www.indigohealth.com/locations/urgent-care-bellevue/", "phone": "+14256433331", "address": "15600 NE 8th St"}, "geometry": {"type": "Point", "coordinates": [-122.13134, 47.6174927]}}, {"type": "Feature", "properties": {"id": "deba852b-c9e3-4ee2-bd7b-b7e6faf3403f", "name": "Immediate Clinic Bellevue", "category": "clinic", "tags": ["clinic", "medical"], "sources": ["overture"], "website": "https://www.immediateclinic.com/bellevue-urgent-care", "phone": "4256433331", "address": "15600 NE 8th St Ste A-4"}, "geometry": {"type": "Point", "coordinates": [-122.1313324, 47.6189766]}}, {"type": "Feature", "properties": {"id": 146122989, "name": "Bank of America", "category": "bank", "tags": ["bank"], "sources": ["osm"], "phone": "+1-425-201-0722"}, "geometry": {"type": "Point", "coordinates": [-122.1317782, 47.6173347]}}, {"type": "Feature", "properties": {"id": 392705506, "name": "WaFd Bank", "category": "bank", "tags": ["bank", "wheelchair-accessible", "credit", "union"], "sources": ["osm", "overture"], "website": "https://www.wafdbank.com/locations/washington/bellevue/crossroads?utm_source=ExtNet&utm_medium=yext", "phone": "4256444214", "address": "15635 NE 8th St", "hours": "Mo-Th 09:00-17:00; Fr 09:00-18:00; Sa,Su off"}, "geometry": {"type": "Point", "coordinates": [-122.1308336, 47.6165017]}}, {"type": "Feature", "properties": {"id": 457863510, "name": "First Financial Northwest Bank", "category": "bank", "tags": ["bank"], "sources": ["osm"], "hours": "Mo-Th 09:00-17:00; Fr 09:00-18:00"}, "geometry": {"type": "Point", "coordinates": [-122.1311312, 47.6198435]}}, {"type": "Feature", "properties": {"id": "8d1cdaed-08d4-46d9-818e-937d2a1a96b8", "name": "Pacific Premier Bank", "category": "bank", "tags": ["bank", "credit", "union"], "sources": ["overture"], "website": "https://www.opusbank.com/location/crossroads", "phone": "4256436200", "address": "15600 NE 8th St"}, "geometry": {"type": "Point", "coordinates": [-122.1324234, 47.6169739]}}, {"type": "Feature", "properties": {"id": "5ed75881-6553-49e6-99b6-2b8b8fa5766f", "name": "Pacific Premier Bank", "category": "bank", "tags": ["bank", "credit", "union"], "sources": ["overture"], "website": "https://www.ppbi.com/", "phone": "4256436200", "address": "15600 NE 8th St"}, "geometry": {"type": "Point", "coordinates": [-122.1305618, 47.6194687]}}, {"type": "Feature", "properties": {"id": 457863539, "name": "Library Connection @ Crossroads", "category": "library", "tags": ["library", "wheelchair-accessible"], "sources": ["osm"], "website": "https://www.kcls.org/crossroads/", "address": "15600 Northeast 8th Street", "hours": "Tu,We 11:00-20:00; Th-Sa 10:00-17:00; Su,Mo off"}, "geometry": {"type": "Point", "coordinates": [-122.1304919, 47.6196254]}}, {"type": "Feature", "properties": {"id": "1e9cca8e-025f-4061-816b-2ab11626d36c", "name": "Bank of America Financial Center", "category": "bank", "tags": ["bank", "credit", "union"], "sources": ["overture"], "website": "https://locators.bankofamerica.com/wa/bellevue/financial-centers-bellevue-16666.html", "phone": "4252010722", "address": "15600 NE 8th St Ste A9"}, "geometry": {"type": "Point", "coordinates": [-122.1319122, 47.617321]}}, {"type": "Feature", "properties": {"id": "bb82355a-9db5-46c8-a56d-1c6073796d47", "name": "Bank of America ATM", "category": "bank", "tags": ["bank", "credit", "union"], "sources": ["overture"], "website": "https://locators.bankofamerica.com/wa/bellevue/financial-centers-bellevue-16666.html", "phone": "8444018500", "address": "15600 NE 8th St Ste A9"}, "geometry": {"type": "Point", "coordinates": [-122.1319122, 47.617321]}}, {"type": "Feature", "properties": {"id": "ce250677-275b-443c-a14f-1201a0b0b580", "name": "Opus Bank", "category": "bank", "tags": ["bank", "credit", "union"], "sources": ["overture"], "website": "https://www.opusbank.com/location/crossroads", "phone": "4256436200", "address": "15600 NE 8th St A-8"}, "geometry": {"type": "Point", "coordinates": [-122.1313324, 47.6189766]}}, {"type": "Feature", "properties": {"id": "ff48ba7a-ed19-4691-a442-76f39d0b5725", "name": "Crossroads Library Connection", "category": "library", "tags": ["library"], "sources": ["overture"], "website": "http://www.kcls.org/crossroads", "phone": "+14256446203", "address": "15600 NE 8th St"}, "geometry": {"type": "Point", "coordinates": [-122.1305161, 47.6196938]}}, {"type": "Feature", "properties": {"id": "95f63ed6-b349-4606-9911-32e41d69c8c5", "name": "First Financial Northwest Bank - Bellevue Branch", "category": "bank", "tags": ["bank", "credit", "union"], "sources": ["overture"], "website": "https://www.ffnwb.com/", "phone": "4252542093", "address": "15600 NE 8th St"}, "geometry": {"type": "Point", "coordinates": [-122.1308441, 47.6197701]}}, {"type": "Feature", "properties": {"id": "b3261972-d698-4d36-b04b-569113de0a94", "name": "KCLS Library Connection - Crossroads", "category": "library", "tags": ["library"], "sources": ["overture"], "website": "http://www.kcls.org", "phone": "(425) 644-6203", "address": "15600 NE 8th St Ste K11"}, "geometry": {"type": "Point", "coordinates": [-122.1305161, 47.6196022]}}, {"type": "Feature", "properties": {"id": "3ccafbf1-4549-470e-9251-65894693b8a7", "name": "Crunch Fitness - Bellevue", "category": "fitness_centre", "tags": ["fitness-centre", "gym"], "sources": ["overture"], "website": "https://www.crunch.com/locations/bellevue", "phone": "4256411000", "address": "15600 NE 8th St"}, "geometry": {"type": "Point", "coordinates": [-122.1313324, 47.6189766]}}]}