{"type": "FeatureCollection", "features": [{"type": "Feature", "properties": {"id": 697212593, "name": "Starbucks", "category": "cafe", "tags": ["cafe", "coffee-shop", "takeaway"], "sources": ["osm"], "website": "https://www.starbucks.com/store-locator/store/8021/qfc-belleview-808-10116-ne-8th-st-bellevue-wa-980044148-us", "phone": "+1-425-455-0870", "address": "10116 Northeast 8th Street"}, "geometry": {"type": "Point", "coordinates": [-122.2048205, 47.6183782]}}, {"type": "Feature", "properties": {"id": 1271662639, "name": "Starbucks", "category": "cafe", "tags": ["cafe", "coffee-shop", "takeaway", "wheelchair-accessible", "wifi"], "sources": ["osm", "overture"], "website": "https://www.starbucks.com/store-locator/store/18615/", "phone": "+14254525534", "address": "545 Bellevue Sq", "stations": [{"stopCode": 58, "lines": "2", "name": "Bellevue Downtown Station", "walkingMeters": 1104, "walkingSeconds": 795, "band": 15}]}, "geometry": {"type": "Point", "coordinates": [-122.201985, 47.6170396]}}, {"type": "Feature", "properties": {"id": 3905077170, "name": "Starbucks", "category": "cafe", "tags": ["cafe", "coffee-shop", "takeaway", "wheelchair-accessible", "wifi", "coffee"], "sources": ["osm", "overture"], "website": "https://www.starbucks.com/store-locator/store/18416/", "phone": "+14254540191", "address": "10214 NE 8th St", "stations": [{"stopCode": 58, "lines": "2", "name": "Bellevue Downtown Station", "walkingMeters": 1288, "walkingSeconds": 931, "band": 15}]}, "geometry": {"type": "Point", "coordinates": [-122.2039641, 47.6177359]}}, {"type": "Feature", "properties": {"id": 5366985122, "name": "Starbucks", "category": "cafe", "tags": ["cafe", "coffee-shop", "takeaway", "wheelchair-accessible", "coffee"], "sources": ["osm", "overture"], "website": "http://www.starbucks.com", "phone": "4257493885", "address": "300 Bellevue Way NE (Safeway - Bellevu, E #1600)", "stations": [{"stopCode": 58, "lines": "2", "name": "Bellevue Downtown Station", "walkingMeters": 1082, "walkingSeconds": 780, "band": 15}]}, "geometry": {"type": "Point", "coordinates": [-122.2013922, 47.6131232]}}, {"type": "Feature", "properties": {"id": 6313239766, "name": "Starbucks", "category": "cafe", "tags": ["cafe", "coffee-shop", "takeaway", "wifi", "coffee"], "sources": ["osm", "overture"], "website": "https://www.starbucks.com/store-locator/store/16023/", "phone": "+14254529425", "address": "42 Bellevue Way NE", "stations": [{"stopCode": 57, "lines": "2", "name": "East Main Station", "walkingMeters": 1070, "walkingSeconds": 770, "band": 15}, {"stopCode": 58, "lines": "2", "name": "Bellevue Downtown Station", "walkingMeters": 1348, "walkingSeconds": 970, "band": 15}]}, "geometry": {"type": "Point", "coordinates": [-122.2006734, 47.6104785]}}, {"type": "Feature", "properties": {"id": 11217037201, "name": "Starbucks", "category": "cafe", "tags": ["cafe", "coffee-shop", "takeaway", "wheelchair-accessible"], "sources": ["osm"], "address": "241 Bellevue Square"}, "geometry": {"type": "Point", "coordinates": [-122.2041198, 47.615487]}}, {"type": "Feature", "properties": {"id": "f9d4f35d-dfbe-45f6-80e7-8434f71a23b7", "name": "McDonald's", "category": "restaurant", "tags": ["restaurant", "burger", "fast-food"], "sources": ["overture"], "website": "https://www.mcdonalds.com/us/en-us/location/wa/bellevue/169-bellevue-square/25355.html?cid=RF:YXT:RoN::Clicks", "phone": "4254620103", "address": "169 Bellevue Square", "stations": [{"stopCode": 58, "lines": "2", "name": "Bellevue Downtown Station", "walkingMeters": 1444, "walkingSeconds": 1038, "band": 15}]}, "geometry": {"type": "Point", "coordinates": [-122.2041931, 47.6149864]}}, {"type": "Feature", "properties": {"id": 541389148, "name": "Cafe Bollywood", "category": "restaurant", "tags": ["restaurant", "indian", "fast-food", "food", "truck", "halal", "asian"], "sources": ["osm", "overture"], "website": "http://www.ohindiarestaurant.com/", "phone": "4256419997", "address": "102 Bellevue Way NE Ste B", "hours": "Tu-Su 12:00-15:00,16:30-24:00", "stations": [{"stopCode": 57, "lines": "2", "name": "East Main Station", "walkingMeters": 1104, "walkingSeconds": 794, "band": 15}, {"stopCode": 58, "lines": "2", "name": "Bellevue Downtown Station", "walkingMeters": 1382, "walkingSeconds": 994, "band": 15}]}, "geometry": {"type": "Point", "coordinates": [-122.201252, 47.6113573]}}, {"type": "Feature", "properties": {"id": 541389153, "name": "Garlic Crush", "category": "restaurant", "tags": ["restaurant", "greek", "wheelchair-accessible", "middle-eastern", "middle", "eastern", "mediterranean"], "sources": ["osm", "overture"], "website": "http://www.garliccrush.com/", "phone": "+14254552235", "address": "102 Bellevue Way NE", "stations": [{"stopCode": 57, "lines": "2", "name": "East Main Station", "walkingMeters": 1104, "walkingSeconds": 794, "band": 15}, {"stopCode": 58, "lines": "2", "name": "Bellevue Downtown Station", "walkingMeters": 1382, "walkingSeconds": 994, "band": 15}]}, "geometry": {"type": "Point", "coordinates": [-122.201252, 47.6114093]}}, {"type": "Feature", "properties": {"id": 7802040988, "name": "Molly Moon's Homemade Ice Cream", "category": "ice_cream", "tags": ["ice-cream"], "sources": ["osm"]}, "geometry": {"type": "Point", "coordinates": [-122.2039408, 47.6107495]}}, {"type": "Feature", "properties": {"id": "6781096a-834d-458b-996b-bc54b3fd54cc", "name": "Pagliacci Pizza", "category": "restaurant", "tags": ["restaurant", "pizza"], "sources": ["overture"], "website": "http://www.pagliacci.com/", "phone": "(425) 453-1717", "address": "563 Bellevue Sq", "stations": [{"stopCode": 58, "lines": "2", "name": "Bellevue Downtown Station", "walkingMeters": 1181, "walkingSeconds": 850, "band": 15}]}, "geometry": {"type": "Point", "coordinates": [-122.2027969, 47.6174164]}}, {"type": "Feature", "properties": {"id": "9cab44e7-5778-4ded-a33b-f282c33f2136", "name": "Pagliacci Pizza", "category": "restaurant", "tags": ["restaurant", "pizza", "italian"], "sources": ["overture"], "website": "http://www.pagliacci.com/", "phone": "+14254531717", "address": "8 100th Ave NE"}, "geometry": {"type": "Point", "coordinates": [-122.2064667, 47.6105003]}}, {"type": "Feature", "properties": {"id": 1954041809, "name": "Mediterranean Kitchen", "category": "restaurant", "tags": ["restaurant", "mediterranean"], "sources": ["osm", "overture"], "website": "http://www.mediterraneankitchens.net", "phone": "(425) 462-9422", "address": "103 Bellevue Way NE", "stations": [{"stopCode": 57, "lines": "2", "name": "East Main Station", "walkingMeters": 1123, "walkingSeconds": 813, "band": 15}, {"stopCode": 58, "lines": "2", "name": "Bellevue Downtown Station", "walkingMeters": 1306, "walkingSeconds": 939, "band": 15}]}, "geometry": {"type": "Point", "coordinates": [-122.2018006, 47.6113755]}}, {"type": "Feature", "properties": {"id": 9480333564, "name": "Taco Del Mar", "category": "fast_food", "tags": ["fast-food", "mexican", "takeaway", "vegetarian", "restaurant", "taco", "latin-american"], "sources": ["osm", "overture"], "website": "http://www.tacodelmar.com/", "phone": "+14254500094", "address": "1010 Bellevue Sq"}, "geometry": {"type": "Point", "coordinates": [-122.2049354, 47.616714]}}, {"type": "Feature", "properties": {"id": 11217037190, "name": "Caffe Vita", "category": "cafe", "tags": ["cafe", "coffee-shop", "coffee"], "sources": ["osm", "overture"], "website": "http://www.caffevita.com", "phone": "+14257779171", "address": "575 Bellevue Sq", "stations": [{"stopCode": 58, "lines": "2", "name": "Bellevue Downtown Station", "walkingMeters": 1093, "walkingSeconds": 787, "band": 15}]}, "geometry": {"type": "Point", "coordinates": [-122.2038756, 47.6156647]}}, {"type": "Feature", "properties": {"id": 1206853622, "name": "Wild Ginger", "category": "restaurant", "tags": ["restaurant", "asian", "wheelchair-accessible"], "sources": ["osm"], "website": "https://www.wildginger.net/locations-bellevue", "phone": "+1-425-495-8889", "address": "508 Bellevue Way Northeast", "stations": [{"stopCode": 58, "lines": "2", "name": "Bellevue Downtown Station", "walkingMeters": 988, "walkingSeconds": 711, "band": 10}]}, "geometry": {"type": "Point", "coordinates": [-122.2013763, 47.6149729]}}, {"type": "Feature", "properties": {"id": 1271647480, "name": "STK Steakhouse", "category": "restaurant", "tags": ["restaurant", "steak-house", "steakhouse", "american"], "sources": ["osm", "overture"], "website": "https://stksteakhouse.com/venues/bellevue/", "phone": "+14252091016", "address": "610 Bellevue Way NE", "stations": [{"stopCode": 58, "lines": "2", "name": "Bellevue Downtown Station", "walkingMeters": 939, "walkingSeconds": 677, "band": 10}]}, "geometry": {"type": "Point", "coordinates": [-122.201426, 47.6157672]}}, {"type": "Feature", "properties": {"id": 1271649364, "name": "Earls", "category": "restaurant", "tags": ["restaurant", "american", "wheelchair-accessible", "vegetarian", "vegan", "gluten-free"], "sources": ["osm"], "website": "https://earls.ca/locations/bellevue", "phone": "+1-425-452-3275", "address": "700 Bellevue Way Northeast", "stations": [{"stopCode": 58, "lines": "2", "name": "Bellevue Downtown Station", "walkingMeters": 999, "walkingSeconds": 720, "band": 15}]}, "geometry": {"type": "Point", "coordinates": [-122.2014378, 47.6163036]}}, {"type": "Feature", "properties": {"id": 1271661890, "name": "Bellevue Water Grill", "category": "restaurant", "tags": ["restaurant", "seafood", "wheelchair-accessible"], "sources": ["osm"], "address": "115 Bellevue Way Northeast", "stations": [{"stopCode": 58, "lines": "2", "name": "Bellevue Downtown Station", "walkingMeters": 1084, "walkingSeconds": 781, "band": 15}]}, "geometry": {"type": "Point", "coordinates": [-122.201356, 47.6171058]}}, {"type": "Feature", "properties": {"id": 1271662500, "name": "Joey", "category": "restaurant", "tags": ["restaurant", "wheelchair-accessible"], "sources": ["osm"], "address": "Bellevue Way Northeast", "stations": [{"stopCode": 58, "lines": "2", "name": "Bellevue Downtown Station", "walkingMeters": 1121, "walkingSeconds": 808, "band": 15}]}, "geometry": {"type": "Point", "coordinates": [-122.201437, 47.6177957]}}, {"type": "Feature", "properties": {"id": 1271663198, "name": "Shake Shack", "category": "fast_food", "tags": ["fast-food", "burger", "takeaway"], "sources": ["osm"], "address": "503 Bellevue Way Northeast", "hours": "Su-Th 10:30-23:00; Fr-Sa 10:30-24:00", "stations": [{"stopCode": 58, "lines": "2", "name": "Bellevue Downtown Station", "walkingMeters": 1029, "walkingSeconds": 741, "band": 15}]}, "geometry": {"type": "Point", "coordinates": [-122.2019456, 47.6163433]}}, {"type": "Feature", "properties": {"id": 1271663393, "name": "Castilla Restaurant and Tapas Bar", "category": "restaurant", "tags": ["restaurant", "tapas", "spanish"], "sources": ["osm"], "address": "504 Bellevue Way Northeast", "stations": [{"stopCode": 58, "lines": "2", "name": "Bellevue Downtown Station", "walkingMeters": 1043, "walkingSeconds": 752, "band": 15}]}, "geometry": {"type": "Point", "coordinates": [-122.201957, 47.6164741]}}, {"type": "Feature", "properties": {"id": 3883947003, "name": "Cantinetta", "category": "restaurant", "tags": ["restaurant", "italian"], "sources": ["osm"], "address": "10038 Main Street"}, "geometry": {"type": "Point", "coordinates": [-122.2048875, 47.6102896]}}, {"type": "Feature", "properties": {"id": 3926527636, "name": "Daniel's Broiler", "category": "restaurant", "tags": ["restaurant", "steak-house", "wheelchair-accessible", "steakhouse", "american"], "sources": ["osm", "overture"], "website": "http://www.schwartzbros.com", "phone": "+14254624662", "address": "10500 NE 8th St", "hours": "Tu-Sa 16:00-22:00", "stations": [{"stopCode": 58, "lines": "2", "name": "Bellevue Downtown Station", "walkingMeters": 1023, "walkingSeconds": 737, "band": 15}]}, "geometry": {"type": "Point", "coordinates": [-122.2003087, 47.6179129]}}, {"type": "Feature", "properties": {"id": 1954021021, "name": "520 Bar and Grill", "category": "restaurant", "tags": ["restaurant", "american"], "sources": ["osm"]}, "geometry": {"type": "Point", "coordinates": [-122.2043689, 47.6102725]}}, {"type": "Feature", "properties": {"id": 5338134723, "name": "Ben & Jerry's", "category": "ice_cream", "tags": ["ice-cream", "wheelchair-accessible"], "sources": ["osm"], "address": "166 Bellevue Square", "stations": [{"stopCode": 58, "lines": "2", "name": "Bellevue Downtown Station", "walkingMeters": 1389, "walkingSeconds": 999, "band": 15}]}, "geometry": {"type": "Point", "coordinates": [-122.2041383, 47.6150896]}}, {"type": "Feature", "properties": {"id": 9333153668, "name": "Emerald City Smoothie", "category": "fast_food", "tags": ["fast-food", "juice"], "sources": ["osm"], "stations": [{"stopCode": 58, "lines": "2", "name": "Bellevue Downtown Station", "walkingMeters": 1296, "walkingSeconds": 934, "band": 15}]}, "geometry": {"type": "Point", "coordinates": [-122.2021108, 47.6125536]}}, {"type": "Feature", "properties": {"id": 9480333583, "name": "Panda Express", "category": "fast_food", "tags": ["fast-food", "chinese", "takeaway", "restaurant", "asian"], "sources": ["osm", "overture"], "website": "http://www.pandaexpress.com/", "phone": "+14254548289", "address": "119 Bellevue Sq", "hours": "Mo-Sa 10:00-21:00; Su 10:00-19:00", "stations": [{"stopCode": 58, "lines": "2", "name": "Bellevue Downtown Station", "walkingMeters": 1093, "walkingSeconds": 787, "band": 15}]}, "geometry": {"type": "Point", "coordinates": [-122.2033029, 47.6154658]}}, {"type": "Feature", "properties": {"id": "89dba9bf-61e2-402e-b376-84864b59d10f", "name": "Panda Express", "category": "fast_food", "tags": ["fast-food", "fast", "food", "asian"], "sources": ["overture"], "website": "https://www.pandaexpress.com/locations/wa/bellevue/2475", "phone": "4254548289", "address": "119 Bellevue Way NE", "stations": [{"stopCode": 57, "lines": "2", "name": "East Main Station", "walkingMeters": 1146, "walkingSeconds": 829, "band": 15}, {"stopCode": 58, "lines": "2", "name": "Bellevue Downtown Station", "walkingMeters": 1259, "walkingSeconds": 905, "band": 15}]}, "geometry": {"type": "Point", "coordinates": [-122.2016144, 47.6116676]}}, {"type": "Feature", "properties": {"id": 1391221517, "name": "Drip Tea", "category": "cafe", "tags": ["cafe", "bubble-tea", "takeaway", "dog-friendly", "wifi"], "sources": ["osm"], "website": "https://thedriptea.com", "phone": "+1-425-502-7650", "address": "500 Bellevue Way Northeast", "hours": "Mo-Sa 11:00-21:00; Su 11:00-19:00", "stations": [{"stopCode": 58, "lines": "2", "name": "Bellevue Downtown Station", "walkingMeters": 1042, "walkingSeconds": 749, "band": 10}]}, "geometry": {"type": "Point", "coordinates": [-122.2010849, 47.6143823]}}, {"type": "Feature", "properties": {"id": 5235764158, "name": "Salt & Straw", "category": "ice_cream", "tags": ["ice-cream"], "sources": ["osm"], "website": "https://saltandstraw.com", "address": "10415 Northeast 4th Street", "stations": [{"stopCode": 58, "lines": "2", "name": "Bellevue Downtown Station", "walkingMeters": 1025, "walkingSeconds": 738, "band": 15}]}, "geometry": {"type": "Point", "coordinates": [-122.2013374, 47.6136436]}}, {"type": "Feature", "properties": {"id": "5cc8a5b4-8ba3-4513-91d7-440b24738c80", "name": "Sizzle & Crunch", "category": "restaurant", "tags": ["restaurant", "vietnamese"], "sources": ["overture"], "website": "https://sizzleandcrunch.com", "address": "10438 NE 10th St", "stations": [{"stopCode": 58, "lines": "2", "name": "Bellevue Downtown Station", "walkingMeters": 1282, "walkingSeconds": 924, "band": 15}]}, "geometry": {"type": "Point", "coordinates": [-122.2004547, 47.6198196]}}, {"type": "Feature", "properties": {"id": 3651436328, "name": "Black Bottle", "category": "restaurant", "tags": ["restaurant", "wheelchair-accessible"], "sources": ["osm"], "address": "919 Bellevue Way Northeast", "stations": [{"stopCode": 58, "lines": "2", "name": "Bellevue Downtown Station", "walkingMeters": 1256, "walkingSeconds": 904, "band": 15}]}, "geometry": {"type": "Point", "coordinates": [-122.2019875, 47.6187583]}}, {"type": "Feature", "properties": {"id": 33613466, "name": "MOD Pizza", "category": "fast_food", "tags": ["fast-food", "pizza", "outdoor-seating", "takeaway", "wheelchair-accessible", "restaurant"], "sources": ["osm", "overture"], "website": "https://locations.modpizza.com/usa/wa/bellevue/317-bellevue-way-ne?utm_source=facebook&utm_medium=yext", "phone": "+14254550141", "address": "317 Bellevue Way NE", "hours": "Su-We 10:30-22:00; Th-Sa 10:30-23:00", "stations": [{"stopCode": 58, "lines": "2", "name": "Bellevue Downtown Station", "walkingMeters": 1087, "walkingSeconds": 783, "band": 15}]}, "geometry": {"type": "Point", "coordinates": [-122.2019558, 47.6133409]}}, {"type": "Feature", "properties": {"id": "ed34dc76-8e16-414d-b7a0-358a6d2f4c4b", "name": "Teriyaki Bowl", "category": "restaurant", "tags": ["restaurant", "asian"], "sources": ["overture"], "website": "http://seattle.citysearch.com/profile/external/10728481/bellevue_wa/teriyaki_bowl.html", "phone": "(425) 451-7479", "address": "231 Bellevue Way NE", "stations": [{"stopCode": 58, "lines": "2", "name": "Bellevue Downtown Station", "walkingMeters": 1313, "walkingSeconds": 946, "band": 15}]}, "geometry": {"type": "Point", "coordinates": [-122.2022324, 47.612709]}}, {"type": "Feature", "properties": {"id": "0e3cd15b-2070-4586-bbe8-675d0a43cde1", "name": "Ruth's Chris Steak House", "category": "restaurant", "tags": ["restaurant", "steakhouse"], "sources": ["overture"], "website": "http://www.ruthschris.com", "phone": "(425) 451-1550", "address": "565 Bellevue Sq", "stations": [{"stopCode": 58, "lines": "2", "name": "Bellevue Downtown Station", "walkingMeters": 1182, "walkingSeconds": 852, "band": 15}]}, "geometry": {"type": "Point", "coordinates": [-122.2029495, 47.6172218]}}, {"type": "Feature", "properties": {"id": 5045488116, "name": "Fogo de Ch\u00e3o", "category": "restaurant", "tags": ["restaurant", "brazilian", "steak-house", "wheelchair-accessible"], "sources": ["osm", "overture"], "website": "https://fogodechao.com/location/bellevue/", "phone": "+14254504004", "address": "440 Bellevue Way NE", "hours": "Mo-Th 11:00-21:30; Fr 11:00-22:00; Sa 11:30-22:00; Su 11:30-21:00", "stations": [{"stopCode": 58, "lines": "2", "name": "Bellevue Downtown Station", "walkingMeters": 1048, "walkingSeconds": 754, "band": 15}]}, "geometry": {"type": "Point", "coordinates": [-122.2013597, 47.6144352]}}, {"type": "Feature", "properties": {"id": 6717812106, "name": "Happy Lemon", "category": "cafe", "tags": ["cafe", "bubble-tea", "takeaway"], "sources": ["osm"], "website": "https://happylemonseattle.com/", "address": "1031 Bellevue Square"}, "geometry": {"type": "Point", "coordinates": [-122.2047415, 47.6160861]}}, {"type": "Feature", "properties": {"id": 6690017060, "name": "Jamba", "category": "fast_food", "tags": ["fast-food", "juice", "takeaway"], "sources": ["osm"], "website": "https://locations.jamba.com/wa/bellevue/131-bellevue-square", "phone": "+1-425-531-8282", "address": "131 Bellevue Square", "hours": "Mo-Sa 10:00-21:00; Su 11:00-19:00"}, "geometry": {"type": "Point", "coordinates": [-122.2045185, 47.6160861]}}, {"type": "Feature", "properties": {"id": 3921542489, "name": "Pasta & Co", "category": "cafe", "tags": ["cafe", "wheelchair-accessible", "restaurant", "italian"], "sources": ["osm", "overture"], "website": "http://www.pastaco.com/", "phone": "+14254538760", "address": "10218 NE 8th St", "stations": [{"stopCode": 58, "lines": "2", "name": "Bellevue Downtown Station", "walkingMeters": 1272, "walkingSeconds": 920, "band": 15}]}, "geometry": {"type": "Point", "coordinates": [-122.2037569, 47.6177359]}}, {"type": "Feature", "properties": {"id": 4783748282, "name": "Nordstrom eBar", "category": "cafe", "tags": ["cafe", "wheelchair-accessible"], "sources": ["osm"], "stations": [{"stopCode": 58, "lines": "2", "name": "Bellevue Downtown Station", "walkingMeters": 1280, "walkingSeconds": 922, "band": 15}]}, "geometry": {"type": "Point", "coordinates": [-122.2042385, 47.616798]}}, {"type": "Feature", "properties": {"id": 2988437886, "name": "Din Tai Fung", "category": "restaurant", "tags": ["restaurant", "taiwanese", "wheelchair-accessible", "dim-sum", "dim", "sum", "chinese", "asian"], "sources": ["osm", "overture"], "website": "https://dtf.com/en/locations/bellevue", "phone": "4256981095", "address": "10455 NE 8th St", "hours": "Mo-Th 11:00-21:00; Fr 11:00-22:00; Sa 10:30-22:00; Su 10:30-21:00", "stations": [{"stopCode": 58, "lines": "2", "name": "Bellevue Downtown Station", "walkingMeters": 1001, "walkingSeconds": 722, "band": 15}]}, "geometry": {"type": "Point", "coordinates": [-122.2005618, 47.6171329]}}, {"type": "Feature", "properties": {"id": "68b242b1-8646-4c8f-bed4-ff372de7ce1f", "name": "Din Tai Fung", "category": "restaurant", "tags": ["restaurant", "dim-sum", "dim", "sum", "taiwanese", "asian", "soup"], "sources": ["overture"], "website": "http://dintaifungusa.com/", "phone": "4256981095", "address": "700 Bellevue Way NE #280", "stations": [{"stopCode": 58, "lines": "2", "name": "Bellevue Downtown Station", "walkingMeters": 1046, "walkingSeconds": 754, "band": 15}]}, "geometry": {"type": "Point", "coordinates": [-122.2016525, 47.6166611]}}, {"type": "Feature", "properties": {"id": 2868745248, "name": "Hokkaido Ramen Santouka", "category": "restaurant", "tags": ["restaurant", "japanese", "asian"], "sources": ["osm", "overture"], "website": "https://www.santouka.co.jp/en/shop-foreign/usa/foreign01-010", "phone": "+14254620141", "address": "103 Bellevue Way NE", "hours": "11:00-21:00", "stations": [{"stopCode": 57, "lines": "2", "name": "East Main Station", "walkingMeters": 1131, "walkingSeconds": 819, "band": 15}, {"stopCode": 58, "lines": "2", "name": "Bellevue Downtown Station", "walkingMeters": 1324, "walkingSeconds": 952, "band": 15}]}, "geometry": {"type": "Point", "coordinates": [-122.2019644, 47.6113204]}}, {"type": "Feature", "properties": {"id": "2cbc4382-04f4-44c8-ae4b-4d6d7376a9b9", "name": "Quiznos", "category": "restaurant", "tags": ["restaurant", "sandwich"], "sources": ["overture"], "website": "http://www.quiznos.com", "phone": "(425) 709-6847", "address": "500 108th Ave NE", "stations": [{"stopCode": 58, "lines": "2", "name": "Bellevue Downtown Station", "walkingMeters": 1154, "walkingSeconds": 831, "band": 15}]}, "geometry": {"type": "Point", "coordinates": [-122.2019119, 47.612793]}}, {"type": "Feature", "properties": {"id": 2971057903, "name": "Farzi Caf\u00e9", "category": "restaurant", "tags": ["restaurant", "indian", "wheelchair-accessible"], "sources": ["osm", "overture"], "website": "https://www.exploretock.com/farzi-cafe-bellevue/", "phone": "+14255909276", "address": "515 Bellevue Sq", "stations": [{"stopCode": 58, "lines": "2", "name": "Bellevue Downtown Station", "walkingMeters": 1064, "walkingSeconds": 766, "band": 15}]}, "geometry": {"type": "Point", "coordinates": [-122.2019692, 47.6166564]}}, {"type": "Feature", "properties": {"id": 2986971565, "name": "Monsoon East", "category": "restaurant", "tags": ["restaurant", "vietnamese", "wheelchair-accessible"], "sources": ["osm"], "website": "https://www.monsoonrestaurants.com/east/", "address": "10245 Main Street", "hours": "Mo-Fr 11:30-23:00; Sa 11:00-23:00", "stations": [{"stopCode": 57, "lines": "2", "name": "East Main Station", "walkingMeters": 1112, "walkingSeconds": 799, "band": 15}]}, "geometry": {"type": "Point", "coordinates": [-122.2031144, 47.6100391]}}, {"type": "Feature", "properties": {"id": 3073269015, "name": "The Cheesecake Factory", "category": "restaurant", "tags": ["restaurant", "american", "wheelchair-accessible"], "sources": ["osm", "overture"], "website": "https://locations.thecheesecakefactory.com/wa/bellevue-47.html", "phone": "+14254506000", "address": "401 Bellevue Sq", "hours": "Mo-Fr 11:00-24:00; Sa,Su 10:00-24:00", "stations": [{"stopCode": 58, "lines": "2", "name": "Bellevue Downtown Station", "walkingMeters": 979, "walkingSeconds": 705, "band": 15}]}, "geometry": {"type": "Point", "coordinates": [-122.2019989, 47.6158935]}}, {"type": "Feature", "properties": {"id": 3073271762, "name": "13 Coins", "category": "restaurant", "tags": ["restaurant", "breakfast", "seafood", "outdoor-seating", "wheelchair-accessible", "american"], "sources": ["osm", "overture"], "website": "https://www.13coins.com/", "phone": "+14254551313", "address": "900 Bellevue Way NE", "hours": "Su-Th 07:00-23:00; Fr-Sa 07:00-02:00", "stations": [{"stopCode": 58, "lines": "2", "name": "Bellevue Downtown Station", "walkingMeters": 1140, "walkingSeconds": 821, "band": 15}]}, "geometry": {"type": "Point", "coordinates": [-122.2013198, 47.6182022]}}, {"type": "Feature", "properties": {"id": 4728664413, "name": "Dough Zone", "category": "restaurant", "tags": ["restaurant", "chinese"], "sources": ["osm"], "website": "https://doughzonedumplinghouse.com", "phone": "+1-425-454-3333", "address": "10300 Main Street", "hours": "Mo-Su 11:00-22:00", "stations": [{"stopCode": 57, "lines": "2", "name": "East Main Station", "walkingMeters": 1103, "walkingSeconds": 799, "band": 15}]}, "geometry": {"type": "Point", "coordinates": [-122.2026086, 47.6103433]}}, {"type": "Feature", "properties": {"id": 5608446846, "name": "Fonte Coffee", "category": "cafe", "tags": ["cafe", "coffee-shop", "wheelchair-accessible"], "sources": ["osm"], "phone": "+1-425-429-3862", "address": "10500 Northeast 8th Street", "hours": "Mo-Sa 06:00-20:00; Su 06:00-17:00", "stations": [{"stopCode": 58, "lines": "2", "name": "Bellevue Downtown Station", "walkingMeters": 1083, "walkingSeconds": 781, "band": 15}]}, "geometry": {"type": "Point", "coordinates": [-122.200442, 47.6181806]}}, {"type": "Feature", "properties": {"id": 1326151822, "name": "Seoul Bowl", "category": "restaurant", "tags": ["restaurant", "korean", "takeaway", "delivery"], "sources": ["osm", "overture"], "website": "https://www.seoulbowlco.com/location", "address": "500 Bellevue Way NE #248", "hours": "Mo-Sa 11:00-21:00; Su 11:00-19:00", "stations": [{"stopCode": 58, "lines": "2", "name": "Bellevue Downtown Station", "walkingMeters": 1044, "walkingSeconds": 750, "band": 10}]}, "geometry": {"type": "Point", "coordinates": [-122.2009774, 47.6143979]}}, {"type": "Feature", "properties": {"id": 5608446860, "name": "Boiling Point", "category": "restaurant", "tags": ["restaurant", "taiwanese", "chinese", "asian"], "sources": ["osm", "overture"], "website": "http://bpgroupusa.com/", "phone": "+14254558375", "address": "1075 Bellevue Way NE"}, "geometry": {"type": "Point", "coordinates": [-122.2027416, 47.6198459]}}, {"type": "Feature", "properties": {"id": 3818186193, "name": "Xi'an Noodles", "category": "restaurant", "tags": ["restaurant", "chinese", "asian", "fusion"], "sources": ["osm", "overture"], "website": "https://www.xiannoodles.com/", "phone": "4252868888", "address": "1075 Bellevue Way NE B-2"}, "geometry": {"type": "Point", "coordinates": [-122.2027458, 47.6197288]}}, {"type": "Feature", "properties": {"id": 3883946999, "name": "Mercato Pizzeria", "category": "restaurant", "tags": ["restaurant", "pizza"], "sources": ["osm"], "hours": "Tu-Sa 16:30-21:00"}, "geometry": {"type": "Point", "coordinates": [-122.2056734, 47.6103013]}}, {"type": "Feature", "properties": {"id": 3883947001, "name": "Gilbert's on Main", "category": "restaurant", "tags": ["restaurant", "jewish", "deli", "delicatessen", "breakfast-and-brunch"], "sources": ["osm", "overture"], "website": "http://www.gilbertsonmain.com/", "phone": "+14254555650", "address": "10024 Main St"}, "geometry": {"type": "Point", "coordinates": [-122.2053448, 47.6102914]}}, {"type": "Feature", "properties": {"id": 3883947008, "name": "Araya's Place", "category": "restaurant", "tags": ["restaurant", "thai", "takeaway", "vegan", "vegetarian"], "sources": ["osm", "overture"], "website": "http://arayasplace.com/", "phone": "+14254542440", "address": "10246 Main St", "stations": [{"stopCode": 57, "lines": "2", "name": "East Main Station", "walkingMeters": 1112, "walkingSeconds": 803, "band": 15}]}, "geometry": {"type": "Point", "coordinates": [-122.2030425, 47.6102752]}}, {"type": "Feature", "properties": {"id": 3883947013, "name": "Bis On Main", "category": "restaurant", "tags": ["restaurant"], "sources": ["osm", "overture"], "website": "https://bobbymoorerestaurants.com/", "phone": "+14254552033", "address": "10213 Main St", "stations": [{"stopCode": 57, "lines": "2", "name": "East Main Station", "walkingMeters": 1169, "walkingSeconds": 840, "band": 15}]}, "geometry": {"type": "Point", "coordinates": [-122.203879, 47.6100663]}}, {"type": "Feature", "properties": {"id": 3921539282, "name": "Zeeks Pizza - Bellevue", "category": "restaurant", "tags": ["restaurant", "pizza"], "sources": ["osm"], "website": "https://zeekspizza.com/locations-hours/zeeks-pizza-bellevue/", "phone": "+1-425-893-8646", "address": "10201 Northeast 10th Street", "hours": "Mo-Su 11:00-22:00"}, "geometry": {"type": "Point", "coordinates": [-122.2041357, 47.6191188]}}, {"type": "Feature", "properties": {"id": 3926527631, "name": "Cactus - Bellevue Square", "category": "restaurant", "tags": ["restaurant", "southwestern", "wheelchair-accessible", "texmex", "mexican", "american"], "sources": ["osm", "overture"], "website": "http://www.cactusrestaurants.com/", "phone": "+14254554321", "address": "535 Bellevue Sq", "hours": "Mo-Th 11:00-22:00; Fr 11:00-23:00; Sa 10:00-23:00; Su 10:00-22:00", "stations": [{"stopCode": 58, "lines": "2", "name": "Bellevue Downtown Station", "walkingMeters": 1075, "walkingSeconds": 775, "band": 15}]}, "geometry": {"type": "Point", "coordinates": [-122.2020899, 47.6167597]}}, {"type": "Feature", "properties": {"id": 3926527633, "name": "Cypress Lounge & Wine Bar", "category": "bar", "tags": ["bar", "wheelchair-accessible"], "sources": ["osm"], "stations": [{"stopCode": 58, "lines": "2", "name": "Bellevue Downtown Station", "walkingMeters": 857, "walkingSeconds": 618, "band": 10}]}, "geometry": {"type": "Point", "coordinates": [-122.200448, 47.6157956]}}, {"type": "Feature", "properties": {"id": 3926527635, "name": "Tavern Hall", "category": "pub", "tags": ["pub", "wheelchair-accessible", "bar", "sports", "american"], "sources": ["osm", "overture"], "website": "http://www.tavern-hall.com/", "phone": "+14254547500", "address": "505 Bellevue Sq", "stations": [{"stopCode": 58, "lines": "2", "name": "Bellevue Downtown Station", "walkingMeters": 1054, "walkingSeconds": 759, "band": 15}]}, "geometry": {"type": "Point", "coordinates": [-122.202069, 47.6165675]}}, {"type": "Feature", "properties": {"id": 3926527637, "name": "Woods Coffee", "category": "cafe", "tags": ["cafe", "coffee-shop", "wheelchair-accessible", "wifi", "coffee"], "sources": ["osm", "overture"], "website": "https://woodscoffee.com/", "phone": "+14252798860", "address": "700 Bellevue Way NE", "hours": "Mo-Fr 07:00-21:00; Sa 08:00-21:00; Su 09:00-19:00", "stations": [{"stopCode": 58, "lines": "2", "name": "Bellevue Downtown Station", "walkingMeters": 1044, "walkingSeconds": 752, "band": 15}]}, "geometry": {"type": "Point", "coordinates": [-122.2009021, 47.6167198]}}, {"type": "Feature", "properties": {"id": 5338134821, "name": "Woods Coffee", "category": "cafe", "tags": ["cafe", "indoor-seating", "wheelchair-accessible", "vegetarian", "coffee"], "sources": ["osm", "overture"], "website": "https://woodscoffee.com/", "phone": "+14254297276", "address": "2002 Bellevue Sq", "hours": "Mo-Sa 08:00-21:00; Su 09:00-19:00"}, "geometry": {"type": "Point", "coordinates": [-122.2050279, 47.6162704]}}, {"type": "Feature", "properties": {"id": 3926527639, "name": "Thai Kitchen Bird Pepper", "category": "restaurant", "tags": ["restaurant", "thai", "takeaway", "wheelchair-accessible", "asian"], "sources": ["osm", "overture"], "website": "https://thaikitchenbirdpepper.com", "phone": "+14254547334", "address": "563 Bellevue Sq", "hours": "Mo-Fr 11:00-22:00; Sa-Su 11:00-24:00", "stations": [{"stopCode": 58, "lines": "2", "name": "Bellevue Downtown Station", "walkingMeters": 1176, "walkingSeconds": 847, "band": 15}]}, "geometry": {"type": "Point", "coordinates": [-122.20287, 47.6172132]}}, {"type": "Feature", "properties": {"id": 3926527640, "name": "Paddy Coyne's", "category": "pub", "tags": ["pub", "irish", "wheelchair-accessible"], "sources": ["osm"], "phone": "+1-425-453-8080", "address": "700 Bellevue Way Northeast", "hours": "Mo-Fr 11:00-02:00; Sa-Su 10:00-02:00", "stations": [{"stopCode": 58, "lines": "2", "name": "Bellevue Downtown Station", "walkingMeters": 1048, "walkingSeconds": 755, "band": 15}]}, "geometry": {"type": "Point", "coordinates": [-122.201183, 47.6172005]}}, {"type": "Feature", "properties": {"id": 3926527641, "name": "Legion", "category": "bar", "tags": ["bar"], "sources": ["osm"], "address": "700 Bellevue Way Northeast", "stations": [{"stopCode": 58, "lines": "2", "name": "Bellevue Downtown Station", "walkingMeters": 958, "walkingSeconds": 691, "band": 15}]}, "geometry": {"type": "Point", "coordinates": [-122.201218, 47.6162622]}}, {"type": "Feature", "properties": {"id": 32613545, "name": "Wendy's", "category": "fast_food", "tags": ["fast-food", "burger", "takeaway", "drive-through", "wheelchair-accessible", "fast", "food", "american"], "sources": ["osm", "overture"], "website": "https://locations.wendys.com/united-states/wa/bellevue/940-bellevue-way-ne", "phone": "+14254541711", "address": "940 Bellevue Way NE", "hours": "09:00-22:00", "stations": [{"stopCode": 58, "lines": "2", "name": "Bellevue Downtown Station", "walkingMeters": 1263, "walkingSeconds": 910, "band": 15}]}, "geometry": {"type": "Point", "coordinates": [-122.2012836, 47.6190404]}}, {"type": "Feature", "properties": {"id": "53fbea1c-ba04-4c32-b6c4-3b63c266b67f", "name": "Hello Robin", "category": "bakery", "tags": ["bakery"], "sources": ["overture"], "website": "https://www.hellorobincookies.com", "address": "10045 NE 1st Street"}, "geometry": {"type": "Point", "coordinates": [-122.2043381, 47.6112289]}}, {"type": "Feature", "properties": {"id": 9480333532, "name": "What the Pho", "category": "restaurant", "tags": ["restaurant", "vietnamese", "wheelchair-accessible"], "sources": ["osm", "overture"], "website": "http://whatthepho.net", "phone": "(206) 669-6339", "address": "160 Bellevue Sq", "stations": [{"stopCode": 58, "lines": "2", "name": "Bellevue Downtown Station", "walkingMeters": 1154, "walkingSeconds": 831, "band": 15}]}, "geometry": {"type": "Point", "coordinates": [-122.2037407, 47.6146701]}}, {"type": "Feature", "properties": {"id": "f95d5fa9-abdc-42b2-aaa5-12d280826e83", "name": "What the Pho", "category": "restaurant", "tags": ["restaurant", "noodles"], "sources": ["overture"], "website": "http://whatthepho.net/", "phone": "(425) 462-5600", "address": "10680 NE 8th St", "stations": [{"stopCode": 58, "lines": "2", "name": "Bellevue Downtown Station", "walkingMeters": 972, "walkingSeconds": 699, "band": 15}]}, "geometry": {"type": "Point", "coordinates": [-122.201088, 47.6141777]}}, {"type": "Feature", "properties": {"id": 4549781309, "name": "Carmine's", "category": "restaurant", "tags": ["restaurant", "italian", "european"], "sources": ["osm", "overture"], "website": "http://www.carminesbellevue.com/", "phone": "+14257860160", "address": "88 102nd Ave NE"}, "geometry": {"type": "Point", "coordinates": [-122.2039399, 47.6110919]}}, {"type": "Feature", "properties": {"id": 5235764167, "name": "Macu Tea", "category": "cafe", "tags": ["cafe", "bubble-tea", "takeaway", "wheelchair-accessible"], "sources": ["osm"], "address": "10435 Northeast 4th Street", "stations": [{"stopCode": 58, "lines": "2", "name": "Bellevue Downtown Station", "walkingMeters": 985, "walkingSeconds": 710, "band": 15}]}, "geometry": {"type": "Point", "coordinates": [-122.20105, 47.6136449]}}, {"type": "Feature", "properties": {"id": 4728664414, "name": "Peony", "category": "restaurant", "tags": ["restaurant", "chinese", "outdoor-seating", "takeaway"], "sources": ["osm"], "website": "https://www.peonykitchen.com/", "phone": "+1-425-502-7652", "address": "10317 Main Street", "hours": "Mo-Fr 11:00-21:00; Sa-Su 11:00-22:00", "stations": [{"stopCode": 57, "lines": "2", "name": "East Main Station", "walkingMeters": 1080, "walkingSeconds": 776, "band": 15}]}, "geometry": {"type": "Point", "coordinates": [-122.2026916, 47.6100322]}}, {"type": "Feature", "properties": {"id": 12269969118, "name": "Capital One Caf\u00e9", "category": "cafe", "tags": ["cafe", "wheelchair-accessible"], "sources": ["osm"], "website": "https://www.capitalone.com/cafes", "hours": "Mo-Sa 08:00-19:00,Su 10:00-18:00", "stations": [{"stopCode": 58, "lines": "2", "name": "Bellevue Downtown Station", "walkingMeters": 988, "walkingSeconds": 710, "band": 15}]}, "geometry": {"type": "Point", "coordinates": [-122.2012992, 47.6140358]}}, {"type": "Feature", "properties": {"id": 11217037212, "name": "Wetzel's Pretzels", "category": "fast_food", "tags": ["fast-food", "pretzel", "takeaway"], "sources": ["osm"], "address": "1085 Bellevue Square"}, "geometry": {"type": "Point", "coordinates": [-122.2049135, 47.6159628]}}, {"type": "Feature", "properties": {"id": "ce90a5c2-27da-46c1-bf43-2741c40600f8", "name": "Great State Burger", "category": "restaurant", "tags": ["restaurant", "burger"], "sources": ["overture"], "website": "http://greatstateburger.com", "phone": "(425) 534-2345", "address": "575 Bellevue Sq", "stations": [{"stopCode": 58, "lines": "2", "name": "Bellevue Downtown Station", "walkingMeters": 1093, "walkingSeconds": 787, "band": 15}]}, "geometry": {"type": "Point", "coordinates": [-122.2035294, 47.6155701]}}, {"type": "Feature", "properties": {"id": 5032793346, "name": "Auntie Anne's", "category": "fast_food", "tags": ["fast-food", "pretzel", "takeaway", "wheelchair-accessible", "bakery"], "sources": ["osm", "overture"], "website": "http://auntieannes.com/", "phone": "+14256378990", "address": "575 Bellevue Sq"}, "geometry": {"type": "Point", "coordinates": [-122.204634, 47.6157201]}}, {"type": "Feature", "properties": {"id": 5096603753, "name": "Japonessa Sushi Cocina", "category": "restaurant", "tags": ["restaurant", "japanese", "wheelchair-accessible", "sushi", "asian"], "sources": ["osm", "overture"], "website": "https://www.japonessa.com/japonessa-bellevue/", "phone": "+14254541585", "address": "500 Bellevue Way NE", "stations": [{"stopCode": 58, "lines": "2", "name": "Bellevue Downtown Station", "walkingMeters": 943, "walkingSeconds": 680, "band": 10}]}, "geometry": {"type": "Point", "coordinates": [-122.2010762, 47.6148776]}}, {"type": "Feature", "properties": {"id": "5df2d46b-a0ee-4f99-bad6-c0e88cfaea1e", "name": "Japonessa Sushi Cocina", "category": "restaurant", "tags": ["restaurant", "asian", "pan", "sushi"], "sources": ["overture"], "website": "http://bellevue.japonessa.com/", "phone": "4254541585", "address": "500 Bellevue Way NE Ste 130", "stations": [{"stopCode": 58, "lines": "2", "name": "Bellevue Downtown Station", "walkingMeters": 1259, "walkingSeconds": 908, "band": 15}]}, "geometry": {"type": "Point", "coordinates": [-122.2005615, 47.6187134]}}, {"type": "Feature", "properties": {"id": 5120911129, "name": "Civility and Unrest", "category": "bar", "tags": ["bar"], "sources": ["osm"], "website": "https://civilityandunrest.com", "stations": [{"stopCode": 58, "lines": "2", "name": "Bellevue Downtown Station", "walkingMeters": 930, "walkingSeconds": 670, "band": 10}]}, "geometry": {"type": "Point", "coordinates": [-122.2008935, 47.6148851]}}, {"type": "Feature", "properties": {"id": 5235764161, "name": "Tropical Smoothie Cafe", "category": "fast_food", "tags": ["fast-food", "juice", "takeaway", "wheelchair-accessible"], "sources": ["osm"], "address": "10445 Northeast 4th Street", "stations": [{"stopCode": 58, "lines": "2", "name": "Bellevue Downtown Station", "walkingMeters": 971, "walkingSeconds": 700, "band": 15}]}, "geometry": {"type": "Point", "coordinates": [-122.2008644, 47.6136505]}}, {"type": "Feature", "properties": {"id": 5235765493, "name": "Pressed Juicery", "category": "fast_food", "tags": ["fast-food", "juice", "takeaway", "wheelchair-accessible"], "sources": ["osm"], "stations": [{"stopCode": 58, "lines": "2", "name": "Bellevue Downtown Station", "walkingMeters": 1114, "walkingSeconds": 802, "band": 15}]}, "geometry": {"type": "Point", "coordinates": [-122.2019864, 47.6171026]}}, {"type": "Feature", "properties": {"id": 5367088457, "name": "Beecher's Handmade Cheese", "category": "restaurant", "tags": ["restaurant", "american", "wheelchair-accessible"], "sources": ["osm"], "website": "https://www.beechershandmadecheese.com/", "phone": "+1-425-777-9171", "address": "126 Bellevue Square", "stations": [{"stopCode": 58, "lines": "2", "name": "Bellevue Downtown Station", "walkingMeters": 1093, "walkingSeconds": 787, "band": 15}]}, "geometry": {"type": "Point", "coordinates": [-122.2037891, 47.6156656]}}, {"type": "Feature", "properties": {"id": 5675916227, "name": "Ascend Prime Steak and Sushi", "category": "restaurant", "tags": ["restaurant", "steak-house", "sushi", "wheelchair-accessible"], "sources": ["osm"], "stations": [{"stopCode": 58, "lines": "2", "name": "Bellevue Downtown Station", "walkingMeters": 974, "walkingSeconds": 700, "band": 10}]}, "geometry": {"type": "Point", "coordinates": [-122.2008718, 47.6144104]}}, {"type": "Feature", "properties": {"id": 5752777682, "name": "Istanbul Cuisine", "category": "fast_food", "tags": ["fast-food", "wheelchair-accessible", "restaurant", "turkish", "middle-eastern", "mediterranean"], "sources": ["osm", "overture"], "website": "https://www.istanbulcuisinecafe.com/", "phone": "+14254552101", "address": "405 Bellevue Sq", "stations": [{"stopCode": 58, "lines": "2", "name": "Bellevue Downtown Station", "walkingMeters": 971, "walkingSeconds": 699, "band": 15}]}, "geometry": {"type": "Point", "coordinates": [-122.202143, 47.6155137]}}, {"type": "Feature", "properties": {"id": 5752777706, "name": "MIX Poke Bar", "category": "fast_food", "tags": ["fast-food", "wheelchair-accessible", "restaurant", "poke", "asian", "japanese"], "sources": ["osm", "overture"], "website": "http://www.mixpokebar.com/", "phone": "+14254542217", "address": "403 Bellevue Sq", "stations": [{"stopCode": 58, "lines": "2", "name": "Bellevue Downtown Station", "walkingMeters": 971, "walkingSeconds": 700, "band": 15}]}, "geometry": {"type": "Point", "coordinates": [-122.202144, 47.6157037]}}, {"type": "Feature", "properties": {"id": 5759106921, "name": "Great State Burger - Bellevue", "category": "restaurant", "tags": ["restaurant"], "sources": ["osm"], "address": "228 Bellevue Square", "hours": "Mo-Sa 09:30-21:30; Su 11:00-19:00", "stations": [{"stopCode": 58, "lines": "2", "name": "Bellevue Downtown Station", "walkingMeters": 1112, "walkingSeconds": 801, "band": 15}]}, "geometry": {"type": "Point", "coordinates": [-122.2036375, 47.6157578]}}, {"type": "Feature", "properties": {"id": 5864328985, "name": "Kizuki Ramen & Izakaya - Bellevue Square", "category": "restaurant", "tags": ["restaurant", "japanese", "wheelchair-accessible"], "sources": ["osm"], "website": "http://kuzuki.com", "phone": "+1-425-454-0885", "address": "252 Bellevue Square", "hours": "Mo-Sa 09:30-21:00; Su 11:00-19:00", "stations": [{"stopCode": 58, "lines": "2", "name": "Bellevue Downtown Station", "walkingMeters": 1151, "walkingSeconds": 829, "band": 15}]}, "geometry": {"type": "Point", "coordinates": [-122.2036095, 47.6147041]}}, {"type": "Feature", "properties": {"id": 5877138385, "name": "T'Latte", "category": "cafe", "tags": ["cafe"], "sources": ["osm", "overture"], "website": "http://www.t-latte.com/", "phone": "+14257096868", "address": "37 103rd Ave NE", "stations": [{"stopCode": 57, "lines": "2", "name": "East Main Station", "walkingMeters": 1188, "walkingSeconds": 858, "band": 15}, {"stopCode": 58, "lines": "2", "name": "Bellevue Downtown Station", "walkingMeters": 1420, "walkingSeconds": 1023, "band": 15}]}, "geometry": {"type": "Point", "coordinates": [-122.2030434, 47.6109919]}}, {"type": "Feature", "properties": {"id": "1911e8e9-e7c8-4c83-9052-afda9eb20291", "name": "Nana's Green Tea", "category": "restaurant", "tags": ["restaurant", "japanese"], "sources": ["overture"], "website": "https://www.toasttab.com/nanas-green-tea-bellevue", "phone": "+14255909715", "address": "16 103rd Ave NE", "stations": [{"stopCode": 57, "lines": "2", "name": "East Main Station", "walkingMeters": 1132, "walkingSeconds": 820, "band": 15}]}, "geometry": {"type": "Point", "coordinates": [-122.2027359, 47.6106033]}}, {"type": "Feature", "properties": {"id": 6483367285, "name": "Molly Moon's Homemade Ice Cream - Bellevue Walk-Up", "category": "ice_cream", "tags": ["ice-cream"], "sources": ["osm"], "address": "10045 Northeast 1st Street", "hours": "Mo-Su 11:00-17:00"}, "geometry": {"type": "Point", "coordinates": [-122.2053961, 47.6111237]}}, {"type": "Feature", "properties": {"id": 6552105085, "name": "Mango Mango Dessert", "category": "cafe", "tags": ["cafe", "asian", "dessert", "takeaway", "restaurant"], "sources": ["osm", "overture"], "website": "http://mangomangodessert.com/", "phone": "+14254550758", "address": "103 Bellevue Way NE", "stations": [{"stopCode": 57, "lines": "2", "name": "East Main Station", "walkingMeters": 1124, "walkingSeconds": 814, "band": 15}, {"stopCode": 58, "lines": "2", "name": "Bellevue Downtown Station", "walkingMeters": 1294, "walkingSeconds": 931, "band": 15}]}, "geometry": {"type": "Point", "coordinates": [-122.201762, 47.6114004]}}, {"type": "Feature", "properties": {"id": 7600942146, "name": "Third Culture Coffee", "category": "cafe", "tags": ["cafe", "coffee-shop", "wheelchair-accessible", "dog-friendly", "wifi", "coffee"], "sources": ["osm", "overture"], "website": "http://www.thirdculturecoffee.com/", "phone": "+14254552334", "address": "80 102nd Ave NE", "hours": "Mo-Th 07:00-17:00; Fr-Sa 07:00-18:00; Su 07:00-17:00"}, "geometry": {"type": "Point", "coordinates": [-122.2039409, 47.6108569]}}, {"type": "Feature", "properties": {"id": 9480333572, "name": "Cinnabon", "category": "fast_food", "tags": ["fast-food", "dessert", "takeaway", "bakery"], "sources": ["osm", "overture"], "website": "http://youtube.com/CinnabonInc", "phone": "+14254547035", "address": "1038 Bellevue Sq"}, "geometry": {"type": "Point", "coordinates": [-122.2047374, 47.6157145]}}, {"type": "Feature", "properties": {"id": 9480333613, "name": "Nordstrom Marketplace Cafe", "category": "restaurant", "tags": ["restaurant"], "sources": ["osm"], "stations": [{"stopCode": 58, "lines": "2", "name": "Bellevue Downtown Station", "walkingMeters": 1264, "walkingSeconds": 910, "band": 15}]}, "geometry": {"type": "Point", "coordinates": [-122.2040285, 47.6171833]}}, {"type": "Feature", "properties": {"id": 9480344702, "name": "Forum Social House", "category": "bar", "tags": ["bar", "wheelchair-accessible", "wifi"], "sources": ["osm"], "hours": "Mo-Th 17:00-22:00; Fr 17:00-02:00; Sa 12:00-02:00; Su 12:00-20:00", "stations": [{"stopCode": 58, "lines": "2", "name": "Bellevue Downtown Station", "walkingMeters": 1080, "walkingSeconds": 778, "band": 15}]}, "geometry": {"type": "Point", "coordinates": [-122.201328, 47.6170349]}}, {"type": "Feature", "properties": {"id": "deaa36c6-9cbd-4197-827b-97c240a2fd18", "name": "Forum Social House", "category": "bar", "tags": ["bar"], "sources": ["overture"], "website": "http://www.forumsocialhouse.com", "phone": "(425) 658-0500", "address": "700 Bellevue Way NE Ste 300", "stations": [{"stopCode": 58, "lines": "2", "name": "Bellevue Downtown Station", "walkingMeters": 930, "walkingSeconds": 670, "band": 10}]}, "geometry": {"type": "Point", "coordinates": [-122.2008438, 47.6163292]}}, {"type": "Feature", "properties": {"id": 9480344703, "name": "Prime 21 Lounge", "category": "bar", "tags": ["bar"], "sources": ["osm"], "hours": "Tu-Sa 16:00+", "stations": [{"stopCode": 58, "lines": "2", "name": "Bellevue Downtown Station", "walkingMeters": 1023, "walkingSeconds": 737, "band": 15}]}, "geometry": {"type": "Point", "coordinates": [-122.2003182, 47.6178696]}}, {"type": "Feature", "properties": {"id": 9480344705, "name": "Fresh N More", "category": "restaurant", "tags": ["restaurant", "buffet"], "sources": ["osm", "overture"], "website": "https://www.orderfreshnmore.com/?utm_source=bing&utm_medium=websiteurl&utm_campaign=search", "phone": "4254552812", "address": "10500 NE 8th St Ste 206", "hours": "Mo-Fr 11:00-14:00", "stations": [{"stopCode": 58, "lines": "2", "name": "Bellevue Downtown Station", "walkingMeters": 1049, "walkingSeconds": 756, "band": 15}]}, "geometry": {"type": "Point", "coordinates": [-122.2002067, 47.6181139]}}, {"type": "Feature", "properties": {"id": 11125942705, "name": "Coffeeholic House", "category": "cafe", "tags": ["cafe", "coffee-shop", "vietnamese", "wifi", "coffee"], "sources": ["osm", "overture"], "website": "https://coffeeholichouse.com", "phone": "(425) 590-9916", "address": "10000 Main St", "hours": "Mo-Su 08:00-18:00"}, "geometry": {"type": "Point", "coordinates": [-122.205947, 47.6102953]}}, {"type": "Feature", "properties": {"id": "e782046e-941d-4938-8c03-2453d9ed442d", "name": "Kizuki Ramen & Izakaya", "category": "restaurant", "tags": ["restaurant", "japanese", "asian"], "sources": ["overture"], "website": "https://www.kizuki.com/", "phone": "+14258006397", "address": "575 Bellevue Sq", "stations": [{"stopCode": 58, "lines": "2", "name": "Bellevue Downtown Station", "walkingMeters": 1159, "walkingSeconds": 835, "band": 15}]}, "geometry": {"type": "Point", "coordinates": [-122.2033615, 47.6146278]}}, {"type": "Feature", "properties": {"id": 10876936728, "name": "Adrian's", "category": "restaurant", "tags": ["restaurant", "mexican"], "sources": ["osm"]}, "geometry": {"type": "Point", "coordinates": [-122.2042818, 47.6100696]}}, {"type": "Feature", "properties": {"id": 10876936729, "name": "Takai by Kashiba", "category": "restaurant", "tags": ["restaurant", "sushi", "reservations", "japanese", "asian"], "sources": ["osm", "overture"], "website": "http://www.takaibykashiba.com/", "phone": "+14255027259", "address": "180 Bellevue Way NE", "hours": "We-Mo 17:30+", "stations": [{"stopCode": 57, "lines": "2", "name": "East Main Station", "walkingMeters": 1139, "walkingSeconds": 824, "band": 15}, {"stopCode": 58, "lines": "2", "name": "Bellevue Downtown Station", "walkingMeters": 1235, "walkingSeconds": 888, "band": 15}]}, "geometry": {"type": "Point", "coordinates": [-122.2012671, 47.6116763]}}, {"type": "Feature", "properties": {"id": "25ef01ec-255e-44c2-90d7-179291b8f19c", "name": "Takai by Kashiba", "category": "restaurant", "tags": ["restaurant", "asian", "pan"], "sources": ["overture"], "website": "https://takaibykashiba.com/", "phone": "4255027259", "address": "180 Bellevue Way NE", "stations": [{"stopCode": 58, "lines": "2", "name": "Bellevue Downtown Station", "walkingMeters": 1112, "walkingSeconds": 801, "band": 15}]}, "geometry": {"type": "Point", "coordinates": [-122.2028198, 47.6158447]}}, {"type": "Feature", "properties": {"id": 11217037187, "name": "IceMonster", "category": "ice_cream", "tags": ["ice-cream", "shaved-ice"], "sources": ["osm"], "address": "1020 Bellevue Square"}, "geometry": {"type": "Point", "coordinates": [-122.2047648, 47.6162641]}}, {"type": "Feature", "properties": {"id": 11280454229, "name": "Sizzle and Crunch", "category": "restaurant", "tags": ["restaurant", "vietnamese"], "sources": ["osm"], "address": "10438 Northeast 10th Street", "stations": [{"stopCode": 58, "lines": "2", "name": "Bellevue Downtown Station", "walkingMeters": 1205, "walkingSeconds": 868, "band": 15}]}, "geometry": {"type": "Point", "coordinates": [-122.2004218, 47.6194168]}}, {"type": "Feature", "properties": {"id": "70218d2e-9e7b-4c6c-961a-bf62c80f829f", "name": "Dote Coffee Bar", "category": "cafe", "tags": ["cafe", "coffee"], "sources": ["overture"], "website": "http://dailydote.com", "phone": "(425) 429-3292", "address": "500 Bellevue Way NE", "stations": [{"stopCode": 58, "lines": "2", "name": "Bellevue Downtown Station", "walkingMeters": 1005, "walkingSeconds": 724, "band": 10}]}, "geometry": {"type": "Point", "coordinates": [-122.2013092, 47.6148148]}}, {"type": "Feature", "properties": {"id": 11500556110, "name": "Semicolon Cafe", "category": "cafe", "tags": ["cafe", "sandwich", "vegetarian", "coffee"], "sources": ["osm", "overture"], "website": "http://www.semicoloncafe.com", "phone": "(425) 223-5932", "address": "188 Bellevue Way", "hours": "Mo-Th 08:00-17:00; Fr-Su 08:00-20:00", "stations": [{"stopCode": 57, "lines": "2", "name": "East Main Station", "walkingMeters": 1118, "walkingSeconds": 804, "band": 15}, {"stopCode": 58, "lines": "2", "name": "Bellevue Downtown Station", "walkingMeters": 1180, "walkingSeconds": 848, "band": 15}]}, "geometry": {"type": "Point", "coordinates": [-122.2009537, 47.6118903]}}, {"type": "Feature", "properties": {"id": 12615220498, "name": "Mochinut", "category": "fast_food", "tags": ["fast-food", "donut", "bubble-tea", "takeaway", "wheelchair-accessible"], "sources": ["osm"]}, "geometry": {"type": "Point", "coordinates": [-122.204629, 47.615794]}}, {"type": "Feature", "properties": {"id": 12064246469, "name": "Omo Thai Tea", "category": "cafe", "tags": ["cafe", "takeaway"], "sources": ["osm"], "website": "https://omothaitea.com/", "address": "10226 Northeast 10th Street"}, "geometry": {"type": "Point", "coordinates": [-122.2035778, 47.6193584]}}, {"type": "Feature", "properties": {"id": 12064246645, "name": "Valentina\u2019s Wine Bar", "category": "bar", "tags": ["bar"], "sources": ["osm"], "address": "10204 Main Street", "stations": [{"stopCode": 57, "lines": "2", "name": "East Main Station", "walkingMeters": 1169, "walkingSeconds": 844, "band": 15}]}, "geometry": {"type": "Point", "coordinates": [-122.2037977, 47.6102774]}}, {"type": "Feature", "properties": {"id": 12103463654, "name": "Fresco", "category": "restaurant", "tags": ["restaurant"], "sources": ["osm"], "website": "https://www.ihg.com/intercontinental/hotels/us/en/bellevue/seaha/hoteldetail/dining", "address": "825 Avenue Square Northeast", "stations": [{"stopCode": 58, "lines": "2", "name": "Bellevue Downtown Station", "walkingMeters": 1338, "walkingSeconds": 967, "band": 15}]}, "geometry": {"type": "Point", "coordinates": [-122.2029741, 47.617843]}}, {"type": "Feature", "properties": {"id": "0fc894ee-f4e3-4980-9427-b2e876c11378", "name": "Zeeks Pizza", "category": "restaurant", "tags": ["restaurant", "pizza", "italian"], "sources": ["overture"], "website": "https://zeekspizza.com/locations/", "phone": "+14258938646", "address": "10201 NE 10th St"}, "geometry": {"type": "Point", "coordinates": [-122.2041168, 47.6191559]}}, {"type": "Feature", "properties": {"id": 12269969117, "name": "Central Bar & Restaurant", "category": "restaurant", "tags": ["restaurant", "wheelchair-accessible", "bar", "bar-and-grill"], "sources": ["osm", "overture"], "website": "https://www.centralbar.com/", "phone": "+14255787878", "address": "10475 NE 6th St", "stations": [{"stopCode": 58, "lines": "2", "name": "Bellevue Downtown Station", "walkingMeters": 889, "walkingSeconds": 640, "band": 10}]}, "geometry": {"type": "Point", "coordinates": [-122.2007399, 47.6154369]}}, {"type": "Feature", "properties": {"id": 12270102688, "name": "W Living Room Bar & The Porch", "category": "bar", "tags": ["bar", "wheelchair-accessible"], "sources": ["osm"], "phone": "+1-425-709-9000", "address": "10455 Northeast 5th Place", "hours": "Su-Th 16:00-22:00; Fr-Sa 16:00-25:00", "stations": [{"stopCode": 58, "lines": "2", "name": "Bellevue Downtown Station", "walkingMeters": 898, "walkingSeconds": 647, "band": 10}]}, "geometry": {"type": "Point", "coordinates": [-122.2002705, 47.6149791]}}, {"type": "Feature", "properties": {"id": 13600683602, "name": "Molly Tea Bellevue", "category": "cafe", "tags": ["cafe", "bubble-tea"], "sources": ["osm"], "website": "https://usa.mollytea.com", "phone": "+1-425-620-5035", "address": "103 Bellevue Way Northeast", "hours": "M0-Su 11:00-22:00", "stations": [{"stopCode": 57, "lines": "2", "name": "East Main Station", "walkingMeters": 1121, "walkingSeconds": 812, "band": 15}, {"stopCode": 58, "lines": "2", "name": "Bellevue Downtown Station", "walkingMeters": 1314, "walkingSeconds": 945, "band": 15}]}, "geometry": {"type": "Point", "coordinates": [-122.2018386, 47.6113328]}}, {"type": "Feature", "properties": {"id": 1326151816, "name": "Duke's Seafood", "category": "restaurant", "tags": ["restaurant", "seafood", "reservations", "wheelchair-accessible", "american"], "sources": ["osm", "overture"], "website": "https://www.dukesseafood.com/locations/bellevue/", "phone": "+14255052247", "address": "500 Bellevue Way NE", "hours": "11:00-23:00", "stations": [{"stopCode": 58, "lines": "2", "name": "Bellevue Downtown Station", "walkingMeters": 996, "walkingSeconds": 717, "band": 10}]}, "geometry": {"type": "Point", "coordinates": [-122.2012773, 47.6149032]}}, {"type": "Feature", "properties": {"id": 192567204, "name": "Fern Thai", "category": "restaurant", "tags": ["restaurant", "thai"], "sources": ["osm"], "phone": "+1-425-326-1624", "address": "10134 Main Street", "hours": "Mo-Su 11:00-22:00"}, "geometry": {"type": "Point", "coordinates": [-122.204649, 47.6103782]}}, {"type": "Feature", "properties": {"id": 1326151821, "name": "Midnight Cookie Co.", "category": "restaurant", "tags": ["restaurant", "dessert", "cookies", "takeaway", "delivery", "bakery"], "sources": ["osm", "overture"], "website": "https://www.midnightcookieco.com", "phone": "(425) 842-3776", "address": "500 Bellevue Way Northeast", "hours": "Su-We 11:00-22:00; Th-Sa 11:00-24:00", "stations": [{"stopCode": 58, "lines": "2", "name": "Bellevue Downtown Station", "walkingMeters": 1024, "walkingSeconds": 736, "band": 10}]}, "geometry": {"type": "Point", "coordinates": [-122.2010224, 47.6142808]}}, {"type": "Feature", "properties": {"id": 1326151817, "name": "Baron's Sino Kitchen & Bar", "category": "restaurant", "tags": ["restaurant", "chinese", "wheelchair-accessible"], "sources": ["osm"], "website": "https://baronsbellevue.com", "phone": "+1-425-500-8888", "hours": "Mo-Fr 11:30-14:30; Mo-Th 16:30-21:00; Fr 16:30-22:00; Sa 11:30-15:00; Sa 16:30-22:00; Su 11:30-15:00; Su 16:30-21:00", "stations": [{"stopCode": 58, "lines": "2", "name": "Bellevue Downtown Station", "walkingMeters": 944, "walkingSeconds": 680, "band": 10}]}, "geometry": {"type": "Point", "coordinates": [-122.2010897, 47.6149557]}}, {"type": "Feature", "properties": {"id": 1326151819, "name": "Lakehouse", "category": "restaurant", "tags": ["restaurant", "american", "northwestern", "wheelchair-accessible"], "sources": ["osm"], "stations": [{"stopCode": 58, "lines": "2", "name": "Bellevue Downtown Station", "walkingMeters": 929, "walkingSeconds": 670, "band": 10}]}, "geometry": {"type": "Point", "coordinates": [-122.2005066, 47.614801]}}, {"type": "Feature", "properties": {"id": 1326151820, "name": "Mix Sushi Bar", "category": "restaurant", "tags": ["restaurant", "sushi"], "sources": ["osm"], "stations": [{"stopCode": 58, "lines": "2", "name": "Bellevue Downtown Station", "walkingMeters": 958, "walkingSeconds": 688, "band": 10}]}, "geometry": {"type": "Point", "coordinates": [-122.2008978, 47.6142908]}}, {"type": "Feature", "properties": {"id": 1326151823, "name": "West Coast Tacos", "category": "restaurant", "tags": ["restaurant", "tacos", "mexican", "takeaway"], "sources": ["osm"], "address": "500 Bellevue Way Northeast", "hours": "Mo-Sa 11:00-21:00; Su 11:00-19:00", "stations": [{"stopCode": 58, "lines": "2", "name": "Bellevue Downtown Station", "walkingMeters": 1038, "walkingSeconds": 746, "band": 10}]}, "geometry": {"type": "Point", "coordinates": [-122.2009615, 47.6143513]}}, {"type": "Feature", "properties": {"id": 1326151824, "name": "Club Seltzer", "category": "bar", "tags": ["bar", "seltzer"], "sources": ["osm"], "hours": "Mo-Sa 11:00-21:00; Su 11:00-19:00", "stations": [{"stopCode": 58, "lines": "2", "name": "Bellevue Downtown Station", "walkingMeters": 968, "walkingSeconds": 696, "band": 10}]}, "geometry": {"type": "Point", "coordinates": [-122.2006571, 47.6143622]}}, {"type": "Feature", "properties": {"id": 1326151825, "name": "EatDirt", "category": "restaurant", "tags": ["restaurant", "salad", "sandwich"], "sources": ["osm"], "website": "https://eatdirt.co", "hours": "Mo-Sa 11:00-21:00; Su 11:00-19:00", "stations": [{"stopCode": 58, "lines": "2", "name": "Bellevue Downtown Station", "walkingMeters": 962, "walkingSeconds": 692, "band": 10}]}, "geometry": {"type": "Point", "coordinates": [-122.2006709, 47.6143074]}}, {"type": "Feature", "properties": {"id": 1326151826, "name": "Great State & King Leroy", "category": "pub", "tags": ["pub", "burger", "breakfast", "american", "takeaway", "cocktails"], "sources": ["osm"], "website": "https://kingleroyseattle.com", "address": "500 Bellevue Way Northeast", "hours": "Mo-Fr 08:00-21:00; Sa 09:00-21:00; Su 11:00-20:00", "stations": [{"stopCode": 58, "lines": "2", "name": "Bellevue Downtown Station", "walkingMeters": 1044, "walkingSeconds": 752, "band": 10}]}, "geometry": {"type": "Point", "coordinates": [-122.2009865, 47.6144688]}}, {"type": "Feature", "properties": {"id": 1326151827, "name": "Dote", "category": "cafe", "tags": ["cafe", "wheelchair-accessible"], "sources": ["osm"], "website": "https://dailydote.com", "phone": "+1-425-429-3292", "hours": "Mo-Fr 07:00-21:00; Sa 08:00-21:00; Su 08:00-19:00", "stations": [{"stopCode": 58, "lines": "2", "name": "Bellevue Downtown Station", "walkingMeters": 1026, "walkingSeconds": 739, "band": 10}]}, "geometry": {"type": "Point", "coordinates": [-122.2010138, 47.6145663]}}, {"type": "Feature", "properties": {"id": 1326151828, "name": "KODE Pizza", "category": "restaurant", "tags": ["restaurant", "pizza", "korean", "takeaway"], "sources": ["osm"], "hours": "Mo-Sa 11:00-21:00; Su 11:00-19:00", "stations": [{"stopCode": 58, "lines": "2", "name": "Bellevue Downtown Station", "walkingMeters": 970, "walkingSeconds": 699, "band": 10}]}, "geometry": {"type": "Point", "coordinates": [-122.200676, 47.614429]}}, {"type": "Feature", "properties": {"id": "726197ea-25b3-427b-bb35-895e497d5903", "name": "Blue C Sushi", "category": "restaurant", "tags": ["restaurant", "sushi"], "sources": ["overture"], "website": "http://www.bluecsushi.com", "phone": "(425) 454-8288", "address": "503 Bellevue Sq", "stations": [{"stopCode": 58, "lines": "2", "name": "Bellevue Downtown Station", "walkingMeters": 1019, "walkingSeconds": 734, "band": 15}]}, "geometry": {"type": "Point", "coordinates": [-122.201767, 47.6163139]}}, {"type": "Feature", "properties": {"id": "dc3bbcdd-cd6c-4253-a2b6-349089b95582", "name": "Papa John's Pizza", "category": "restaurant", "tags": ["restaurant", "pizza"], "sources": ["overture"], "website": "https://www.papajohns.com/", "phone": "4252897272", "address": "10222 NE 10th St"}, "geometry": {"type": "Point", "coordinates": [-122.2036362, 47.6194077]}}, {"type": "Feature", "properties": {"id": "67ebe42c-92e6-4616-876b-6759ec2f1afb", "name": "Seattle's Best Coffee", "category": "cafe", "tags": ["cafe"], "sources": ["overture"], "website": "http://www.seattlesbest.com", "phone": "(425) 451-8102", "address": "226 Bellevue Sq Bellevue Square Mall"}, "geometry": {"type": "Point", "coordinates": [-122.2043762, 47.6159286]}}, {"type": "Feature", "properties": {"id": "d6172c0c-05d7-408f-8e27-03b131a03505", "name": "Pokeworks", "category": "restaurant", "tags": ["restaurant", "poke", "asian", "japanese"], "sources": ["overture"], "website": "https://www.pokeworks.com/", "phone": "+14252141182", "address": "222 Bellevue Way NE", "stations": [{"stopCode": 58, "lines": "2", "name": "Bellevue Downtown Station", "walkingMeters": 1145, "walkingSeconds": 825, "band": 15}]}, "geometry": {"type": "Point", "coordinates": [-122.2013702, 47.6125107]}}, {"type": "Feature", "properties": {"id": "29cf8425-2532-4c2f-8298-94f186c96b3b", "name": "Tully's Coffee", "category": "cafe", "tags": ["cafe", "coffee"], "sources": ["overture"], "website": "http://tullyscoffeeshops.com", "phone": "(425) 274-4600", "address": "700 Bellevue Way NE", "stations": [{"stopCode": 58, "lines": "2", "name": "Bellevue Downtown Station", "walkingMeters": 1046, "walkingSeconds": 754, "band": 15}]}, "geometry": {"type": "Point", "coordinates": [-122.2013931, 47.6167259]}}, {"type": "Feature", "properties": {"id": "2adde1b2-70a3-4273-a587-45fe06329a1d", "name": "Dough Zone Dumpling House", "category": "restaurant", "tags": ["restaurant", "chinese", "asian"], "sources": ["overture"], "website": "https://www.doughzonedumplinghouse.com/", "phone": "+14254543333", "address": "10300 Main St", "stations": [{"stopCode": 57, "lines": "2", "name": "East Main Station", "walkingMeters": 1065, "walkingSeconds": 772, "band": 15}]}, "geometry": {"type": "Point", "coordinates": [-122.2024689, 47.6102753]}}, {"type": "Feature", "properties": {"id": "aa986491-a890-4d66-93f6-9d95050aa959", "name": "Ebar", "category": "cafe", "tags": ["cafe", "coffee"], "sources": ["overture"], "website": "https://www.nordstrom.com/store-details/nordstrom-bellevue-square?sp_source=other&utm_channel=low_nd_seo_local&sp_campaign=food", "phone": "+14254555800", "address": "100 Bellevue Sq"}, "geometry": {"type": "Point", "coordinates": [-122.2046127, 47.6169472]}}, {"type": "Feature", "properties": {"id": "7aa2db2a-80de-4d0b-9303-7fb73d9b0d2a", "name": "The Grill", "category": "restaurant", "tags": ["restaurant", "american"], "sources": ["overture"], "website": "http://shop.nordstrom.com/c/nordstrom-restaurants", "phone": "+14254555800", "address": "100 Bellevue Sq"}, "geometry": {"type": "Point", "coordinates": [-122.2049561, 47.6170197]}}, {"type": "Feature", "properties": {"id": "5c42d750-fb59-4f50-9636-f5f40c53c974", "name": "Sushi Maru", "category": "restaurant", "tags": ["restaurant", "sushi"], "sources": ["overture"], "website": "http://www.sushimarubellevue.com", "phone": "(425) 453-0100", "address": "205 105th Ave NE", "stations": [{"stopCode": 58, "lines": "2", "name": "Bellevue Downtown Station", "walkingMeters": 1074, "walkingSeconds": 775, "band": 15}, {"stopCode": 57, "lines": "2", "name": "East Main Station", "walkingMeters": 1103, "walkingSeconds": 793, "band": 15}]}, "geometry": {"type": "Point", "coordinates": [-122.2003479, 47.6123276]}}, {"type": "Feature", "properties": {"id": "b7164f2f-ab90-4235-a2b1-7e08cb5ae525", "name": "Nordstrom Ebar Artisan Coffee", "category": "cafe", "tags": ["cafe", "coffee"], "sources": ["overture"], "website": "https://www.nordstrom.com/store-details/nordstrom-bellevue-square?utm_source=bing&utm_medium=organic&utm_campaign=food&utm_content=26004&utm_channel=low_nd_seo_local&sp_source=bing&sp_campaign=food", "phone": "4256465016", "address": "100 Bellevue Square"}, "geometry": {"type": "Point", "coordinates": [-122.2051926, 47.6171265]}}, {"type": "Feature", "properties": {"id": "84a662d6-28d3-45e9-99b7-ee6b1b7006cc", "name": "Kaisho", "category": "restaurant", "tags": ["restaurant", "mexican"], "sources": ["overture"], "website": "http://www.kaishorestaurant.com", "phone": "(425) 453-6094", "address": "504 Bellevue Sq", "stations": [{"stopCode": 58, "lines": "2", "name": "Bellevue Downtown Station", "walkingMeters": 1410, "walkingSeconds": 1014, "band": 15}]}, "geometry": {"type": "Point", "coordinates": [-122.2048721, 47.615036]}}, {"type": "Feature", "properties": {"id": "eabb42ec-dd90-44ed-a47d-7b4b01b9e444", "name": "Boom Noodle", "category": "restaurant", "tags": ["restaurant", "noodles"], "sources": ["overture"], "website": "http://www.boomnoodle.com/", "phone": "(425) 453-6094", "address": "504 Bellevue Sq", "stations": [{"stopCode": 58, "lines": "2", "name": "Bellevue Downtown Station", "walkingMeters": 1041, "walkingSeconds": 750, "band": 15}]}, "geometry": {"type": "Point", "coordinates": [-122.202301, 47.6161385]}}, {"type": "Feature", "properties": {"id": "cb17f522-13b1-433f-9f69-dd9201abc116", "name": "SemiColon Cafe Bellevue", "category": "cafe", "tags": ["cafe"], "sources": ["overture"], "website": "http://semicolonbellevue.com/", "phone": "+14252235932", "address": "10451 NE 2nd St", "stations": [{"stopCode": 57, "lines": "2", "name": "East Main Station", "walkingMeters": 1110, "walkingSeconds": 798, "band": 15}, {"stopCode": 58, "lines": "2", "name": "Bellevue Downtown Station", "walkingMeters": 1171, "walkingSeconds": 842, "band": 15}]}, "geometry": {"type": "Point", "coordinates": [-122.2008438, 47.6119461]}}, {"type": "Feature", "properties": {"id": "a40569be-3860-4500-85e0-bcaca21af8d6", "name": "Pin Hsiao & Associates L.L.C.", "category": "restaurant", "tags": ["restaurant", "gluten-free", "gluten", "free"], "sources": ["overture"], "website": "http://www.antoninasbakery.com/", "phone": "2068180155", "address": "138 105th Ave NE", "stations": [{"stopCode": 57, "lines": "2", "name": "East Main Station", "walkingMeters": 975, "walkingSeconds": 701, "band": 15}, {"stopCode": 58, "lines": "2", "name": "Bellevue Downtown Station", "walkingMeters": 1202, "walkingSeconds": 865, "band": 15}]}, "geometry": {"type": "Point", "coordinates": [-122.2000504, 47.6110649]}}, {"type": "Feature", "properties": {"id": "fb71c80c-0935-4ac5-9893-4d26d3d14046", "name": "The Route 50", "category": "pub", "tags": ["pub"], "sources": ["overture"], "address": "11-8 Route 50", "stations": [{"stopCode": 57, "lines": "2", "name": "East Main Station", "walkingMeters": 1036, "walkingSeconds": 750, "band": 15}, {"stopCode": 58, "lines": "2", "name": "Bellevue Downtown Station", "walkingMeters": 1337, "walkingSeconds": 962, "band": 15}]}, "geometry": {"type": "Point", "coordinates": [-122.2012329, 47.6107788]}}, {"type": "Feature", "properties": {"id": "965b77c1-ff61-4911-a3af-0abac7b4f351", "name": "Araya's Vegetarian Place", "category": "restaurant", "tags": ["restaurant", "thai"], "sources": ["overture"], "website": "http://www.arayasplace.com", "phone": "(206) 402-6634", "address": "2808 E Madison St", "stations": [{"stopCode": 57, "lines": "2", "name": "East Main Station", "walkingMeters": 1078, "walkingSeconds": 780, "band": 15}, {"stopCode": 58, "lines": "2", "name": "Bellevue Downtown Station", "walkingMeters": 1347, "walkingSeconds": 968, "band": 15}]}, "geometry": {"type": "Point", "coordinates": [-122.2018051, 47.6109467]}}, {"type": "Feature", "properties": {"id": "258f44e5-1848-47c7-89a2-6942fee032b4", "name": "Old Mediterranean Kitchen", "category": "restaurant", "tags": ["restaurant", "mediterranean", "european"], "sources": ["overture"], "website": "http://www.mediterraneankitchens.net/", "phone": "+14254629422", "address": "103 Bellevue Way NE", "stations": [{"stopCode": 57, "lines": "2", "name": "East Main Station", "walkingMeters": 1122, "walkingSeconds": 812, "band": 15}, {"stopCode": 58, "lines": "2", "name": "Bellevue Downtown Station", "walkingMeters": 1297, "walkingSeconds": 932, "band": 15}]}, "geometry": {"type": "Point", "coordinates": [-122.201683, 47.6113777]}}, {"type": "Feature", "properties": {"id": "65d25b87-6221-4d35-ba38-a443d088c330", "name": "Byblos Deli", "category": "fast_food", "tags": ["fast-food", "fast", "food"], "sources": ["overture"], "website": "http://www.byblosdeli.com", "phone": "(425) 455-4355", "address": "102 Bellevue Way NE Ste B", "stations": [{"stopCode": 57, "lines": "2", "name": "East Main Station", "walkingMeters": 1098, "walkingSeconds": 790, "band": 15}, {"stopCode": 58, "lines": "2", "name": "Bellevue Downtown Station", "walkingMeters": 1376, "walkingSeconds": 990, "band": 15}]}, "geometry": {"type": "Point", "coordinates": [-122.2011795, 47.611393]}}, {"type": "Feature", "properties": {"id": "72ee26cc-6dbc-4d03-af5f-41fa404e7c4c", "name": "Sugar N Flakes", "category": "bakery", "tags": ["bakery"], "sources": ["overture"], "website": "http://www.sugarnflakes.com", "phone": "(206) 330-7277", "address": "227 Bellevue Way NE", "stations": [{"stopCode": 58, "lines": "2", "name": "Bellevue Downtown Station", "walkingMeters": 1314, "walkingSeconds": 947, "band": 15}]}, "geometry": {"type": "Point", "coordinates": [-122.2020798, 47.6127167]}}, {"type": "Feature", "properties": {"id": "cf76cf8f-3e12-49e4-8e08-6274a1ecd2b1", "name": "Santouka Bellevue WA", "category": "restaurant", "tags": ["restaurant", "japanese"], "sources": ["overture"], "website": "http://www.santouka-usa.com/", "address": "103 Bellevue Way NE", "stations": [{"stopCode": 57, "lines": "2", "name": "East Main Station", "walkingMeters": 1152, "walkingSeconds": 834, "band": 15}, {"stopCode": 58, "lines": "2", "name": "Bellevue Downtown Station", "walkingMeters": 1345, "walkingSeconds": 967, "band": 15}]}, "geometry": {"type": "Point", "coordinates": [-122.2020874, 47.6114044]}}, {"type": "Feature", "properties": {"id": "7575d727-3466-41f1-9ebf-67176e54014e", "name": "Peony Kitchen Bellevue", "category": "restaurant", "tags": ["restaurant", "chinese"], "sources": ["overture"], "website": "http://www.peonykitchen.com/", "phone": "+14255027652", "address": "10317 Main St", "stations": [{"stopCode": 57, "lines": "2", "name": "East Main Station", "walkingMeters": 1088, "walkingSeconds": 782, "band": 15}]}, "geometry": {"type": "Point", "coordinates": [-122.2028046, 47.6100578]}}, {"type": "Feature", "properties": {"id": "88003725-e0ad-46e9-8700-82fe5d020b80", "name": "Monsoon Bellevue", "category": "restaurant", "tags": ["restaurant", "vietnamese", "asian"], "sources": ["overture"], "website": "http://www.monsoonrestaurants.com/", "phone": "+14256351112", "address": "10245 Main St", "stations": [{"stopCode": 57, "lines": "2", "name": "East Main Station", "walkingMeters": 1109, "walkingSeconds": 797, "band": 15}]}, "geometry": {"type": "Point", "coordinates": [-122.2030792, 47.6101112]}}, {"type": "Feature", "properties": {"id": "905e1777-b00a-4ab0-bea7-783e167ded19", "name": "eatdrinkmonsoon", "category": "restaurant", "tags": ["restaurant", "asian"], "sources": ["overture"], "website": "https://monsoonrestaurants.com/", "address": "10245 Main St", "stations": [{"stopCode": 57, "lines": "2", "name": "East Main Station", "walkingMeters": 1106, "walkingSeconds": 795, "band": 15}]}, "geometry": {"type": "Point", "coordinates": [-122.2030334, 47.6100998]}}, {"type": "Feature", "properties": {"id": "c584c524-b413-4da5-bac4-51dce5e278f8", "name": "Matcha Magic Bellevue", "category": "cafe", "tags": ["cafe"], "sources": ["overture"], "website": "http://www.itsmatchamagic.com", "phone": "+14254531029", "address": "10246 Main St", "stations": [{"stopCode": 57, "lines": "2", "name": "East Main Station", "walkingMeters": 1131, "walkingSeconds": 817, "band": 15}]}, "geometry": {"type": "Point", "coordinates": [-122.2033005, 47.6102333]}}, {"type": "Feature", "properties": {"id": "b44b6bcd-cd53-448d-bfcd-de0c20f0424c", "name": "Red Ribbon Gourmet", "category": "restaurant", "tags": ["restaurant"], "sources": ["overture"], "website": "http://www.redribbongourmet.com", "phone": "(425) 462-2500", "address": "14 102nd Ave NE Ste 2"}, "geometry": {"type": "Point", "coordinates": [-122.2039108, 47.6106567]}}, {"type": "Feature", "properties": {"id": "ff4cc487-a2d2-4397-9eb5-f96441a52636", "name": "Porcella Urban Market", "category": "restaurant", "tags": ["restaurant"], "sources": ["overture"], "website": "http://porcellaurbanmarket.com/", "phone": "(425) 286-0800", "address": "10245 Main St", "stations": [{"stopCode": 57, "lines": "2", "name": "East Main Station", "walkingMeters": 1144, "walkingSeconds": 826, "band": 15}]}, "geometry": {"type": "Point", "coordinates": [-122.2035751, 47.6101875]}}, {"type": "Feature", "properties": {"id": "68a82898-f8a7-4550-b52e-fafea5600d79", "name": "Childs Play Cafe", "category": "cafe", "tags": ["cafe", "coffee"], "sources": ["overture"], "website": "http://childsplaycafe.com/", "phone": "(425) 453-6151", "address": "10235 Main St", "stations": [{"stopCode": 57, "lines": "2", "name": "East Main Station", "walkingMeters": 1165, "walkingSeconds": 841, "band": 15}]}, "geometry": {"type": "Point", "coordinates": [-122.2038498, 47.6101646]}}, {"type": "Feature", "properties": {"id": "961c9037-5129-4fb1-a932-9463a31c51db", "name": "Rouge Cocktail Lounge", "category": "bar", "tags": ["bar", "cocktail"], "sources": ["overture"], "website": "http://rougebellevue.com", "phone": "(425) 454-8455", "address": "10204 Main St", "stations": [{"stopCode": 57, "lines": "2", "name": "East Main Station", "walkingMeters": 1169, "walkingSeconds": 844, "band": 15}]}, "geometry": {"type": "Point", "coordinates": [-122.203804, 47.6102905]}}, {"type": "Feature", "properties": {"id": "9f717883-745d-436b-a499-879c1e8c1d07", "name": "Adrian\u2019s Restaurant and Tequila Bar", "category": "restaurant", "tags": ["restaurant", "mexican"], "sources": ["overture"], "website": "https://www.adriansrestaurantbellevue.com", "phone": "(425) 453-4124", "address": "10145 Main St Bellevue, King County 98004 USA"}, "geometry": {"type": "Point", "coordinates": [-122.2043533, 47.6100578]}}, {"type": "Feature", "properties": {"id": "7885527b-00b9-4e08-b72c-6762eec642ed", "name": "520 Bar & Grill", "category": "restaurant", "tags": ["restaurant", "american", "bar-and-grill"], "sources": ["overture"], "website": "http://www.520barandgrill.com/", "phone": "+14254500520", "address": "10146 Main St"}, "geometry": {"type": "Point", "coordinates": [-122.2043228, 47.6103096]}}, {"type": "Feature", "properties": {"id": "bac4c349-e955-4100-80c1-0e6d35b6de1e", "name": "KuKuRuZa Gourmet Popcorn", "category": "restaurant", "tags": ["restaurant", "american"], "sources": ["overture"], "website": "http://www.kukuruza.com", "phone": "(425) 451-8084", "address": "2033 Bellevue Sq", "stations": [{"stopCode": 58, "lines": "2", "name": "Bellevue Downtown Station", "walkingMeters": 1123, "walkingSeconds": 809, "band": 15}]}, "geometry": {"type": "Point", "coordinates": [-122.2035065, 47.6149483]}}, {"type": "Feature", "properties": {"id": "ce310b5a-e3a2-4ee7-88db-4e81c84cfd60", "name": "Marketplace Caf\u00e9 at Nordstrom", "category": "cafe", "tags": ["cafe"], "sources": ["overture"], "website": "http://shop.nordstrom.com/", "phone": "+14256465006", "address": "100 Bellevue Sq", "stations": [{"stopCode": 58, "lines": "2", "name": "Bellevue Downtown Station", "walkingMeters": 1389, "walkingSeconds": 999, "band": 15}]}, "geometry": {"type": "Point", "coordinates": [-122.2039261, 47.615406]}}, {"type": "Feature", "properties": {"id": "5016889e-ef7b-4c4a-80d5-035356fd4b40", "name": "The Dining District", "category": "restaurant", "tags": ["restaurant", "asian", "japanese"], "sources": ["overture"], "website": "https://bellevuecollection.com/dining/", "address": "575 Bellevue Sq", "stations": [{"stopCode": 58, "lines": "2", "name": "Bellevue Downtown Station", "walkingMeters": 1268, "walkingSeconds": 913, "band": 15}]}, "geometry": {"type": "Point", "coordinates": [-122.20401, 47.6169128]}}, {"type": "Feature", "properties": {"id": "9d1babd2-8191-4f88-abdc-e5f65ce0c62a", "name": "Nordstrom Grill", "category": "restaurant", "tags": ["restaurant", "bar-and-grill", "american"], "sources": ["overture"], "website": "https://www.nordstrom.com/store-details/united-states/wa/bellevue/nordstrom-bellevue-square", "phone": "+14256465600", "address": "100 Bellevue Sq", "stations": [{"stopCode": 58, "lines": "2", "name": "Bellevue Downtown Station", "walkingMeters": 1260, "walkingSeconds": 907, "band": 15}]}, "geometry": {"type": "Point", "coordinates": [-122.2037354, 47.6170158]}}, {"type": "Feature", "properties": {"id": "05866393-8c64-46f8-996a-c2365b8539b1", "name": "Bellevue 303", "category": "fast_food", "tags": ["fast-food", "fast", "food"], "sources": ["overture"], "phone": "+14254540191", "address": "10214 NE 8th St", "stations": [{"stopCode": 58, "lines": "2", "name": "Bellevue Downtown Station", "walkingMeters": 1282, "walkingSeconds": 927, "band": 15}]}, "geometry": {"type": "Point", "coordinates": [-122.2038879, 47.6176987]}}, {"type": "Feature", "properties": {"id": "66dcf026-eb3f-40c2-a6bb-1e83520165da", "name": "Moghul Palace India Cuisine", "category": "restaurant", "tags": ["restaurant", "indian"], "sources": ["overture"], "website": "http://moghulpalace.net/", "phone": "(425) 451-1909", "address": "10301 NE 10th St"}, "geometry": {"type": "Point", "coordinates": [-122.2029114, 47.6190681]}}, {"type": "Feature", "properties": {"id": "6d30f44c-a866-4990-bd28-bbda19b13a23", "name": "Bird Pepper Thai Kitchen", "category": "restaurant", "tags": ["restaurant", "thai"], "sources": ["overture"], "website": "http://thaikitchenbirdpepper.com", "phone": "(425) 454-7334", "address": "563 Bellevue Sq", "stations": [{"stopCode": 58, "lines": "2", "name": "Bellevue Downtown Station", "walkingMeters": 1178, "walkingSeconds": 848, "band": 15}]}, "geometry": {"type": "Point", "coordinates": [-122.2028885, 47.617157]}}, {"type": "Feature", "properties": {"id": "e5877054-7507-4088-8ec1-0f11d1fe7d40", "name": "P.F. Chang's China Bistro", "category": "restaurant", "tags": ["restaurant", "chinese"], "sources": ["overture"], "website": "https://www.pfchangs.com/locations/us/wa/bellevue/525-bellevue-square/3700-bellevue.html", "phone": "(425) 637-3582", "address": "525 Bellevue Sq", "stations": [{"stopCode": 58, "lines": "2", "name": "Bellevue Downtown Station", "walkingMeters": 1078, "walkingSeconds": 777, "band": 15}]}, "geometry": {"type": "Point", "coordinates": [-122.2020493, 47.616787]}}, {"type": "Feature", "properties": {"id": "846736ba-2260-41e1-a16e-8a4c753b5438", "name": "Z'Tejas", "category": "restaurant", "tags": ["restaurant", "mexican"], "sources": ["overture"], "website": "http://ztejas.com/", "phone": "(425) 467-5911", "address": "535 Bellevue Sq", "stations": [{"stopCode": 58, "lines": "2", "name": "Bellevue Downtown Station", "walkingMeters": 1079, "walkingSeconds": 777, "band": 15}]}, "geometry": {"type": "Point", "coordinates": [-122.2020416, 47.6167946]}}, {"type": "Feature", "properties": {"id": "db5845e6-5f7a-4581-b201-2d956cf02a24", "name": "The Lodge", "category": "restaurant", "tags": ["restaurant"], "sources": ["overture"], "website": "http://thelodgesportsgrille.com", "phone": "+14254548096", "address": "523 Bellevue Way NE", "stations": [{"stopCode": 58, "lines": "2", "name": "Bellevue Downtown Station", "walkingMeters": 1096, "walkingSeconds": 789, "band": 15}]}, "geometry": {"type": "Point", "coordinates": [-122.2019196, 47.6169319]}}, {"type": "Feature", "properties": {"id": "36d6fa97-304d-49f6-a9a4-e1df87a95750", "name": "Black Bottle Bellevue", "category": "restaurant", "tags": ["restaurant", "pub"], "sources": ["overture"], "website": "http://blackbottlebellevue.com/", "phone": "+14252235143", "address": "919 Bellevue Way NE", "stations": [{"stopCode": 58, "lines": "2", "name": "Bellevue Downtown Station", "walkingMeters": 1231, "walkingSeconds": 886, "band": 15}]}, "geometry": {"type": "Point", "coordinates": [-122.2019806, 47.6184616]}}, {"type": "Feature", "properties": {"id": "2f188eef-f305-4b92-939f-b76763315b1d", "name": "Black Bottle Postern", "category": "bar", "tags": ["bar"], "sources": ["overture"], "website": "http://www.blackbottlebellevue.com/", "phone": "4252235143", "address": "919 Bellevue Way NE", "stations": [{"stopCode": 58, "lines": "2", "name": "Bellevue Downtown Station", "walkingMeters": 1249, "walkingSeconds": 900, "band": 15}]}, "geometry": {"type": "Point", "coordinates": [-122.2019043, 47.6186981]}}, {"type": "Feature", "properties": {"id": "98586ab4-62dc-4081-af01-4a05c0df0780", "name": "Font\u00e9 Caf\u00e9", "category": "cafe", "tags": ["cafe", "coffee"], "sources": ["overture"], "website": "http://www.fontecoffee.com/", "phone": "+14254293862", "address": "900 Bellevue Way NE", "stations": [{"stopCode": 58, "lines": "2", "name": "Bellevue Downtown Station", "walkingMeters": 1117, "walkingSeconds": 805, "band": 15}]}, "geometry": {"type": "Point", "coordinates": [-122.2010117, 47.6182594]}}, {"type": "Feature", "properties": {"id": "671908d7-716e-4c99-96d1-362a6d55295a", "name": "STIR Martini + Raw Bar", "category": "restaurant", "tags": ["restaurant", "sushi"], "sources": ["overture"], "website": "http://www.stirmartinibar.com", "phone": "(425) 646-7847", "address": "10500 NE 8th Street", "stations": [{"stopCode": 58, "lines": "2", "name": "Bellevue Downtown Station", "walkingMeters": 1092, "walkingSeconds": 787, "band": 15}]}, "geometry": {"type": "Point", "coordinates": [-122.201088, 47.6178856]}}, {"type": "Feature", "properties": {"id": "a16ab02e-7f87-4bc6-9483-ff106c5722ae", "name": "Joeys Restaurant-Bellevue Place", "category": "restaurant", "tags": ["restaurant", "american", "fast-food"], "sources": ["overture"], "website": "http://www.joeysmedgrill.com/", "phone": "+14256371177", "address": "800 Bellevue Way NE", "stations": [{"stopCode": 58, "lines": "2", "name": "Bellevue Downtown Station", "walkingMeters": 1076, "walkingSeconds": 776, "band": 15}]}, "geometry": {"type": "Point", "coordinates": [-122.2012634, 47.6176682]}}, {"type": "Feature", "properties": {"id": "8a9e2c1a-7efe-488e-8bba-4cacc3b9a6d2", "name": "JOEY Bellevue", "category": "restaurant", "tags": ["restaurant", "bar-and-grill"], "sources": ["overture"], "website": "https://joeyrestaurants.com/location/joey-bellevue", "phone": "+14256371177", "address": "800 Bellevue Way NE", "stations": [{"stopCode": 58, "lines": "2", "name": "Bellevue Downtown Station", "walkingMeters": 1100, "walkingSeconds": 793, "band": 15}]}, "geometry": {"type": "Point", "coordinates": [-122.2012787, 47.6177101]}}, {"type": "Feature", "properties": {"id": "49d8b199-edcc-4b11-b9ff-c36543f04bf8", "name": "Whisk 425", "category": "restaurant", "tags": ["restaurant"], "sources": ["overture"], "phone": "4254621234", "address": "900 Bellevue Way NE", "stations": [{"stopCode": 58, "lines": "2", "name": "Bellevue Downtown Station", "walkingMeters": 1170, "walkingSeconds": 843, "band": 15}]}, "geometry": {"type": "Point", "coordinates": [-122.2016602, 47.6182747]}}, {"type": "Feature", "properties": {"id": "fae3ef3f-47e5-4616-8f34-e2fdb38d8d10", "name": "Wild Ginger Bellevue", "category": "bar", "tags": ["bar", "wine", "asian", "thai"], "sources": ["overture"], "website": "http://www.wildginger.net/", "phone": "4254958889", "address": "508 Bellevue Way NE", "stations": [{"stopCode": 58, "lines": "2", "name": "Bellevue Downtown Station", "walkingMeters": 1126, "walkingSeconds": 811, "band": 15}]}, "geometry": {"type": "Point", "coordinates": [-122.2015533, 47.617836]}}, {"type": "Feature", "properties": {"id": "4daa31b8-f40b-4ea4-a96c-70163ee5a1e3", "name": "Wild Ginger Bellevue", "category": "restaurant", "tags": ["restaurant", "asian"], "sources": ["overture"], "website": "http://www.wildginger.net/", "phone": "+14254958889", "address": "508 Bellevue Way NE", "stations": [{"stopCode": 58, "lines": "2", "name": "Bellevue Downtown Station", "walkingMeters": 985, "walkingSeconds": 710, "band": 10}]}, "geometry": {"type": "Point", "coordinates": [-122.2014236, 47.614994]}}, {"type": "Feature", "properties": {"id": "79be3732-c80b-4085-b8a9-f819730867f2", "name": "Vivo 53", "category": "restaurant", "tags": ["restaurant", "pizza"], "sources": ["overture"], "phone": "4252749165", "address": "504 Bellevue Sq", "stations": [{"stopCode": 58, "lines": "2", "name": "Bellevue Downtown Station", "walkingMeters": 1086, "walkingSeconds": 785, "band": 15}]}, "geometry": {"type": "Point", "coordinates": [-122.201828, 47.6169815]}}, {"type": "Feature", "properties": {"id": "3f6d6875-fb8e-496a-b965-da31d4005d66", "name": "Water Grill", "category": "restaurant", "tags": ["restaurant", "seafood", "bar-and-grill"], "sources": ["overture"], "website": "https://www.watergrill.com/", "phone": "+14257992800", "address": "700 Bellevue Way NE", "stations": [{"stopCode": 58, "lines": "2", "name": "Bellevue Downtown Station", "walkingMeters": 1061, "walkingSeconds": 764, "band": 15}]}, "geometry": {"type": "Point", "coordinates": [-122.2014923, 47.6168594]}}, {"type": "Feature", "properties": {"id": "9a52ff3d-c8de-41f6-af70-49ebadf234df", "name": "McCormick & Schmick's Seafood & Steaks", "category": "restaurant", "tags": ["restaurant", "seafood"], "sources": ["overture"], "website": "http://www.mccormickandschmicks.com/locations/seattle-washington/bellevue-washington/bellevuewayne.aspx?utm_campaign=Yext&utm_source=Yext&utm_medium=Website&utm_content=MSBE", "phone": "4254542606", "address": "700 Bellevue Way NE Ste 115", "stations": [{"stopCode": 58, "lines": "2", "name": "Bellevue Downtown Station", "walkingMeters": 1074, "walkingSeconds": 774, "band": 15}]}, "geometry": {"type": "Point", "coordinates": [-122.2013702, 47.6169777]}}, {"type": "Feature", "properties": {"id": "d0ee5ff9-b2de-4c7d-9dde-e800346b42ee", "name": "Maggiano's Little Italy", "category": "bar", "tags": ["bar", "restaurant", "italian"], "sources": ["overture"], "website": "https://locations.maggianos.com/washington/bellevue/10455-ne-8th-st./?utm_source=moz&utm_medium=organic&utm_campaign=localmaps", "phone": "4255196476", "address": "10455 NE 8th St", "stations": [{"stopCode": 58, "lines": "2", "name": "Bellevue Downtown Station", "walkingMeters": 1061, "walkingSeconds": 764, "band": 15}]}, "geometry": {"type": "Point", "coordinates": [-122.2013626, 47.6173286]}}, {"type": "Feature", "properties": {"id": "420c06a2-3372-4ff2-b731-68b92c799611", "name": "The Parlor Billiards & Spirits", "category": "bar", "tags": ["bar", "sports"], "sources": ["overture"], "website": "http://www.parlorbilliards.com", "phone": "(425) 289-7000", "address": "700 Bellevue Way NE Ste 300", "stations": [{"stopCode": 58, "lines": "2", "name": "Bellevue Downtown Station", "walkingMeters": 1069, "walkingSeconds": 770, "band": 15}]}, "geometry": {"type": "Point", "coordinates": [-122.2011719, 47.6169395]}}, {"type": "Feature", "properties": {"id": "dc59347d-958c-4e26-8d6c-8722018e1482", "name": "Cypress Lounge and Wine Bar", "category": "bar", "tags": ["bar", "wine"], "sources": ["overture"], "website": "http://www.westinbellevuehotel.com/cypress-bellevue", "phone": "+14256381000", "address": "600 Bellevue Way NE", "stations": [{"stopCode": 58, "lines": "2", "name": "Bellevue Downtown Station", "walkingMeters": 948, "walkingSeconds": 683, "band": 10}]}, "geometry": {"type": "Point", "coordinates": [-122.2010651, 47.616024]}}, {"type": "Feature", "properties": {"id": "7a4e58ae-7217-4c88-9400-5e50158d8ae9", "name": "Baron's Sino Kitchen and Bar", "category": "restaurant", "tags": ["restaurant", "chinese", "asian"], "sources": ["overture"], "website": "http://www.baronsbellevue.com", "phone": "+14255008888", "address": "500 Bellevue Way NE", "stations": [{"stopCode": 58, "lines": "2", "name": "Bellevue Downtown Station", "walkingMeters": 941, "walkingSeconds": 678, "band": 10}]}, "geometry": {"type": "Point", "coordinates": [-122.2010498, 47.6150703]}}, {"type": "Feature", "properties": {"id": "25448ab4-0a07-45ab-a1cb-efe614e195a8", "name": "The Lakehouse", "category": "restaurant", "tags": ["restaurant", "american"], "sources": ["overture"], "website": "http://thelakehousebellevue.com", "phone": "(425) 454-7076", "address": "10455 NE 5th Pl", "stations": [{"stopCode": 58, "lines": "2", "name": "Bellevue Downtown Station", "walkingMeters": 952, "walkingSeconds": 686, "band": 10}]}, "geometry": {"type": "Point", "coordinates": [-122.2012024, 47.6149673]}}, {"type": "Feature", "properties": {"id": "7e5f2d4d-4495-49b2-8e91-22a600cbbc4c", "name": "Civility & Unrest", "category": "bar", "tags": ["bar", "cocktail"], "sources": ["overture"], "website": "http://www.civilityandunrest", "phone": "(425) 454-7076", "address": "10455 NE 5th Pl", "stations": [{"stopCode": 58, "lines": "2", "name": "Bellevue Downtown Station", "walkingMeters": 984, "walkingSeconds": 709, "band": 10}]}, "geometry": {"type": "Point", "coordinates": [-122.2013245, 47.6150017]}}, {"type": "Feature", "properties": {"id": "b9f598f1-1e88-4c8f-a307-55f21e0401cc", "name": "Palomino Rustico", "category": "restaurant", "tags": ["restaurant", "italian"], "sources": ["overture"], "website": "http://www.palomino.com", "phone": "(425) 455-7600", "address": "610 Bellevue Way NE", "stations": [{"stopCode": 58, "lines": "2", "name": "Bellevue Downtown Station", "walkingMeters": 937, "walkingSeconds": 675, "band": 15}]}, "geometry": {"type": "Point", "coordinates": [-122.2015305, 47.615757]}}, {"type": "Feature", "properties": {"id": "ca43d91a-f643-4c46-9f29-118b6c9fccc2", "name": "Taylor Shellfish Farms", "category": "restaurant", "tags": ["restaurant", "seafood", "live-and-raw-food"], "sources": ["overture"], "website": "https://www.taylorshellfishfarms.com", "phone": "+14254403875", "address": "504 Bellevue Way NE", "stations": [{"stopCode": 58, "lines": "2", "name": "Bellevue Downtown Station", "walkingMeters": 996, "walkingSeconds": 718, "band": 10}]}, "geometry": {"type": "Point", "coordinates": [-122.201416, 47.6148949]}}, {"type": "Feature", "properties": {"id": "8ec931ef-313e-4449-864d-4d126893e0cf", "name": "Earls Kitchen + Bar", "category": "bar", "tags": ["bar", "cocktail", "international"], "sources": ["overture"], "website": "https://www.earls.ca/locations/bellevue", "phone": "4254523275", "address": "700 Bellevue Way NE, 130", "stations": [{"stopCode": 58, "lines": "2", "name": "Bellevue Downtown Station", "walkingMeters": 1006, "walkingSeconds": 725, "band": 15}]}, "geometry": {"type": "Point", "coordinates": [-122.2015457, 47.6163597]}}, {"type": "Feature", "properties": {"id": "a009726b-8418-40b9-99ba-64137439ab2c", "name": "Legion Sports Bar", "category": "restaurant", "tags": ["restaurant"], "sources": ["overture"], "website": "https://legionsportsbar.com/", "phone": "4255027425", "address": "700 Bellevue Way NE Ste 50", "stations": [{"stopCode": 58, "lines": "2", "name": "Bellevue Downtown Station", "walkingMeters": 1042, "walkingSeconds": 751, "band": 15}]}, "geometry": {"type": "Point", "coordinates": [-122.2016525, 47.6166306]}}, {"type": "Feature", "properties": {"id": "a60e656a-22d1-4ee9-8b63-537f92dd18ff", "name": "Legion Sports Bar", "category": "bar", "tags": ["bar", "sports", "american"], "sources": ["overture"], "phone": "+14255027425", "address": "700 Bellevue Way NE", "stations": [{"stopCode": 58, "lines": "2", "name": "Bellevue Downtown Station", "walkingMeters": 922, "walkingSeconds": 664, "band": 10}]}, "geometry": {"type": "Point", "coordinates": [-122.2007217, 47.6161308]}}, {"type": "Feature", "properties": {"id": "7941234b-4a85-4a30-8f5d-1ffd3c872ec3", "name": "Munchbar", "category": "restaurant", "tags": ["restaurant", "american"], "sources": ["overture"], "website": "http://www.munchgroup.com/bellevue/", "phone": "(425) 454-6862", "address": "505 Bellevue Sq", "stations": [{"stopCode": 58, "lines": "2", "name": "Bellevue Downtown Station", "walkingMeters": 1032, "walkingSeconds": 744, "band": 15}]}, "geometry": {"type": "Point", "coordinates": [-122.2016678, 47.616539]}}, {"type": "Feature", "properties": {"id": "906b2701-0467-4c15-b98c-ec542ffae908", "name": "Pearl Seafood & Oyster Bar", "category": "bar", "tags": ["bar", "seafood"], "sources": ["overture"], "website": "https://pearlbellevue.com/", "phone": "4254550181", "address": "700 Bellevue Way NE Ste 50", "stations": [{"stopCode": 58, "lines": "2", "name": "Bellevue Downtown Station", "walkingMeters": 1027, "walkingSeconds": 740, "band": 15}]}, "geometry": {"type": "Point", "coordinates": [-122.2016907, 47.6164932]}}, {"type": "Feature", "properties": {"id": "910f2bc1-aa04-4d65-bc3b-c07bfe3858f8", "name": "Trader Vic's", "category": "bar", "tags": ["bar"], "sources": ["overture"], "website": "http://www.tradervicsbellevue.com/", "phone": "(425) 455-4483", "address": "700 Bellevue Way NE", "stations": [{"stopCode": 58, "lines": "2", "name": "Bellevue Downtown Station", "walkingMeters": 1046, "walkingSeconds": 753, "band": 15}]}, "geometry": {"type": "Point", "coordinates": [-122.2020035, 47.6164932]}}, {"type": "Feature", "properties": {"id": "44595052-3c1d-4d2c-a821-1ee723e119c7", "name": "Moksha Indian Cuisine of Bellevue", "category": "restaurant", "tags": ["restaurant", "indian"], "sources": ["overture"], "website": "http://spiceroutecuisine.com/moksha/cuisine/", "phone": "(425) 427-5787", "address": "515 Bellevue Way Northeast", "stations": [{"stopCode": 58, "lines": "2", "name": "Bellevue Downtown Station", "walkingMeters": 1042, "walkingSeconds": 750, "band": 15}]}, "geometry": {"type": "Point", "coordinates": [-122.202034, 47.6164589]}}, {"type": "Feature", "properties": {"id": "8261d190-bdfb-4865-b717-e5df416fa94e", "name": "Shake Shack Bellevue Square", "category": "restaurant", "tags": ["restaurant", "burger", "american"], "sources": ["overture"], "website": "https://shakeshack.com/location/bellevue-square-wa?utm_source=listing&utm_medium=listing", "phone": "+14254721182", "address": "503 Bellevue Sq", "stations": [{"stopCode": 58, "lines": "2", "name": "Bellevue Downtown Station", "walkingMeters": 1030, "walkingSeconds": 742, "band": 15}]}, "geometry": {"type": "Point", "coordinates": [-122.2019806, 47.6163368]}}, {"type": "Feature", "properties": {"id": "8fa6824d-7962-4ac8-aea4-ff8d47343739", "name": "Ristorante Luciano", "category": "restaurant", "tags": ["restaurant", "italian"], "sources": ["overture"], "website": "http://www.ristoranteluciano.com", "phone": "(425) 283-5877", "address": "515 Bellevue Sq Ste A", "stations": [{"stopCode": 58, "lines": "2", "name": "Bellevue Downtown Station", "walkingMeters": 1028, "walkingSeconds": 741, "band": 15}]}, "geometry": {"type": "Point", "coordinates": [-122.2021332, 47.6161728]}}, {"type": "Feature", "properties": {"id": "4d846667-290f-4695-963d-765d74e00a16", "name": "Cantina Monarca", "category": "restaurant", "tags": ["restaurant", "mexican"], "sources": ["overture"], "website": "http://cantinamonarca.com/", "phone": "+14255317206", "address": "504 Bellevue Way NE", "stations": [{"stopCode": 58, "lines": "2", "name": "Bellevue Downtown Station", "walkingMeters": 1009, "walkingSeconds": 727, "band": 10}]}, "geometry": {"type": "Point", "coordinates": [-122.2014236, 47.6147804]}}, {"type": "Feature", "properties": {"id": "a480465b-053e-4d4a-b3f8-9cb717be0453", "name": "Lincoln South Food Hall", "category": "fast_food", "tags": ["fast-food", "food", "court", "restaurant"], "sources": ["overture"], "website": "https://www.lincolnsfh.com/", "phone": "4253626082", "address": "500 Bellevue Way NE Floor 2", "stations": [{"stopCode": 58, "lines": "2", "name": "Bellevue Downtown Station", "walkingMeters": 1026, "walkingSeconds": 739, "band": 10}]}, "geometry": {"type": "Point", "coordinates": [-122.2011948, 47.6146889]}}, {"type": "Feature", "properties": {"id": "8debb91a-6852-4ee8-a3df-bae7715bec4b", "name": "Crosta", "category": "fast_food", "tags": ["fast-food", "fast", "food"], "sources": ["overture"], "website": "https://www.lincolnsfh.com/restaurant/crosta/", "phone": "(425) 362-6082", "address": "500 Bellevue Way NE St, Fl 2", "stations": [{"stopCode": 58, "lines": "2", "name": "Bellevue Downtown Station", "walkingMeters": 1026, "walkingSeconds": 739, "band": 10}]}, "geometry": {"type": "Point", "coordinates": [-122.2011642, 47.6147003]}}, {"type": "Feature", "properties": {"id": "614b6020-3822-4879-aab8-cb9e383f4b29", "name": "Burger Brawler", "category": "bar", "tags": ["bar", "beer", "burger"], "sources": ["overture"], "website": "https://www.lincolnsfh.com/burger-brawler", "phone": "4253626082", "address": "500 Bellevue Way NE Floor 2", "stations": [{"stopCode": 58, "lines": "2", "name": "Bellevue Downtown Station", "walkingMeters": 1026, "walkingSeconds": 739, "band": 10}]}, "geometry": {"type": "Point", "coordinates": [-122.2010345, 47.6145477]}},