{"type": "FeatureCollection", "features": [{"type": "Feature", "properties": {"id": 546158451, "name": "Matt Hirvela Bicentennial Park", "category": "park", "tags": ["park"], "sources": ["osm", "overture"], "website": "http://www.cityofmlt.com/Facilities/Facility/Details/Matt-HirvelaBicentennial-Park-3", "phone": "+14257769173", "address": "4105 222nd St SW"}, "geometry": {"type": "Point", "coordinates": [-122.2877615, 47.7984077]}}, {"type": "Feature", "properties": {"id": 546168342, "name": "Firefighters Memorial Park", "category": "park", "tags": ["park"], "sources": ["osm", "overture"], "website": "http://www.cityofmlt.com/cityServices/parks/ffPark.htm", "phone": "+12066842489", "address": "3900 228th St SW"}, "geometry": {"type": "Point", "coordinates": [-122.2865949, 47.7913025]}}, {"type": "Feature", "properties": {"id": 5278240801, "name": "Ace Hardware", "category": "doityourself", "tags": ["doityourself", "hardware"], "sources": ["osm", "overture"], "website": "http://www.acehardware.com/mystore/index.jsp?store=15648", "phone": "+14257762117", "address": "22803 44th Ave W", "hours": "Mo-Fr 08:00-20:00; Sa 08:00-19:00; Su 09:00-18:00"}, "geometry": {"type": "Point", "coordinates": [-122.2899674, 47.7911433]}}, {"type": "Feature", "properties": {"id": 5278240802, "name": "Zakk's Smoke Shop", "category": "tobacco", "tags": ["tobacco"], "sources": ["osm"]}, "geometry": {"type": "Point", "coordinates": [-122.2899004, 47.7914226]}}, {"type": "Feature", "properties": {"id": 5278240806, "name": "Pet Adventure", "category": "pet", "tags": ["pet"], "sources": ["osm", "overture"], "website": "https://pet-adventure.com/", "phone": "+14257710676", "address": "22803 44th Ave W"}, "geometry": {"type": "Point", "coordinates": [-122.2899084, 47.7915739]}}, {"type": "Feature", "properties": {"id": "6708417b-c833-45ab-bc17-ad0dd55c2727", "name": "Bob's Fresh Coat Painting", "category": "doityourself", "tags": ["doityourself", "building", "supply"], "sources": ["overture"], "website": "http://www.bobsfreshcoatpainting.com", "phone": "(425) 361-0506", "address": "3398 224TH PL SW"}, "geometry": {"type": "Point", "coordinates": [-122.2804565, 47.7939796]}}]}