{"type": "FeatureCollection", "features": [{"type": "Feature", "properties": {"id": "19ed0a92-e4d6-4517-b3f6-07eeb8186d7f", "name": "Princess and Bear Wines", "category": "bar", "tags": ["bar", "wine"], "sources": ["overture"], "website": "https://www.theprincessandthebear.com/", "phone": "+12063234757", "address": "309 S Cloverdale St"}, "geometry": {"type": "Point", "coordinates": [-122.3299408, 47.526123]}}, {"type": "Feature", "properties": {"id": "02ac7f88-3f08-4cfd-aca5-555b3fe25b62", "name": "Little Jaye", "category": "bakery", "tags": ["bakery"], "sources": ["overture"], "website": "http://www.littlejaye.com/", "phone": "+12065882083", "address": "309 S Cloverdale St"}, "geometry": {"type": "Point", "coordinates": [-122.3295975, 47.5260773]}}, {"type": "Feature", "properties": {"id": "690ca752-a7b8-494f-b5da-e72a812e7b5d", "name": "Tin Dog Brewing, LLC", "category": "bar", "tags": ["bar", "brewery"], "sources": ["overture"], "website": "http://tindogbrewing.com/", "phone": "2063029994", "address": "309 S Cloverdale St Ste A2"}, "geometry": {"type": "Point", "coordinates": [-122.3293152, 47.5256462]}}, {"type": "Feature", "properties": {"id": 3211765140, "name": "South Park Lights", "category": "artwork", "tags": ["artwork"], "sources": ["osm"], "address": "8604 8th Avenue South"}, "geometry": {"type": "Point", "coordinates": [-122.322817, 47.526267]}}, {"type": "Feature", "properties": {"id": 3211765142, "name": "The Unified Playing Field Theory", "category": "artwork", "tags": ["artwork"], "sources": ["osm"], "address": "8319 8th Avenue South"}, "geometry": {"type": "Point", "coordinates": [-122.32305, 47.528167]}}, {"type": "Feature", "properties": {"id": 50622242, "name": "South Park Playground", "category": "park", "tags": ["park", "playground"], "sources": ["osm", "overture"], "website": "http://seattle.gov/parks/park_detail.asp?ID=467", "phone": "+12066844075", "address": "738 S Sullivan St"}, "geometry": {"type": "Point", "coordinates": [-122.3241816, 47.5279849]}}, {"type": "Feature", "properties": {"id": 57850379, "name": "Marra-Desimone Park", "category": "park", "tags": ["park"], "sources": ["osm"], "website": "https://www.seattle.gov/parks/allparks/marra-desimone-park"}, "geometry": {"type": "Point", "coordinates": [-122.3277397, 47.5215763]}}, {"type": "Feature", "properties": {"id": "8a1ec5db-5a8d-4f38-aa4b-a3cd3cae6cee", "name": "Marra-Desimone Park", "category": "park", "tags": ["park"], "sources": ["overture"], "website": "http://seattle.gov/parks/park_detail.asp?ID=4447", "phone": "+12066844075", "address": "9026 4th Ave S"}, "geometry": {"type": "Point", "coordinates": [-122.3288574, 47.5215645]}}, {"type": "Feature", "properties": {"id": 66649038, "name": "South Park Meadow", "category": "park", "tags": ["park"], "sources": ["osm", "overture"], "website": "http://seattle.gov/parks/park_detail.asp?ID=4048", "phone": "(206) 233-1509", "address": "9100 8th Ave. S"}, "geometry": {"type": "Point", "coordinates": [-122.3236411, 47.5208101]}}, {"type": "Feature", "properties": {"id": "bd16ae3c-0df5-4055-adbd-32fb33112a59", "name": "South Park, Seattle, Washington", "category": "park", "tags": ["park"], "sources": ["overture"]}, "geometry": {"type": "Point", "coordinates": [-122.3270264, 47.526535]}}, {"type": "Feature", "properties": {"id": "dcec038c-a55e-45c4-b5fe-d77e71f3c66e", "name": "South Park Cloverdale Skate Park", "category": "park", "tags": ["park"], "sources": ["overture"], "website": "http://www.northwestskater.com/rivercity.html", "phone": "+12067622337", "address": "736 S Cloverdale St"}, "geometry": {"type": "Point", "coordinates": [-122.3234024, 47.5267067]}}, {"type": "Feature", "properties": {"id": "836d88bd-1f42-45df-a6eb-95b287e609f3", "name": "Phil's Custom Bindery", "category": "books", "tags": ["books"], "sources": ["overture"], "website": "http://www.philscustombindery.com", "phone": "(206) 728-1541", "address": "309 S Cloverdale St Ste A12"}, "geometry": {"type": "Point", "coordinates": [-122.3297806, 47.525692]}}, {"type": "Feature", "properties": {"id": 37058770, "name": "The Seattle Public Library - South Park Branch", "category": "library", "tags": ["library", "wifi"], "sources": ["osm"], "website": "https://www.spl.org/hours-and-locations/south-park-branch", "phone": "+1-206-615-1688", "address": "8604 8th Avenue South", "hours": "Mo-Tu 13:00-20:00; We-Sa 11:00-18:00; Su 13:00-17:00"}, "geometry": {"type": "Point", "coordinates": [-122.3225794, 47.5262606]}}, {"type": "Feature", "properties": {"id": "71ae138b-3ef6-4eab-bae7-a9da1157bebb", "name": "South Park Branch", "category": "library", "tags": ["library"], "sources": ["overture"], "website": "http://www.spl.org/locations/south-park-branch", "phone": "+12066151688", "address": "8604 8th Ave S"}, "geometry": {"type": "Point", "coordinates": [-122.3227692, 47.5262527]}}, {"type": "Feature", "properties": {"id": "5e7838a8-2465-4d61-a5b0-6377ba1831eb", "name": "Seattle Public Library - South Park", "category": "library", "tags": ["library"], "sources": ["overture"], "website": "http://www.spl.org", "phone": "(206) 615-1688", "address": "8604 8th Ave S"}, "geometry": {"type": "Point", "coordinates": [-122.3225708, 47.5263023]}}]}