{"type": "FeatureCollection", "features": [{"type": "Feature", "properties": {"id": 6253192364, "name": "Bang Bang Kitchen", "category": "restaurant", "tags": ["restaurant", "american", "outdoor-seating", "indoor-seating", "vegetarian", "mexican", "texmex"], "sources": ["osm", "overture"], "website": "http://www.bangbangkitchenseattle.com/", "phone": "+12064203146", "address": "4219 S Othello St", "hours": "Su-Th 16:00-23:00; Fr-Sa 16:00-24:00", "stations": [{"stopCode": 60, "lines": "1", "name": "Othello Station", "walkingMeters": 227, "walkingSeconds": 164, "band": 5}]}, "geometry": {"type": "Point", "coordinates": [-122.2796621, 47.5369227]}}, {"type": "Feature", "properties": {"id": 10096746112, "name": "Ursah & Sabah", "category": "restaurant", "tags": ["restaurant"], "sources": ["osm"], "stations": [{"stopCode": 60, "lines": "1", "name": "Othello Station", "walkingMeters": 1324, "walkingSeconds": 952, "band": 15}]}, "geometry": {"type": "Point", "coordinates": [-122.2703327, 47.532846]}}, {"type": "Feature", "properties": {"id": 228303420, "name": "Zest Fast Food", "category": "restaurant", "tags": ["restaurant", "burger", "american", "fish-and-chips", "takeaway", "fast-food", "fast", "food"], "sources": ["osm", "overture"], "website": "http://zestosseattle.goodbistros.com", "phone": "+12067256850", "address": "7111 Rainier Ave S", "stations": [{"stopCode": 60, "lines": "1", "name": "Othello Station", "walkingMeters": 987, "walkingSeconds": 708, "band": 15}]}, "geometry": {"type": "Point", "coordinates": [-122.2710084, 47.5387767]}}, {"type": "Feature", "properties": {"id": "20725779-e394-4e08-a5ce-208489485fa3", "name": "Blue Nile Ethiopian Restaurant", "category": "restaurant", "tags": ["restaurant", "ethiopian"], "sources": ["overture"], "website": "http://www.ethiopianrestaurant.com/washington/bluenile.html", "phone": "+12063208501", "address": "7821 Rainier Ave S"}, "geometry": {"type": "Point", "coordinates": [-122.2703171, 47.5319595]}}, {"type": "Feature", "properties": {"id": "ac311782-3e25-4a21-b3a0-ef43df0ec70f", "name": "Taqueria Tehuacan", "category": "restaurant", "tags": ["restaurant", "mexican", "taco"], "sources": ["overture"], "phone": "+12065396234", "address": "7219 Rainier Ave S", "stations": [{"stopCode": 60, "lines": "1", "name": "Othello Station", "walkingMeters": 1001, "walkingSeconds": 719, "band": 15}]}, "geometry": {"type": "Point", "coordinates": [-122.2709427, 47.5377693]}}, {"type": "Feature", "properties": {"id": "4989879e-82a6-4dc2-af1a-fc62faa8b732", "name": "Yusra & Sabah Restaurant", "category": "restaurant", "tags": ["restaurant", "middle-eastern", "middle", "eastern", "halal"], "sources": ["overture"], "website": "https://yusraandsabahrestaurant.com", "phone": "+12067233820", "address": "7729 Rainier Ave S", "stations": [{"stopCode": 60, "lines": "1", "name": "Othello Station", "walkingMeters": 1332, "walkingSeconds": 958, "band": 15}]}, "geometry": {"type": "Point", "coordinates": [-122.2702103, 47.5329323]}}, {"type": "Feature", "properties": {"id": 56176610, "name": "Othello Playground", "category": "park", "tags": ["park"], "sources": ["osm", "overture"], "website": "http://www.seattle.gov/parks/park_detail.asp?ID=403", "phone": "+12066844075", "address": "4351 S Othello St", "hours": "Mo-Su 06:00-22:00", "stations": [{"stopCode": 60, "lines": "1", "name": "Othello Station", "walkingMeters": 456, "walkingSeconds": 328, "band": 5}]}, "geometry": {"type": "Point", "coordinates": [-122.2780661, 47.5361441]}}, {"type": "Feature", "properties": {"id": "befdeafa-00d0-499b-a149-eb04b5db2f3b", "name": "Othello Playground", "category": "playground", "tags": ["playground"], "sources": ["overture"], "address": "4351 S Othello St", "stations": [{"stopCode": 60, "lines": "1", "name": "Othello Station", "walkingMeters": 478, "walkingSeconds": 344, "band": 10}]}, "geometry": {"type": "Point", "coordinates": [-122.2770157, 47.5363503]}}, {"type": "Feature", "properties": {"id": "dca9aa2e-7b0e-4d12-b63b-b7f171bacb07", "name": "Stan Sayres Memorial Park", "category": "park", "tags": ["park"], "sources": ["overture"]}, "geometry": {"type": "Point", "coordinates": [-122.2705231, 47.5305405]}}, {"type": "Feature", "properties": {"id": "717c4447-27a2-49d5-af5c-7ff298b90aae", "name": "Atlantic City Park Seattle", "category": "park", "tags": ["park"], "sources": ["overture"], "address": "Atlantic City Park Seattle"}, "geometry": {"type": "Point", "coordinates": [-122.2705917, 47.5306091]}}, {"type": "Feature", "properties": {"id": 228303474, "name": "Food Mart", "category": "convenience", "tags": ["convenience"], "sources": ["osm"], "stations": [{"stopCode": 60, "lines": "1", "name": "Othello Station", "walkingMeters": 1016, "walkingSeconds": 730, "band": 15}]}, "geometry": {"type": "Point", "coordinates": [-122.2709737, 47.5379104]}}, {"type": "Feature", "properties": {"id": "97aee4d5-6983-4e5c-8c38-78d8afc1b0e8", "name": "Metro by T-Mobile", "category": "mobile_phone", "tags": ["mobile-phone", "mobile"], "sources": ["overture"], "website": "http://www.metrobytmobile.com", "phone": "(206) 420-7331", "address": "7909 Rainier Ave S # B"}, "geometry": {"type": "Point", "coordinates": [-122.2703934, 47.5312538]}}, {"type": "Feature", "properties": {"id": 10096746113, "name": "1st Union Store", "category": "convenience", "tags": ["convenience"], "sources": ["osm"], "stations": [{"stopCode": 60, "lines": "1", "name": "Othello Station", "walkingMeters": 1318, "walkingSeconds": 948, "band": 15}]}, "geometry": {"type": "Point", "coordinates": [-122.2702545, 47.5327684]}}, {"type": "Feature", "properties": {"id": 10096746115, "name": "Seattle Cannabis Co.", "category": "cannabis", "tags": ["cannabis", "clinic"], "sources": ["osm", "overture"], "website": "http://www.seattlecannabis.co/", "phone": "+12064201042", "address": "7266 Rainier Ave S", "stations": [{"stopCode": 60, "lines": "1", "name": "Othello Station", "walkingMeters": 947, "walkingSeconds": 680, "band": 15}]}, "geometry": {"type": "Point", "coordinates": [-122.2700657, 47.5371577]}}, {"type": "Feature", "properties": {"id": 228304708, "name": "Food Shop", "category": "convenience", "tags": ["convenience"], "sources": ["osm"], "address": "7301 Rainier Avenue South", "stations": [{"stopCode": 60, "lines": "1", "name": "Othello Station", "walkingMeters": 917, "walkingSeconds": 659, "band": 10}]}, "geometry": {"type": "Point", "coordinates": [-122.270792, 47.536706]}}, {"type": "Feature", "properties": {"id": "9df83e0c-b95c-4bd1-9bdd-d3d49d0e90b5", "name": "Artisan Hardwood Floors", "category": "doityourself", "tags": ["doityourself", "building", "supply"], "sources": ["overture"], "website": "https://www.artisanhardwoodfloors.com", "phone": "(206) 933-1703", "address": "7012 44th Ave S", "stations": [{"stopCode": 60, "lines": "1", "name": "Othello Station", "walkingMeters": 610, "walkingSeconds": 438, "band": 10}]}, "geometry": {"type": "Point", "coordinates": [-122.2778015, 47.5394135]}}]}