{"type": "FeatureCollection", "features": [{"type": "Feature", "properties": {"id": 228320090, "name": "Pizzeria Pulcinella", "category": "restaurant", "tags": ["restaurant", "pizza", "outdoor-seating", "indoor-seating", "wheelchair-accessible", "vegetarian", "italian"], "sources": ["osm", "overture"], "website": "http://www.vincesrestaurants.com", "phone": "+12067726861", "address": "10003 Rainier Ave S", "hours": "Mo-Th 15:30-21:00; Fr 15:30-22:00; Sa 12:00-22:00; Su 12:00-21:00"}, "geometry": {"type": "Point", "coordinates": [-122.2481448, 47.5111388]}}, {"type": "Feature", "properties": {"id": 56395176, "name": "Lakeridge Playfield", "category": "park", "tags": ["park"], "sources": ["osm"], "website": "https://www.seattle.gov/parks/allparks/lakeridge-playfield"}, "geometry": {"type": "Point", "coordinates": [-122.2467635, 47.5104257]}}, {"type": "Feature", "properties": {"id": "c47b8c7b-3904-4b91-ba31-986231b041ca", "name": "Lakeridge Park", "category": "park", "tags": ["park"], "sources": ["overture"], "website": "http://www.seattle.gov/parks/park_detail.asp?ID=411", "phone": "+12066844075", "address": "10201 Holyoke Way S"}, "geometry": {"type": "Point", "coordinates": [-122.2463226, 47.5105743]}}, {"type": "Feature", "properties": {"id": 294624242, "name": "72nd Avenue South Street End", "category": "park", "tags": ["park"], "sources": ["osm"]}, "geometry": {"type": "Point", "coordinates": [-122.2438128, 47.5115698]}}, {"type": "Feature", "properties": {"id": 315560735, "name": "Garden Taft", "category": "garden", "tags": ["garden"], "sources": ["osm"], "website": "https://gardentaft.yolasite.com/", "address": "7233 South Taft Street"}, "geometry": {"type": "Point", "coordinates": [-122.2423056, 47.5103031]}}, {"type": "Feature", "properties": {"id": "a8baaaa2-ea70-4384-bb3b-7ae947cf9125", "name": "Lakeridge Playground", "category": "playground", "tags": ["playground"], "sources": ["overture"], "website": "http://seattle.gov/parks/park_detail.asp?ID=3972", "address": "10145 Rainier Ave. S"}, "geometry": {"type": "Point", "coordinates": [-122.2447891, 47.5107956]}}]}