{"type": "FeatureCollection", "features": [{"type": "Feature", "properties": {"id": 1297521123, "name": "Boathouse Deli", "category": "cafe", "tags": ["cafe", "sandwich", "deli", "delicatessen", "fast-food"], "sources": ["osm", "overture"], "website": "http://boatelectriccoinc.com?mkt=65901", "phone": "+12062835042", "address": "1818 Westlake Ave N"}, "geometry": {"type": "Point", "coordinates": [-122.3398693, 47.6353957]}}, {"type": "Feature", "properties": {"id": "8b87d067-d380-464d-a339-39b988009a82", "name": "Seattle Harbor Restaurant", "category": "restaurant", "tags": ["restaurant", "chinese"], "sources": ["overture"], "website": "http://www.chinaharborseattle.com", "phone": "(206) 286-1688", "address": "2040 Westlake Ave N"}, "geometry": {"type": "Point", "coordinates": [-122.3398438, 47.6373749]}}, {"type": "Feature", "properties": {"id": "9edc3aa5-5960-41cc-8e74-387fcf4446ab", "name": "Lake Union", "category": "park", "tags": ["park"], "sources": ["overture"], "website": "http://www.seattle.gov/parks/find/parks/lake-union-park"}, "geometry": {"type": "Point", "coordinates": [-122.3332825, 47.6396255]}}, {"type": "Feature", "properties": {"id": "58c09786-019c-41c2-a1e6-44ecd9976997", "name": "Inroads Ireland Tours", "category": "hotel", "tags": ["hotel"], "sources": ["overture"], "website": "http://inroadsireland.com", "phone": "(608) 554-2221", "address": "1700 Westlake Ave N, Ste 200"}, "geometry": {"type": "Point", "coordinates": [-122.339798, 47.6343918]}}, {"type": "Feature", "properties": {"id": 5080397421, "name": "Seattle Scuba", "category": "outdoor", "tags": ["outdoor"], "sources": ["osm"]}, "geometry": {"type": "Point", "coordinates": [-122.3399758, 47.6368107]}}, {"type": "Feature", "properties": {"id": "c2826e0c-61a0-4caa-b546-e9580867b8b6", "name": "Marina Mart", "category": "convenience", "tags": ["convenience"], "sources": ["overture"], "website": "https://www.marinamart.com", "phone": "+12062683300", "address": "1530 Westlake Ave N"}, "geometry": {"type": "Point", "coordinates": [-122.3399582, 47.6332932]}}, {"type": "Feature", "properties": {"id": 12333978840, "name": "Neuroveda Health", "category": "clinic", "tags": ["clinic"], "sources": ["osm"], "website": "https://www.neurovedahealth.com/", "phone": "+1-206-379-1213", "address": "1700 Westlake Avenue North", "hours": "Mo-Th 09:00-17:00"}, "geometry": {"type": "Point", "coordinates": [-122.339748, 47.63449]}}, {"type": "Feature", "properties": {"id": "fe57500d-a4c5-48e6-b799-5f1b416ca1fa", "name": "Rain City Integrative Clinic", "category": "clinic", "tags": ["clinic", "medical"], "sources": ["overture"], "website": "http://www.raincityintegrative.com/", "phone": "2063529000", "address": "1818 Westlake Ave N Ste 308"}, "geometry": {"type": "Point", "coordinates": [-122.3398361, 47.6353416]}}, {"type": "Feature", "properties": {"id": 2415568557, "name": "Energy Fitness & Wellness", "category": "fitness_centre", "tags": ["fitness-centre", "fitness", "gym"], "sources": ["osm", "overture"], "website": "http://www.energyfitandwell.com", "phone": "(206) 499-5050", "address": "2040 Westlake Ave N"}, "geometry": {"type": "Point", "coordinates": [-122.3397723, 47.6374914]}}, {"type": "Feature", "properties": {"id": 2415568558, "name": "Lake Union Swim Academy", "category": "swimming_pool", "tags": ["swimming-pool", "swimming"], "sources": ["osm"], "website": "https://www.lakeunionswimacademy.com", "address": "2040 Westlake Avenue North"}, "geometry": {"type": "Point", "coordinates": [-122.3397371, 47.637316]}}]}