{"type": "FeatureCollection", "features": [{"type": "Feature", "properties": {"id": 622275928, "name": "Starbucks", "category": "cafe", "tags": ["cafe", "coffee-shop", "outdoor-seating", "takeaway", "drive-through", "wifi", "coffee"], "sources": ["osm", "overture"], "website": "https://www.starbucks.com/store-locator/store/1009833/", "phone": "+12065566354", "address": "901 SW 148th St", "hours": "Mo-Fr 04:00-23:00; Sa-Su 04:30-23:00"}, "geometry": {"type": "Point", "coordinates": [-122.346373, 47.4701958]}}, {"type": "Feature", "properties": {"id": 5658983799, "name": "Little Caesars", "category": "fast_food", "tags": ["fast-food", "pizza", "takeaway"], "sources": ["osm"], "website": "https://littlecaesars.com/en-us/store/7934/"}, "geometry": {"type": "Point", "coordinates": [-122.3465395, 47.4740154]}}, {"type": "Feature", "properties": {"id": 5658983800, "name": "Eat Time", "category": "restaurant", "tags": ["restaurant", "asian", "chinese"], "sources": ["osm", "overture"], "website": "https://eat-time-restaurant.business.site", "phone": "+12062412679", "address": "14400 Ambaum Blvd SW"}, "geometry": {"type": "Point", "coordinates": [-122.3465365, 47.47392]}}, {"type": "Feature", "properties": {"id": 5658983802, "name": "Los Tacos Nacos", "category": "restaurant", "tags": ["restaurant", "mexican"], "sources": ["osm"]}, "geometry": {"type": "Point", "coordinates": [-122.3465306, 47.4737293]}}, {"type": "Feature", "properties": {"id": 5658983925, "name": "Hans' Sausage & Delicatessen", "category": "restaurant", "tags": ["restaurant", "german"], "sources": ["osm"]}, "geometry": {"type": "Point", "coordinates": [-122.343758, 47.4701953]}}, {"type": "Feature", "properties": {"id": 11757582522, "name": "Might y Mugs Coffee", "category": "cafe", "tags": ["cafe"], "sources": ["osm"]}, "geometry": {"type": "Point", "coordinates": [-122.3470596, 47.473896]}}, {"type": "Feature", "properties": {"id": 626827925, "name": "DQ Grill & Chill", "category": "fast_food", "tags": ["fast-food", "ice-cream", "burger", "takeaway", "drive-through"], "sources": ["osm"], "website": "https://www.dairyqueen.com/locations/wa/burien/14310-ambaum-blvd-sw/2312", "phone": "+1-206-242-9974", "address": "14310 Ambaum Boulevard Southwest"}, "geometry": {"type": "Point", "coordinates": [-122.3469282, 47.4743232]}}, {"type": "Feature", "properties": {"id": 622275923, "name": "El Cabrito", "category": "restaurant", "tags": ["restaurant", "mexican", "latin-american"], "sources": ["osm", "overture"], "website": "http://www.elcabritorestaurant.com/723469.html", "phone": "+12068495449", "address": "14631 Ambaum Blvd SW", "hours": "Mo-Th 11:00-20:30; Fr,Sa 11:00-21:00"}, "geometry": {"type": "Point", "coordinates": [-122.3473229, 47.4711839]}}, {"type": "Feature", "properties": {"id": 626827928, "name": "El Pique Peruvian Restaurant", "category": "restaurant", "tags": ["restaurant", "peruvian"], "sources": ["osm"], "website": "http://elpiquerestaurant.com", "phone": "+1-206-243-8260", "address": "14445 Ambaum Boulevard Southwest", "hours": "Su-Sa 11:00-02:00"}, "geometry": {"type": "Point", "coordinates": [-122.3475495, 47.472696]}}, {"type": "Feature", "properties": {"id": 626827931, "name": "Huckleberry Square", "category": "restaurant", "tags": ["restaurant", "american"], "sources": ["osm", "overture"], "website": "http://www.huckleberrysquare.com/", "phone": "+12062467006", "address": "14423 Ambaum Blvd SW"}, "geometry": {"type": "Point", "coordinates": [-122.3477754, 47.4733993]}}, {"type": "Feature", "properties": {"id": 626827933, "name": "Happy Garden Chinese Restaurant", "category": "fast_food", "tags": ["fast-food", "chinese", "restaurant", "asian"], "sources": ["osm", "overture"], "website": "http://happygardenchineserestaurant.com", "phone": "+12062423400", "address": "14301 Ambaum Blvd SW"}, "geometry": {"type": "Point", "coordinates": [-122.3477679, 47.4744021]}}, {"type": "Feature", "properties": {"id": "04724f17-4e84-4404-8059-9bfee0ec3129", "name": "Lucy's Kitchen", "category": "restaurant", "tags": ["restaurant", "chinese"], "sources": ["overture"], "website": "http://www.seattlelucyskitchen.com/", "phone": "+12062412679", "address": "14400 Ambaum Blvd SW"}, "geometry": {"type": "Point", "coordinates": [-122.3463516, 47.4737282]}}, {"type": "Feature", "properties": {"id": "912af9e9-35dc-408f-9abe-772433756422", "name": "Little Caesars Pizza", "category": "restaurant", "tags": ["restaurant", "pizza", "fast-food"], "sources": ["overture"], "website": "https://littlecaesars.com/en-us/store/7934", "phone": "+12062442108", "address": "14400 Ambaum Blvd SW"}, "geometry": {"type": "Point", "coordinates": [-122.3465729, 47.4739838]}}, {"type": "Feature", "properties": {"id": "4f5967ff-7e1b-456e-bf29-30ca3468554a", "name": "Tacos El Hass", "category": "restaurant", "tags": ["restaurant", "mexican", "taco"], "sources": ["overture"], "website": "https://www.tacoselhassseattle.com", "phone": "+12064534534", "address": "14400 Ambaum Blvd SW"}, "geometry": {"type": "Point", "coordinates": [-122.3465652, 47.473774]}}, {"type": "Feature", "properties": {"id": "46e16efd-dd68-466c-b5c6-efdd6d0dbbea", "name": "La Cocina Salvamex", "category": "restaurant", "tags": ["restaurant", "mexican", "texmex"], "sources": ["overture"], "phone": "+12064534534", "address": "14400 Ambaum Blvd SW"}, "geometry": {"type": "Point", "coordinates": [-122.3464432, 47.4735527]}}, {"type": "Feature", "properties": {"id": "78beb92a-4b1f-4b41-8d62-55a734677dbb", "name": "Dairy Queen Grill and Chill", "category": "fast_food", "tags": ["fast-food", "fast", "food", "american"], "sources": ["overture"], "website": "https://www.dairyqueen.com/en-us/locations/wa/burien/14310-ambaum-blvd-sw/2312/?utm_source=organic&utm_campaign=yext%2F&y_source=1_ODk5NjA3Ni01NTktbG9jYXRpb24ud2Vic2l0ZQ%3D%3D", "phone": "+12062429974", "address": "14310 Ambaum Blvd SW"}, "geometry": {"type": "Point", "coordinates": [-122.3469467, 47.4742355]}}, {"type": "Feature", "properties": {"id": "e88bfa28-2629-4157-8f5a-83ccb3a705fa", "name": "Szechuan Kitchen", "category": "restaurant", "tags": ["restaurant"], "sources": ["overture"], "phone": "2062412679", "address": "14400 Ambaum Blvd SW"}, "geometry": {"type": "Point", "coordinates": [-122.3473358, 47.4738503]}}, {"type": "Feature", "properties": {"id": "c89e4ff8-77b2-428a-ab5d-e8758d14c527", "name": "El Pique", "category": "restaurant", "tags": ["restaurant", "peruvian", "mexican", "latin-american"], "sources": ["overture"], "website": "https://www.elpiquedeburien.com/", "phone": "+12062438260", "address": "14445 Ambaum Blvd SW"}, "geometry": {"type": "Point", "coordinates": [-122.3475647, 47.4725151]}}, {"type": "Feature", "properties": {"id": "f3060d87-5345-4061-a6a2-257f76175554", "name": "El Pique Peruvian & Mexican Restaurant", "category": "restaurant", "tags": ["restaurant", "mexican", "peruvian", "soup"], "sources": ["overture"], "website": "http://elpiquerestaurant.com/home.php", "phone": "2062438260", "address": "14445 Ambaum Blvd SW"}, "geometry": {"type": "Point", "coordinates": [-122.3475876, 47.4726868]}}, {"type": "Feature", "properties": {"id": "0a96bc16-910c-497e-89d1-dbec4e362793", "name": "Skippers - Seafood and Chowder", "category": "cafe", "tags": ["cafe", "coffee"], "sources": ["overture"], "website": "http://www.skippers.com/", "phone": "(206) 248-5339", "address": "901 SW 148th St"}, "geometry": {"type": "Point", "coordinates": [-122.3463364, 47.4702225]}}, {"type": "Feature", "properties": {"id": "5ce56851-32b5-4cc9-b6a6-77ce519dd224", "name": "Sidestreet Kitchen & Bar", "category": "bar", "tags": ["bar", "american"], "sources": ["overture"], "website": "http://sidestreetkitchen.com/", "phone": "+12064025428", "address": "717 SW 148th St"}, "geometry": {"type": "Point", "coordinates": [-122.3439865, 47.4702606]}}, {"type": "Feature", "properties": {"id": "9905c20b-0de5-4d7c-a7ed-d8ba7b9ce283", "name": "Alcove at Seahurst", "category": "attraction", "tags": ["attraction", "landmark", "historical", "building"], "sources": ["overture"], "website": "https://www.harborgroupmanagement.com/apartments/wa/burien/alcove-at-seahurst?utm_knock=fb", "phone": "+12532719962", "address": "14001 Ambaum Blvd SW"}, "geometry": {"type": "Point", "coordinates": [-122.3482208, 47.478096]}}, {"type": "Feature", "properties": {"id": 25791590, "name": "Dottie Harper Park", "category": "park", "tags": ["park"], "sources": ["osm", "overture"], "website": "http://www.burienwa.gov/index.aspx?NID=401", "phone": "+12069883700", "address": "421 SW 146th St"}, "geometry": {"type": "Point", "coordinates": [-122.3402456, 47.4713807]}}, {"type": "Feature", "properties": {"id": 166419201, "name": "Linde Hill Park", "category": "park", "tags": ["park"], "sources": ["osm"], "address": "651 Southwest 141st Street"}, "geometry": {"type": "Point", "coordinates": [-122.3440629, 47.4768547]}}, {"type": "Feature", "properties": {"id": 166422596, "name": "The Annex", "category": "park", "tags": ["park"], "sources": ["osm"], "address": "425 Southwest 144th Street"}, "geometry": {"type": "Point", "coordinates": [-122.3400896, 47.4731842]}}, {"type": "Feature", "properties": {"id": 1157565921, "name": "Burien Community Garden", "category": "garden", "tags": ["garden"], "sources": ["osm"]}, "geometry": {"type": "Point", "coordinates": [-122.3407299, 47.473883]}}, {"type": "Feature", "properties": {"id": "919cc67e-23a9-4685-9ed0-12645691c9da", "name": "Burien Parks & Recreation Department", "category": "park", "tags": ["park"], "sources": ["overture"], "website": "http://www.burienparks.net", "phone": "(206) 988-3700", "address": "14700 6th Ave SW Ste 300"}, "geometry": {"type": "Point", "coordinates": [-122.3412933, 47.4709663]}}, {"type": "Feature", "properties": {"id": "f7fd6d8f-72eb-4f12-9f4c-080a510f8f92", "name": "Burien Skate Park", "category": "park", "tags": ["park"], "sources": ["overture"], "website": "http://www.burienparks.net", "phone": "+12069883700", "address": "14700 6th Ave SW"}, "geometry": {"type": "Point", "coordinates": [-122.3413925, 47.4709587]}}, {"type": "Feature", "properties": {"id": 5658983808, "name": "Metro by T-Mobile", "category": "mobile_phone", "tags": ["mobile-phone", "mobile"], "sources": ["osm", "overture"], "website": "https://www.metrobyt-mobile.com/stores/bd/metro-by-t-mobile-burien-wa-10204496/?utm_source=facebook&utm_medium=lastmile&utm_campaign=35579", "phone": "+12064662665", "address": "14400 Ambaum Blvd SW"}, "geometry": {"type": "Point", "coordinates": [-122.346875, 47.4734283]}}, {"type": "Feature", "properties": {"id": 557237729, "name": "Ace Hardware", "category": "doityourself", "tags": ["doityourself", "hardware"], "sources": ["osm", "overture"], "website": "http://www.acehardware.com/store-details/14405", "phone": "+12062428700", "address": "14903 4th Ave SW", "hours": "Mo-Sa 07:00-20:00; Su 08:00-19:00"}, "geometry": {"type": "Point", "coordinates": [-122.3412011, 47.4701621]}}, {"type": "Feature", "properties": {"id": 5658983807, "name": "Tobacco Mart", "category": "tobacco", "tags": ["tobacco"], "sources": ["osm", "overture"], "phone": "+12062480148", "address": "14400 Ambaum Blvd SW"}, "geometry": {"type": "Point", "coordinates": [-122.3467724, 47.4734304]}}, {"type": "Feature", "properties": {"id": 5658983822, "name": "Ancient Comics", "category": "books", "tags": ["books", "toys"], "sources": ["osm", "overture"], "website": "https://ancient-comics.business.site/", "phone": "(206) 243-2002", "address": "14439 Ambaum Blvd SW", "hours": "Mo-Fr 10:00-20:00; Sa-Su 10:00-19:00"}, "geometry": {"type": "Point", "coordinates": [-122.34755, 47.4729037]}}, {"type": "Feature", "properties": {"id": 5658983824, "name": "Competitive Edge Athletics", "category": "sports", "tags": ["sports", "clothes"], "sources": ["osm", "overture"], "website": "http://competitiveedgeathleticsburien.com", "phone": "(206) 246-7211", "address": "14443 Ambaum Blvd SW"}, "geometry": {"type": "Point", "coordinates": [-122.347543, 47.4728369]}}, {"type": "Feature", "properties": {"id": 622275925, "name": "Don Miguel Western Boots", "category": "shoes", "tags": ["shoes"], "sources": ["osm"], "website": "https://www.donmiguelwesternboots.com/", "phone": "+1-206-687-7116", "address": "14611 Ambaum Boulevard Southwest", "hours": "Su closed; Mo-Sa 10:00-19:00"}, "geometry": {"type": "Point", "coordinates": [-122.3473805, 47.4717602]}}, {"type": "Feature", "properties": {"id": "992b9b4f-f6da-43df-ad3f-ab52e8bf2e8b", "name": "BricksR4Kids", "category": "toys", "tags": ["toys"], "sources": ["overture"], "website": "http://www.bricksr4kids.com", "phone": "(206) 693-3992", "address": "14400 Ambaum Blvd SW"}, "geometry": {"type": "Point", "coordinates": [-122.3464203, 47.4736214]}}, {"type": "Feature", "properties": {"id": "618db877-8adc-4ebd-a103-fb3675fb8108", "name": "Islanders Market and Deli", "category": "deli", "tags": ["deli", "delicatessen"], "sources": ["overture"], "website": "http://www.islandersmarketanddeli.com", "phone": "+12062422793", "address": "14631 Ambaum Blvd SW"}, "geometry": {"type": "Point", "coordinates": [-122.34729, 47.4711838]}}, {"type": "Feature", "properties": {"id": "23f895b6-c795-4544-b016-7d58751bdb9c", "name": "Hans German Sausage and Deli", "category": "deli", "tags": ["deli", "delicatessen"], "sources": ["overture"], "website": "http://hanssausage.com", "phone": "+12062444978", "address": "717 SW 148th St"}, "geometry": {"type": "Point", "coordinates": [-122.3440323, 47.4702568]}}, {"type": "Feature", "properties": {"id": 8301322342, "name": "Walgreens", "category": "pharmacy", "tags": ["pharmacy"], "sources": ["osm"], "hours": "Mo-Fr 09:00-13:00,13:30-21:00; Sa 09:00-13:00,13:00-18:00; Su 10:00-13:00,13:30-18:00"}, "geometry": {"type": "Point", "coordinates": [-122.3461812, 47.4708584]}}, {"type": "Feature", "properties": {"id": 626827923, "name": "Sea Mar Community Health Center", "category": "clinic", "tags": ["clinic"], "sources": ["osm"], "address": "14434 Ambaum Boulevard Southwest"}, "geometry": {"type": "Point", "coordinates": [-122.3466552, 47.4729161]}}, {"type": "Feature", "properties": {"id": "b1ec58ab-5214-4133-b23b-215724218bc0", "name": "Walgreens Pharmacy", "category": "pharmacy", "tags": ["pharmacy"], "sources": ["overture"], "website": "https://www.walgreens.com", "phone": "+12069011816", "address": "14656 Ambaum Blvd SW"}, "geometry": {"type": "Point", "coordinates": [-122.3463898, 47.4707832]}}, {"type": "Feature", "properties": {"id": 622275921, "name": "Sound Credit Union", "category": "bank", "tags": ["bank", "drive-through"], "sources": ["osm"], "website": "https://www.soundcu.com/", "phone": "+1-253-383-2016", "address": "14647 Ambaum Boulevard Southwest", "hours": "Su closed; Mo-Fr 09:00-18:00; Sa 09:00-13:00"}, "geometry": {"type": "Point", "coordinates": [-122.3474317, 47.4707281]}}, {"type": "Feature", "properties": {"id": 5658983837, "name": "ProFitness", "category": "fitness_centre", "tags": ["fitness-centre", "gym"], "sources": ["osm", "overture"], "website": "http://www.profitnessclubs.com/", "phone": "2062483800", "address": "14635 9th Ave SW", "hours": "24/7"}, "geometry": {"type": "Point", "coordinates": [-122.346, 47.4713665]}}, {"type": "Feature", "properties": {"id": 6374551686, "name": "Reconnect Fitness", "category": "fitness_centre", "tags": ["fitness-centre"], "sources": ["osm"]}, "geometry": {"type": "Point", "coordinates": [-122.3436813, 47.4702012]}}, {"type": "Feature", "properties": {"id": "270a1066-32d3-4cb9-9c3b-772c4200a2e0", "name": "206 Fitness", "category": "fitness_centre", "tags": ["fitness-centre", "gym"], "sources": ["overture"], "website": "https://206fitnessclub.com/", "phone": "+12063851015", "address": "14635 9th Ave SW"}, "geometry": {"type": "Point", "coordinates": [-122.3461914, 47.4713478]}}, {"type": "Feature", "properties": {"id": "61c42ed6-2d32-40a6-9dd0-b53d7bc5daa7", "name": "7pmfitness Studio", "category": "fitness_centre", "tags": ["fitness-centre", "gym"], "sources": ["overture"], "website": "https://7pmfitnessstudioburien.com", "phone": "(206) 539-0936", "address": "15811 Ambaum Blvd SW # 110"}, "geometry": {"type": "Point", "coordinates": [-122.3470459, 47.470417]}}]}