{"type": "FeatureCollection", "features": [{"type": "Feature", "properties": {"id": 6339150076, "name": "Pho BT", "category": "restaurant", "tags": ["restaurant", "vietnamese", "asian", "noodles"], "sources": ["osm", "overture"], "website": "http://pho-bt.edan.io", "phone": "+12062465530", "address": "12008 Des Moines Memorial Dr S", "hours": "Mo-Sa 10:00-21:00; PH unknown"}, "geometry": {"type": "Point", "coordinates": [-122.3097296, 47.4950416]}}, {"type": "Feature", "properties": {"id": 6339150077, "name": "Pho Teriyaki Wok", "category": "restaurant", "tags": ["restaurant", "japanese", "vietnamese", "takeaway"], "sources": ["osm"], "phone": "+1-206-241-9377", "address": "1810 South 120th Street", "hours": "Mo-Su 10:00-20:00; PH unknown"}, "geometry": {"type": "Point", "coordinates": [-122.3098617, 47.4959118]}}, {"type": "Feature", "properties": {"id": 6339152869, "name": "Amazonia Cafe", "category": "cafe", "tags": ["cafe", "coffee-shop", "takeaway"], "sources": ["osm"], "address": "11600 Des Moines Memorial Drive South", "hours": "Mo-Fr 06:00-17:00; Sa 07:00-15:00; Su 08:00-15:00; PH unknown"}, "geometry": {"type": "Point", "coordinates": [-122.3066138, 47.4988733]}}, {"type": "Feature", "properties": {"id": 560412985, "name": "Taqueria Jalisco", "category": "restaurant", "tags": ["restaurant", "mexican", "takeaway", "taco", "latin-american"], "sources": ["osm", "overture"], "website": "https://taqueriajaliscowa.com/", "phone": "+12063532744", "address": "1841 S 120th St"}, "geometry": {"type": "Point", "coordinates": [-122.3085767, 47.4954242]}}, {"type": "Feature", "properties": {"id": 676967923, "name": "Flight Path", "category": "bar", "tags": ["bar"], "sources": ["osm", "overture"], "website": "http://Flightpathburien.com/", "phone": "+12067517861", "address": "1832 S 120th St", "hours": "Mo-Su 15:00-02:00; PH unknown"}, "geometry": {"type": "Point", "coordinates": [-122.3087189, 47.4960277]}}, {"type": "Feature", "properties": {"id": "e44ed46f-4737-4654-965a-b8933f0f6d47", "name": "Amazonia Cafe- Burien", "category": "cafe", "tags": ["cafe"], "sources": ["overture"], "phone": "+12065029928", "address": "11600 Des Moines Memorial Dr"}, "geometry": {"type": "Point", "coordinates": [-122.3066559, 47.4992485]}}, {"type": "Feature", "properties": {"id": "0e62b32e-40b5-46e5-b45f-a2baf03120c7", "name": "Wayne's World", "category": "bar", "tags": ["bar"], "sources": ["overture"], "website": "http://www.happyhours.seattleweekly.com/seattle/places/25049-waynes-world-sports-bar-burien-seattle", "phone": "(206) 433-8658", "address": "1832 S 120th St"}, "geometry": {"type": "Point", "coordinates": [-122.3086929, 47.4960213]}}, {"type": "Feature", "properties": {"id": "9eb74257-044e-417a-aaea-89aeb4f2c721", "name": "New teriyaki & wok", "category": "restaurant", "tags": ["restaurant", "japanese"], "sources": ["overture"], "website": "https://www.doordash.com/store/new-teriyaki-wok-seattle-39370/#!", "phone": "(206) 241-9377", "address": "1810 S 120th St"}, "geometry": {"type": "Point", "coordinates": [-122.3098602, 47.4958992]}}, {"type": "Feature", "properties": {"id": "60ad73e1-1e8a-4028-aa6a-af8eacd1ec57", "name": "Seven Coffee Roasters", "category": "cafe", "tags": ["cafe", "coffee"], "sources": ["overture"], "website": "https://sevencoffeeroasters.com/", "phone": "2062410650", "address": "11846 Des Moines Memorial Dr S"}, "geometry": {"type": "Point", "coordinates": [-122.3099136, 47.4965248]}}, {"type": "Feature", "properties": {"id": "8873039f-85a1-4ff8-85ad-5d9e340c3b57", "name": "The Pizza Source", "category": "restaurant", "tags": ["restaurant", "pizza"], "sources": ["overture"], "website": "http://mypizzasource.com/", "phone": "(206) 241-8880", "address": "12008 Des Moines Memorial Dr S"}, "geometry": {"type": "Point", "coordinates": [-122.3094254, 47.4950905]}}, {"type": "Feature", "properties": {"id": 676967990, "name": "7-Eleven", "category": "convenience", "tags": ["convenience"], "sources": ["osm", "overture"], "website": "https://www.7-eleven.com/", "phone": "+12062416288", "address": "11657 Des Moines Mem Dr S", "hours": "24/7"}, "geometry": {"type": "Point", "coordinates": [-122.3087975, 47.4981733]}}, {"type": "Feature", "properties": {"id": 6339151195, "name": "Dollar Tree", "category": "variety_store", "tags": ["variety-store", "discount"], "sources": ["osm", "overture"], "website": "https://locations.dollartree.com/wa/burien/12000-des-moines-memorial-dr-s", "phone": "+15095403342", "address": "12000 Des Moines Memorial Dr S", "hours": "Mo-Su 09:00-21:00; PH unknown"}, "geometry": {"type": "Point", "coordinates": [-122.3092682, 47.4951314]}}, {"type": "Feature", "properties": {"id": 560412984, "name": "Boulevard Liquor", "category": "alcohol", "tags": ["alcohol"], "sources": ["osm", "overture"], "website": "https://www.boulevardliquor.com/contact-us", "phone": "+12062445100", "address": "1847 S 120th St", "hours": "Mo-Sa 10:00-23:00; PH unknown"}, "geometry": {"type": "Point", "coordinates": [-122.3083036, 47.4953259]}}, {"type": "Feature", "properties": {"id": "e496b800-3b1c-43a8-b506-3e2df472fca0", "name": "Luciana's Market", "category": "supermarket", "tags": ["supermarket", "mexican", "latin-american"], "sources": ["overture"], "phone": "+12062410061", "address": "12008 Des Moines Memorial Dr S"}, "geometry": {"type": "Point", "coordinates": [-122.3098679, 47.4950829]}}, {"type": "Feature", "properties": {"id": "67ce9962-1a8c-4b53-bea4-36e4f4d2bff0", "name": "Boulevard Park Thriftway", "category": "supermarket", "tags": ["supermarket"], "sources": ["overture"], "website": "http://www.boulevardparkthriftway.com/", "phone": "+12062465697", "address": "12000 Des Moines Memorial Dr S"}, "geometry": {"type": "Point", "coordinates": [-122.3094254, 47.4951363]}}, {"type": "Feature", "properties": {"id": "da698507-b871-42b3-8cea-4676f6839186", "name": "US Bank", "category": "bank", "tags": ["bank", "credit", "union"], "sources": ["overture"], "website": "http://www.usbank.com/", "phone": "2069010804", "address": "1850 S 120th St"}, "geometry": {"type": "Point", "coordinates": [-122.3082123, 47.4957848]}}, {"type": "Feature", "properties": {"id": 92446335, "name": "Boulevard Park Library", "category": "library", "tags": ["library"], "sources": ["osm", "overture"], "website": "https://kcls.org/locations/1494/", "phone": "+12062428662", "address": "12015 Roseberg Ave S", "hours": "Mo-Th 10:00-21:00; Fr 10:00-18:00; Sa 10:00-17:00"}, "geometry": {"type": "Point", "coordinates": [-122.3078618, 47.4952862]}}, {"type": "Feature", "properties": {"id": "6d9407f6-6de6-4415-a59d-d8c9063b4241", "name": "U.S. Bank Branch", "category": "bank", "tags": ["bank", "credit", "union"], "sources": ["overture"], "website": "https://locations.usbank.com/index/washington/seattle/boulevard-park-branch.html?utm_source=bing%20places&utm_medium=listing&utm_campaign=visit%20website", "phone": "2069010804", "address": "1850 S 120th St"}, "geometry": {"type": "Point", "coordinates": [-122.3081741, 47.4959946]}}, {"type": "Feature", "properties": {"id": "a2dd4ec0-689f-44ce-a00a-9fa68673a6a8", "name": "KCLS Boulevard Park Library", "category": "library", "tags": ["library"], "sources": ["overture"], "website": "http://kcls.org", "phone": "(206) 242-8662", "address": "12015 Roseberg Ave S"}, "geometry": {"type": "Point", "coordinates": [-122.3078461, 47.4953384]}}, {"type": "Feature", "properties": {"id": "3627aa2b-db83-450b-bd8c-b55c95aad262", "name": "Ron White's United Gym", "category": "fitness_centre", "tags": ["fitness-centre", "gym"], "sources": ["overture"], "phone": "+12065786450", "address": "11858 Des Moines Memorial Dr S"}, "geometry": {"type": "Point", "coordinates": [-122.3099213, 47.4961014]}}]}