{"type": "FeatureCollection", "features": [{"type": "Feature", "properties": {"id": 659396650, "name": "PowellsWood Garden", "category": "garden", "tags": ["garden", "botanical"], "sources": ["osm", "overture"], "website": "http://www.powellswood.org/", "phone": "+12535291620", "address": "430 S Dash Point Rd", "hours": "Tu-Sa 10:00-15:00"}, "geometry": {"type": "Point", "coordinates": [-122.3280919, 47.332263]}}, {"type": "Feature", "properties": {"id": "32593f08-10d9-4af8-b3e6-0de4c425f1c4", "name": "Complete Hardwood Floors", "category": "doityourself", "tags": ["doityourself", "building", "supply"], "sources": ["overture"], "website": "https://www.completehardwoodfloors.com", "phone": "(803) 718-1301", "address": "506 S 303rd St"}, "geometry": {"type": "Point", "coordinates": [-122.3276978, 47.3305855]}}, {"type": "Feature", "properties": {"id": "fbd9c175-d768-4f82-83d8-0e89b7595cf5", "name": "Yunker Construction & Painting", "category": "doityourself", "tags": ["doityourself", "building", "supply"], "sources": ["overture"], "website": "http://www.yunkerpainting.com", "phone": "(253) 838-8260", "address": "934 S 295th Pl"}, "geometry": {"type": "Point", "coordinates": [-122.3218155, 47.3383636]}}, {"type": "Feature", "properties": {"id": 710362925, "name": "Marine Hills Swim and Tennis Club", "category": "sports_centre", "tags": ["sports-centre", "tennis", "swimming"], "sources": ["osm"], "website": "https://www.teamunify.com/team/recssslmhst/page/home", "address": "600 South 302nd Street"}, "geometry": {"type": "Point", "coordinates": [-122.3268299, 47.3325884]}}, {"type": "Feature", "properties": {"id": "a9f8d7bf-3a40-4e6c-b832-be6112c20be3", "name": "Marine Hills Pool", "category": "swimming_pool", "tags": ["swimming-pool", "swimming", "pool"], "sources": ["overture"], "website": "http://www.marinehillspool.org", "phone": "(253) 839-4690", "address": "600 S 302nd St"}, "geometry": {"type": "Point", "coordinates": [-122.3264694, 47.3321304]}}]}