{"type": "FeatureCollection", "features": [{"type": "Feature", "properties": {"id": 50648835, "name": "Starbucks", "category": "cafe", "tags": ["cafe", "coffee-shop", "takeaway", "coffee"], "sources": ["osm", "overture"], "website": "https://www.starbucks.com/store-locator/store/1028809", "phone": "+12533970546", "address": "22431 84th Ave S", "hours": "Mo-Fr 04:00-19:30; Sa,Su 05:00-19:30"}, "geometry": {"type": "Point", "coordinates": [-122.2286061, 47.4001688]}}, {"type": "Feature", "properties": {"id": 50648263, "name": "Burger King", "category": "fast_food", "tags": ["fast-food", "burger", "takeaway", "drive-through", "wifi", "restaurant", "american"], "sources": ["osm", "overture"], "website": "https://burgerking.com/store-locator/store/5782", "phone": "+12533954846", "address": "22442 84th Ave S", "hours": "08:00-21:00"}, "geometry": {"type": "Point", "coordinates": [-122.2274427, 47.4004122]}}, {"type": "Feature", "properties": {"id": 50642612, "name": "Playa Mia", "category": "restaurant", "tags": ["restaurant", "seafood", "wifi"], "sources": ["osm"], "website": "http://www.mitzels.com", "phone": "+1-253-395-3635", "address": "22330 84th Avenue South"}, "geometry": {"type": "Point", "coordinates": [-122.2273246, 47.4013368]}}, {"type": "Feature", "properties": {"id": 653689095, "name": "Gator Sports Bar & Grill", "category": "bar", "tags": ["bar"], "sources": ["osm"], "address": "21609 84th Avenue South"}, "geometry": {"type": "Point", "coordinates": [-122.2284233, 47.4080219]}}, {"type": "Feature", "properties": {"id": 653689110, "name": "Bubba's Place", "category": "bar", "tags": ["bar", "restaurant", "bar-and-grill", "grill"], "sources": ["osm", "overture"], "website": "http://www.local.com/business/details/kent-wa/bubbas-place-10884742", "phone": "+12538728854", "address": "21423 84th Ave S"}, "geometry": {"type": "Point", "coordinates": [-122.2283998, 47.4095413]}}, {"type": "Feature", "properties": {"id": 653689113, "name": "Hottie Shots Espresso", "category": "cafe", "tags": ["cafe", "coffee-shop", "coffee"], "sources": ["osm", "overture"], "website": "http://www.yelp.com/biz/hottie-shots-espresso-kent", "phone": "+12532293087", "address": "21409 84th Ave S"}, "geometry": {"type": "Point", "coordinates": [-122.2282531, 47.4099952]}}, {"type": "Feature", "properties": {"id": "09f41b89-e1d3-4672-a357-d7ceeecf09fb", "name": "Mitzels", "category": "restaurant", "tags": ["restaurant", "american"], "sources": ["overture"], "website": "http://elmers.com/", "phone": "(253) 395-3635", "address": "22330 84th Ave S"}, "geometry": {"type": "Point", "coordinates": [-122.2273941, 47.401371]}}, {"type": "Feature", "properties": {"id": "49eb9980-b021-4843-b013-d0467a3b06e2", "name": "Playa mia mexican seafood bar and grill", "category": "restaurant", "tags": ["restaurant", "mexican", "seafood"], "sources": ["overture"], "website": "https://playamiamexicankent.com/", "phone": "+12535283058", "address": "22330 84th Ave S"}, "geometry": {"type": "Point", "coordinates": [-122.2275085, 47.4013634]}}, {"type": "Feature", "properties": {"id": "4bbeda32-7bbb-45fd-8d04-916328f8d551", "name": "Gator's Sports Bar & Grill", "category": "bar", "tags": ["bar", "sports", "bar-and-grill", "american"], "sources": ["overture"], "website": "http://www.gatorskent.com/", "phone": "+12534370362", "address": "21609 84th Ave S"}, "geometry": {"type": "Point", "coordinates": [-122.2284088, 47.4080734]}}, {"type": "Feature", "properties": {"id": "9f9ec942-93f7-4a4d-bf2c-dd10f9b6b189", "name": "Plush Pippin", "category": "bakery", "tags": ["bakery"], "sources": ["overture"], "website": "http://www.maplehurstbakeries.com", "phone": "(253) 872-7300", "address": "21527 88th Pl S #F"}, "geometry": {"type": "Point", "coordinates": [-122.2218781, 47.4089737]}}, {"type": "Feature", "properties": {"id": "887aac2e-c340-4872-996f-e419e539e21d", "name": "Plush Pippen Pie factory", "category": "bakery", "tags": ["bakery"], "sources": ["overture"], "website": "http://www.maplehurstbakeries.com/", "phone": "+12533950753", "address": "21331 88th Pl S"}, "geometry": {"type": "Point", "coordinates": [-122.2216492, 47.4096603]}}, {"type": "Feature", "properties": {"id": "63c73465-6edd-4e5e-8a20-97805eebe69c", "name": "Silver Springs", "category": "attraction", "tags": ["attraction", "landmark", "historical", "building"], "sources": ["overture"], "website": "https://silverspringsavanath.com/", "phone": "+14257933606", "address": "22416 88th Ave S"}, "geometry": {"type": "Point", "coordinates": [-122.2215271, 47.4003677]}}, {"type": "Feature", "properties": {"id": 50648455, "name": "Spark By Hilton - Kent 84th Avenue", "category": "hotel", "tags": ["hotel"], "sources": ["osm"], "website": "http://www.daysinn.com", "phone": "+1-253-395-5444", "address": "22420 84th Avenue South"}, "geometry": {"type": "Point", "coordinates": [-122.2269648, 47.4007477]}}, {"type": "Feature", "properties": {"id": 653688854, "name": "Ramada - Kent/Seattle Area", "category": "hotel", "tags": ["hotel", "wifi"], "sources": ["osm", "overture"], "website": "https://www.wyndhamhotels.com/ramada/kent-washington/ramada-kent-seattle-area/overview", "phone": "+12533954300", "address": "22318 84th Ave S"}, "geometry": {"type": "Point", "coordinates": [-122.2266474, 47.4015866]}}, {"type": "Feature", "properties": {"id": 653689083, "name": "Comfort Inn - Kent/Seattle", "category": "hotel", "tags": ["hotel", "wifi", "resort"], "sources": ["osm", "overture"], "website": "https://www.choicehotels.com/washington/kent/comfort-inn-hotels/wa020", "phone": "2536486943", "address": "22311 84th Ave S"}, "geometry": {"type": "Point", "coordinates": [-122.2288623, 47.4016872]}}, {"type": "Feature", "properties": {"id": 653689232, "name": "Golden Kent Motel", "category": "motel", "tags": ["motel"], "sources": ["osm", "overture"], "website": "http://www.goldenkentmotel.com", "phone": "+12538728372", "address": "22203 84th Ave S"}, "geometry": {"type": "Point", "coordinates": [-122.2285091, 47.4023337]}}, {"type": "Feature", "properties": {"id": "67c99377-8e9b-4c6d-a5d3-7c1eca737c9a", "name": "Comfort Inn", "category": "hotel", "tags": ["hotel"], "sources": ["overture"], "website": "https://www.choicehotels.com/washington/kent/comfort-inn-hotels/wa020?mc=llyxyxpx", "phone": "(253) 872-2211", "address": "22311 84th Ave S"}, "geometry": {"type": "Point", "coordinates": [-122.228775, 47.4017258]}}, {"type": "Feature", "properties": {"id": "6da84b29-3e1e-404a-9c95-4fe44ddaadc2", "name": "Kent Comfort Inn", "category": "hotel", "tags": ["hotel"], "sources": ["overture"], "website": "http://www.kentcomfortinn.com/", "phone": "+12538722211", "address": "22311 84th Ave S"}, "geometry": {"type": "Point", "coordinates": [-122.2286835, 47.4015999]}}, {"type": "Feature", "properties": {"id": "d5af5b75-70fe-4d38-9245-f54a80cf4b7d", "name": "Spark by Hilton Kent Seattle", "category": "hotel", "tags": ["hotel"], "sources": ["overture"], "website": "https://www.hilton.com/en/hotels/searvpe-spark-kent-seattle/?SEO_id=YEXTN-AMER-PE-SEARVPE&y_source=1_MTA5NjAxMzE5NC01NTktbG9jYXRpb24ud2Vic2l0ZQ%3D%3D", "phone": "+12533955444", "address": "22420 84th Ave S"}, "geometry": {"type": "Point", "coordinates": [-122.2269363, 47.4007339]}}, {"type": "Feature", "properties": {"id": "723e7f5b-b296-456b-a7be-f1bf7eec1f38", "name": "Days Inn by Wyndham Kent 84th Ave", "category": "hotel", "tags": ["hotel", "resort"], "sources": ["overture"], "website": "https://www.wyndhamhotels.com/days-inn/kent-washington/days-inn-kent-84th-ave/overview?CID=LC:DI::BING:RIO:National:20593&iata=00093796", "phone": "2534791776", "address": "22420 84th Ave S"}, "geometry": {"type": "Point", "coordinates": [-122.2268372, 47.4006958]}}, {"type": "Feature", "properties": {"id": 869951350, "name": "7-Eleven", "category": "convenience", "tags": ["convenience"], "sources": ["osm", "overture"], "website": "https://www.7-eleven.com/", "phone": "+12065079531", "address": "22422 83rd Ave S"}, "geometry": {"type": "Point", "coordinates": [-122.2289257, 47.4004839]}}, {"type": "Feature", "properties": {"id": 3875399290, "name": "Contract Furnishings Mart", "category": "furniture", "tags": ["furniture"], "sources": ["osm"]}, "geometry": {"type": "Point", "coordinates": [-122.2273199, 47.4021503]}}, {"type": "Feature", "properties": {"id": 4164134890, "name": "Northwest Welding & Gases", "category": "hardware", "tags": ["hardware"], "sources": ["osm"], "address": "22220 84th Avenue South"}, "geometry": {"type": "Point", "coordinates": [-122.2274315, 47.4024087]}}, {"type": "Feature", "properties": {"id": 653688866, "name": "A1 Doors", "category": "furniture", "tags": ["furniture"], "sources": ["osm"], "address": "8711 South 222nd Street"}, "geometry": {"type": "Point", "coordinates": [-122.2232964, 47.4024916]}}, {"type": "Feature", "properties": {"id": 653688932, "name": "Ernie's Fuel Stop", "category": "convenience", "tags": ["convenience", "wheelchair-accessible"], "sources": ["osm"], "hours": "24/7"}, "geometry": {"type": "Point", "coordinates": [-122.227386, 47.4043614]}}, {"type": "Feature", "properties": {"id": 653689243, "name": "Tacoma Screw Products", "category": "hardware", "tags": ["hardware"], "sources": ["osm", "overture"], "website": "http://www.tacomascrew.com", "phone": "+12533959770", "address": "22123 84th Ave S"}, "geometry": {"type": "Point", "coordinates": [-122.2286966, 47.4030674]}}, {"type": "Feature", "properties": {"id": "cbe20f4e-e753-45c0-9f73-4fc38e30c746", "name": "ABC Supply Co. Inc.", "category": "doityourself", "tags": ["doityourself", "building", "supply"], "sources": ["overture"], "website": "https://www.abcsupply.com/locations/location?BranchNumber=550", "phone": "+12533959964", "address": "8528 S 222nd St"}, "geometry": {"type": "Point", "coordinates": [-122.2254028, 47.4034805]}}, {"type": "Feature", "properties": {"id": "aeb052b3-a08e-4f80-b8f9-bab0dab193d5", "name": "Pacific Lumber & Supply", "category": "doityourself", "tags": ["doityourself", "building", "supply"], "sources": ["overture"], "website": "http://pacificlumbersupply.com", "phone": "(253) 395-9530", "address": "21823 88th Pl S"}, "geometry": {"type": "Point", "coordinates": [-122.2228622, 47.4049721]}}, {"type": "Feature", "properties": {"id": "b3152780-d39b-4c6d-8c83-4e86fe778c2e", "name": "Sunstate Equipment", "category": "hardware", "tags": ["hardware"], "sources": ["overture"], "website": "https://www.sunstateequip.com/s/locations/washington/kent/sea", "phone": "(253) 993-5091", "address": "8612 S. 218th St."}, "geometry": {"type": "Point", "coordinates": [-122.2240372, 47.4069633]}}, {"type": "Feature", "properties": {"id": "18e9235e-c2e3-4c23-bc64-6fd7212c98a8", "name": "Fella Sofa", "category": "furniture", "tags": ["furniture"], "sources": ["overture"], "website": "https://fellasofa.com/", "phone": "+12532166222", "address": "21731 84th Ave S"}, "geometry": {"type": "Point", "coordinates": [-122.2284927, 47.4067726]}}, {"type": "Feature", "properties": {"id": "d9a2e373-debb-4e3e-94b2-8ad10cd5c865", "name": "Tacoma Screw Products, Inc", "category": "doityourself", "tags": ["doityourself", "building", "supply"], "sources": ["overture"], "website": "http://www.tacomascrew.com/", "phone": "2533959770", "address": "22123 84th Ave S"}, "geometry": {"type": "Point", "coordinates": [-122.228035, 47.4030685]}}, {"type": "Feature", "properties": {"id": 653689263, "name": "DaVita Dialysis", "category": "clinic", "tags": ["clinic"], "sources": ["osm"], "address": "21851 84th Avenue South"}, "geometry": {"type": "Point", "coordinates": [-122.2284852, 47.4052108]}}, {"type": "Feature", "properties": {"id": "c844e62e-5e5b-464b-b1c9-c8cc0cd9a602", "name": "Ramada by Wyndham Kent Seattle Area", "category": "hospital", "tags": ["hospital"], "sources": ["overture"], "website": "https://www.wyndhamhotels.com/ramada/kent-washington/ramada-kent-seattle-area/overview?CID=LC:k8o22cb7iemt3d1:48110&iata=00093796", "phone": "2532374201", "address": "22318 84th Ave S"}, "geometry": {"type": "Point", "coordinates": [-122.2266922, 47.4016838]}}, {"type": "Feature", "properties": {"id": "31841027-f868-4726-9fcd-54d8c3c8e37f", "name": "DaVita Kent Dialysis Center", "category": "clinic", "tags": ["clinic", "medical"], "sources": ["overture"], "website": "https://www.davita.com", "phone": "(866) 544-6741", "address": "21851 84th Ave S"}, "geometry": {"type": "Point", "coordinates": [-122.2286072, 47.4051208]}}]}