{"type": "FeatureCollection", "features": [{"type": "Feature", "properties": {"id": 4789555721, "name": "Just Poke", "category": "restaurant", "tags": ["restaurant", "poke", "takeaway", "wheelchair-accessible", "japanese", "sushi"], "sources": ["osm", "overture"], "website": "https://justpoke.com/", "phone": "+14252420889", "address": "7345 164th Ave NE", "hours": "Mo-Su 11:00-20:00", "stations": [{"stopCode": 65, "lines": "2", "name": "Downtown Redmond Station", "walkingMeters": 569, "walkingSeconds": 416, "band": 10}]}, "geometry": {"type": "Point", "coordinates": [-122.1217339, 47.6698313]}}, {"type": "Feature", "properties": {"id": 2626130765, "name": "Matts' Rotisserie & Oyster Lounge", "category": "restaurant", "tags": ["restaurant", "regional"], "sources": ["osm"], "website": "https://www.mattsrotisserie.com/", "phone": "+1-425-376-0909", "address": "16551 Northeast 74th Street", "hours": "Mo-Th 11:00-21:00; Fr,Sa 11:00-10:00", "stations": [{"stopCode": 65, "lines": "2", "name": "Downtown Redmond Station", "walkingMeters": 636, "walkingSeconds": 464, "band": 10}]}, "geometry": {"type": "Point", "coordinates": [-122.1200345, 47.6697211]}}, {"type": "Feature", "properties": {"id": 3731149444, "name": "Creperie de Paris", "category": "cafe", "tags": ["cafe"], "sources": ["osm"], "phone": "+1-425-882-4700", "address": "16503 Northeast 74th Street", "stations": [{"stopCode": 65, "lines": "2", "name": "Downtown Redmond Station", "walkingMeters": 636, "walkingSeconds": 464, "band": 10}]}, "geometry": {"type": "Point", "coordinates": [-122.1200369, 47.6697989]}}, {"type": "Feature", "properties": {"id": 12004776069, "name": "Fuji Steakhouse", "category": "restaurant", "tags": ["restaurant", "japanese", "steak-house", "sushi"], "sources": ["osm", "overture"], "website": "https://fujisteakhouseredmond.com/", "phone": "+14259685800", "address": "7330 164th Ave NE", "hours": "Mo-Th 03:30-21:30; Fr-Su 12:00-14:30,15:30-21:30", "stations": [{"stopCode": 65, "lines": "2", "name": "Downtown Redmond Station", "walkingMeters": 621, "walkingSeconds": 453, "band": 10}]}, "geometry": {"type": "Point", "coordinates": [-122.1203507, 47.6698189]}}, {"type": "Feature", "properties": {"id": "c6dc412b-fa95-4e73-a10b-20844216acc3", "name": "AKB, a hotel bar", "category": "bar", "tags": ["bar", "breakfast-and-brunch"], "sources": ["overture"], "website": "https://www.akbhotelbar.com/location/redmond/", "phone": "4256583000", "address": "7200 164th Ave NE", "stations": [{"stopCode": 65, "lines": "2", "name": "Downtown Redmond Station", "walkingMeters": 705, "walkingSeconds": 514, "band": 10}]}, "geometry": {"type": "Point", "coordinates": [-122.1206207, 47.6688156]}}, {"type": "Feature", "properties": {"id": "cef4a1b9-78c6-4d4f-b419-a650f8db3fb7", "name": "Archer's Kitchen + Bar", "category": "restaurant", "tags": ["restaurant", "american"], "sources": ["overture"], "website": "https://www.archerhotel.com/redmond/archer-kitchen", "phone": "+18554379100", "address": "7200 164th Ave NE", "stations": [{"stopCode": 65, "lines": "2", "name": "Downtown Redmond Station", "walkingMeters": 700, "walkingSeconds": 510, "band": 10}]}, "geometry": {"type": "Point", "coordinates": [-122.1207047, 47.6688766]}}, {"type": "Feature", "properties": {"id": 10314105826, "name": "Legend of the Moon", "category": "artwork", "tags": ["artwork"], "sources": ["osm"], "stations": [{"stopCode": 64, "lines": "2", "name": "Marymoor Village Station", "walkingMeters": 500, "walkingSeconds": 360, "band": 10}]}, "geometry": {"type": "Point", "coordinates": [-122.1219761, 47.663388]}}, {"type": "Feature", "properties": {"id": 12162601865, "name": "House Post", "category": "artwork", "tags": ["artwork"], "sources": ["osm"], "website": "https://www.redmond.gov/2039/House-Post", "stations": [{"stopCode": 65, "lines": "2", "name": "Downtown Redmond Station", "walkingMeters": 733, "walkingSeconds": 538, "band": 10}]}, "geometry": {"type": "Point", "coordinates": [-122.1232843, 47.6684801]}}, {"type": "Feature", "properties": {"id": 12508614202, "name": "Giant Baseball", "category": "artwork", "tags": ["artwork"], "sources": ["osm"], "stations": [{"stopCode": 64, "lines": "2", "name": "Marymoor Village Station", "walkingMeters": 839, "walkingSeconds": 603, "band": 15}]}, "geometry": {"type": "Point", "coordinates": [-122.124518, 47.6640618]}}, {"type": "Feature", "properties": {"id": "c737e2be-2aea-4806-939c-fcc3bdd7db0a", "name": "James W. Clise House", "category": "attraction", "tags": ["attraction", "landmark", "historical", "building"], "sources": ["overture"], "stations": [{"stopCode": 64, "lines": "2", "name": "Marymoor Village Station", "walkingMeters": 561, "walkingSeconds": 403, "band": 5}]}, "geometry": {"type": "Point", "coordinates": [-122.1200027, 47.6616936]}}, {"type": "Feature", "properties": {"id": "312aa536-40ff-423d-a67c-235f203a27b3", "name": "Marymoor", "category": "park", "tags": ["park"], "sources": ["overture"], "website": "http://www.kingcounty.gov/services/parks-recreation/parks/parks-and-natural-lands/popular-parks/marymoor.aspx", "stations": [{"stopCode": 64, "lines": "2", "name": "Marymoor Village Station", "walkingMeters": 573, "walkingSeconds": 412, "band": 10}]}, "geometry": {"type": "Point", "coordinates": [-122.1220322, 47.6646957]}}, {"type": "Feature", "properties": {"id": "526a3f24-b4a7-405d-8f6f-5c8db84cd651", "name": "Marymoor Park", "category": "park", "tags": ["park"], "sources": ["overture"], "website": "http://www.kingcounty.gov/recreation/parks/inventory/marymoor.aspx", "phone": "+14254526885", "address": "6046 W Lake Sammamish Pkwy NE", "stations": [{"stopCode": 64, "lines": "2", "name": "Marymoor Village Station", "walkingMeters": 588, "walkingSeconds": 423, "band": 10}]}, "geometry": {"type": "Point", "coordinates": [-122.1217651, 47.6627197]}}, {"type": "Feature", "properties": {"id": "fdae328f-0a3d-4b75-be57-e77fbfed5217", "name": "Marymoor Off Leash Dog Park", "category": "park", "tags": ["park"], "sources": ["overture"], "website": "http://www.kingcounty.gov/recreation/parks/inventory/marymoor/offleash.aspx", "phone": "+12064777275", "address": "6046 W Lake Sammamish Pkwy NE", "stations": [{"stopCode": 64, "lines": "2", "name": "Marymoor Village Station", "walkingMeters": 971, "walkingSeconds": 700, "band": 15}]}, "geometry": {"type": "Point", "coordinates": [-122.1264648, 47.6626625]}}, {"type": "Feature", "properties": {"id": "8c8120da-c5d6-4d95-bc1f-d7b3644ed507", "name": "Redmond Central Connector", "category": "park", "tags": ["park"], "sources": ["overture"], "website": "https://www.traillink.com/trail/redmond-central-connector", "phone": "(425) 556-2723", "address": "Bear Creek Pkwy", "stations": [{"stopCode": 65, "lines": "2", "name": "Downtown Redmond Station", "walkingMeters": 609, "walkingSeconds": 448, "band": 10}]}, "geometry": {"type": "Point", "coordinates": [-122.1222153, 47.6687164]}}, {"type": "Feature", "properties": {"id": 660181045, "name": "Archer Hotel", "category": "hotel", "tags": ["hotel"], "sources": ["osm"], "website": "https://archerhotel.com", "address": "7200 164th Avenue Northeast", "stations": [{"stopCode": 65, "lines": "2", "name": "Downtown Redmond Station", "walkingMeters": 692, "walkingSeconds": 505, "band": 10}]}, "geometry": {"type": "Point", "coordinates": [-122.120847, 47.6688144]}}, {"type": "Feature", "properties": {"id": "48e34c0f-8672-499d-a71d-3bafafd092d9", "name": "Archer Hotel Redmond", "category": "hotel", "tags": ["hotel"], "sources": ["overture"], "website": "https://archerhotel.com/redmond", "phone": "+14256583000", "address": "7200 164th Ave NE", "stations": [{"stopCode": 65, "lines": "2", "name": "Downtown Redmond Station", "walkingMeters": 695, "walkingSeconds": 506, "band": 10}]}, "geometry": {"type": "Point", "coordinates": [-122.1208115, 47.6688423]}}, {"type": "Feature", "properties": {"id": 2703202976, "name": "Uncle's Games", "category": "toys", "tags": ["toys", "wheelchair-accessible"], "sources": ["osm"], "website": "https://www.unclesgames.com/", "phone": "+1-425-497-9180", "address": "16507 Northeast 74th Street", "hours": "Su 11:00-19:00; Mo-We 10:00-21:00; Th 10:00-22:00; Fr 10:00+; Sa 10:00-21:00", "stations": [{"stopCode": 65, "lines": "2", "name": "Downtown Redmond Station", "walkingMeters": 630, "walkingSeconds": 460, "band": 10}]}, "geometry": {"type": "Point", "coordinates": [-122.1200285, 47.6698683]}}, {"type": "Feature", "properties": {"id": 4789555191, "name": "Utopia", "category": "gift", "tags": ["gift", "jewelry"], "sources": ["osm", "overture"], "website": "http://www.utopianorthwest.com/", "phone": "+14254971513", "address": "7425 166th Ave NE", "stations": [{"stopCode": 65, "lines": "2", "name": "Downtown Redmond Station", "walkingMeters": 623, "walkingSeconds": 454, "band": 10}]}, "geometry": {"type": "Point", "coordinates": [-122.1200316, 47.6699339]}}, {"type": "Feature", "properties": {"id": "7ed85213-8afe-4d07-beaf-4933668313d7", "name": "Francesca's", "category": "clothes", "tags": ["clothes", "womens"], "sources": ["overture"], "website": "https://francescas.com/", "phone": "+14252855004", "address": "7330 164th Ave NE", "stations": [{"stopCode": 65, "lines": "2", "name": "Downtown Redmond Station", "walkingMeters": 602, "walkingSeconds": 440, "band": 10}]}, "geometry": {"type": "Point", "coordinates": [-122.1204987, 47.6699944]}}, {"type": "Feature", "properties": {"id": "b19be1f0-2ec7-43c1-adbf-a665be763cc3", "name": "Mac & Mabel", "category": "furniture", "tags": ["furniture"], "sources": ["overture"], "website": "https://macandmabel.com", "phone": "(425) 365-0826", "address": "7330 164th Ave NE Ste E130", "stations": [{"stopCode": 65, "lines": "2", "name": "Downtown Redmond Station", "walkingMeters": 614, "walkingSeconds": 448, "band": 10}]}, "geometry": {"type": "Point", "coordinates": [-122.1201935, 47.6699219]}}, {"type": "Feature", "properties": {"id": "617f9c2b-3581-4f78-806f-4c7050bfbbd3", "name": "Hashtag Cannabis - Redmond Marijuana Dispensary", "category": "cannabis", "tags": ["cannabis"], "sources": ["overture"], "website": "https://shop-redmond.seattlehashtag.com/rec/menu", "phone": "4252563148", "address": "7829 Leary Way NE", "stations": [{"stopCode": 65, "lines": "2", "name": "Downtown Redmond Station", "walkingMeters": 634, "walkingSeconds": 466, "band": 10}]}, "geometry": {"type": "Point", "coordinates": [-122.1298981, 47.6698456]}}]}