{"type": "FeatureCollection", "features": [{"type": "Feature", "properties": {"id": 6268318185, "name": "Subway", "category": "fast_food", "tags": ["fast-food", "sandwich", "takeaway", "restaurant"], "sources": ["osm", "overture"], "website": "http://www.subway.com/en-us", "phone": "+14254839561", "address": "20631 Bothell Everett Hwy", "hours": "Mo-Sa 08:00-22:00; Su 08:00-21:00"}, "geometry": {"type": "Point", "coordinates": [-122.2057526, 47.8105827]}}, {"type": "Feature", "properties": {"id": 5585710435, "name": "Domino's", "category": "fast_food", "tags": ["fast-food", "pizza", "takeaway", "delivery", "restaurant"], "sources": ["osm", "overture"], "website": "https://www.dominos.com/en/?utm_source=google&utm_medium=loclist&utm_campaign=localmaps", "phone": "+14254814848", "address": "20631 Bothell Everett Hwy", "hours": "Mo-Th 10:30-24:00; Fr-Sa 10:30-01:00; Su 10:30-24:00"}, "geometry": {"type": "Point", "coordinates": [-122.2057306, 47.8108645]}}, {"type": "Feature", "properties": {"id": 5530112714, "name": "Royal Biryani House", "category": "restaurant", "tags": ["restaurant", "indian", "biryani", "vegetarian"], "sources": ["osm", "overture"], "website": "https://biryanihousebothell.com/", "phone": "+14254816900", "address": "20611 Bothell Everett Hwy", "hours": "Mo-Sa 11:30-22:00; Su 11:30-21:30"}, "geometry": {"type": "Point", "coordinates": [-122.20691, 47.8106339]}}, {"type": "Feature", "properties": {"id": 4457620891, "name": "Yummy Teriyaki", "category": "restaurant", "tags": ["restaurant", "asian", "japanese"], "sources": ["osm", "overture"], "website": "http://yummyteriyakiseattle.com", "phone": "+14253980505", "address": "20631 Bothell Everett Hwy", "hours": "Mo-Sa 10:30-21:00"}, "geometry": {"type": "Point", "coordinates": [-122.2057608, 47.8107108]}}, {"type": "Feature", "properties": {"id": "a11aa353-df26-4cba-a921-8ceac7d4a7e0", "name": "Midori Teriyaki", "category": "restaurant", "tags": ["restaurant", "japanese", "sushi", "asian"], "sources": ["overture"], "website": "https://midoriteriyakibothell.mybistro.online", "phone": "+14254895955", "address": "1912 201st Pl SE"}, "geometry": {"type": "Point", "coordinates": [-122.2069855, 47.8149834]}}, {"type": "Feature", "properties": {"id": 430857807, "name": "The Original Pancake House", "category": "restaurant", "tags": ["restaurant", "breakfast", "pancake"], "sources": ["osm"], "website": "https://originalpancakehouse.com/", "phone": "+1-425-419-4476", "address": "1904 201st Place Southeast", "hours": "Mo-Fr 07:00-14:00; Sa,Su 07:00-15:00"}, "geometry": {"type": "Point", "coordinates": [-122.2070845, 47.8159929]}}, {"type": "Feature", "properties": {"id": 5585710436, "name": "Korea House", "category": "restaurant", "tags": ["restaurant"], "sources": ["osm"]}, "geometry": {"type": "Point", "coordinates": [-122.2057189, 47.8116268]}}, {"type": "Feature", "properties": {"id": 8343262929, "name": "Kin Dee Thai Restaurant", "category": "restaurant", "tags": ["restaurant", "thai"], "sources": ["osm"], "website": "https://www.kindeebothell.com", "address": "20611 Bothell-Everett Highway"}, "geometry": {"type": "Point", "coordinates": [-122.2067363, 47.8108365]}}, {"type": "Feature", "properties": {"id": 13694250093, "name": "Patrona", "category": "restaurant", "tags": ["restaurant", "mexican", "vegetarian", "has-bar", "bar-and-grill"], "sources": ["osm", "overture"], "website": "https://patronamexican.com/", "phone": "+14258928996", "address": "1912 201st Pl SE", "hours": "11:00-22:00"}, "geometry": {"type": "Point", "coordinates": [-122.2070175, 47.8154164]}}, {"type": "Feature", "properties": {"id": 430857809, "name": "DQ Grill & Chill", "category": "fast_food", "tags": ["fast-food", "ice-cream", "burger", "takeaway"], "sources": ["osm"], "website": "https://www.dairyqueen.com/locations/wa/bothell/20511-bothell-everett-hwy-se/2247", "phone": "+1-425-486-3800", "address": "20511 Bothell-Everett Highway", "hours": "Mo-Th 10:30-22:00; Fr-Sa 10:30-22:30; Su 11:00-22:00"}, "geometry": {"type": "Point", "coordinates": [-122.2069717, 47.8118445]}}, {"type": "Feature", "properties": {"id": 576614142, "name": "Mama Bear Espresso", "category": "cafe", "tags": ["cafe"], "sources": ["osm"]}, "geometry": {"type": "Point", "coordinates": [-122.207946, 47.8104814]}}, {"type": "Feature", "properties": {"id": "8b2ff040-5e8b-4610-a481-368e1298439f", "name": "Dairy Queen Grill and Chill", "category": "fast_food", "tags": ["fast-food", "fast", "food", "burger"], "sources": ["overture"], "website": "https://www.dairyqueen.com/en-us/locations/wa/bothell/20511-bothell-everett-hwy-se/2247/?utm_source=organic&utm_campaign=yext%2F&y_source=1_ODk5NjA1MC01NTktbG9jYXRpb24ud2Vic2l0ZQ%3D%3D", "phone": "+14254863800", "address": "20511 Bothell Everett Hwy"}, "geometry": {"type": "Point", "coordinates": [-122.2069626, 47.8118515]}}, {"type": "Feature", "properties": {"id": "a2095ccf-76ea-4a9d-bf0a-06e143a06ba4", "name": "Shawarma Time", "category": "restaurant", "tags": ["restaurant", "halal"], "sources": ["overture"], "website": "https://bothell.shawarmatimewa.com/?utm_source=bing&utm_medium=websiteurl&utm_campaign=search", "phone": "4259087357", "address": "20611 Bothell Everett Hwy, Suite Ste E"}, "geometry": {"type": "Point", "coordinates": [-122.2068787, 47.8107109]}}, {"type": "Feature", "properties": {"id": "71b18232-3966-4ae4-a28a-2e9dc9fd1ace", "name": "Mayuri Indian Cuisine", "category": "restaurant", "tags": ["restaurant", "indian"], "sources": ["overture"], "website": "http://www.mayuriseattle.com/", "phone": "(425) 481-6900", "address": "20611 Bothell Everett Hwy"}, "geometry": {"type": "Point", "coordinates": [-122.2070084, 47.8106537]}}, {"type": "Feature", "properties": {"id": "9ea0d7c5-44c2-4f29-b2f3-bcfad83d4b51", "name": "Original Pancake House", "category": "restaurant", "tags": ["restaurant", "american", "breakfast-and-brunch"], "sources": ["overture"], "website": "http://iloveoph.com/", "phone": "+14254194476", "address": "1904 201st Pl SE"}, "geometry": {"type": "Point", "coordinates": [-122.2071762, 47.8160782]}}, {"type": "Feature", "properties": {"id": "3291a062-2b79-42ec-8f7c-a04458ac9880", "name": "cinnamon_restaurant_bar", "category": "restaurant", "tags": ["restaurant"], "sources": ["overture"], "phone": "+14258068424"}, "geometry": {"type": "Point", "coordinates": [-122.2070618, 47.8153915]}}, {"type": "Feature", "properties": {"id": "a527d7a2-9302-429b-b6cc-d044ac508bdc", "name": "Siam Bothell", "category": "restaurant", "tags": ["restaurant", "seafood", "thai"], "sources": ["overture"], "website": "http://www.siamthairestaurants.com/#/home", "phone": "4258068424", "address": "1912 201st Pl SE Ste 207"}, "geometry": {"type": "Point", "coordinates": [-122.206955, 47.8151741]}}, {"type": "Feature", "properties": {"id": "600617b5-4528-4ff8-89e7-91dd1610e095", "name": "Dine India", "category": "restaurant", "tags": ["restaurant", "indian"], "sources": ["overture"], "website": "http://dineindiaus.com", "phone": "(425) 481-6900", "address": "20611 Bothell Everett Hwy Ste G"}, "geometry": {"type": "Point", "coordinates": [-122.2069321, 47.8107376]}}, {"type": "Feature", "properties": {"id": "fe6542df-3bff-45cb-ac7d-549697bc7a6f", "name": "Kin Dee Thai Bothell", "category": "restaurant", "tags": ["restaurant", "thai", "asian"], "sources": ["overture"], "website": "https://www.kindeebothell.com/", "phone": "+14258928888", "address": "20611 Bothell Everett Hwy"}, "geometry": {"type": "Point", "coordinates": [-122.2067337, 47.8107681]}}, {"type": "Feature", "properties": {"id": "a7725db3-ce12-49fd-be69-7ae097414ff9", "name": "Korea House Restaurant", "category": "restaurant", "tags": ["restaurant", "korean", "asian"], "sources": ["overture"], "website": "http://www.thekoreahouseofseattle.com/", "phone": "+14254868866", "address": "20615 Bothell Everett Hwy"}, "geometry": {"type": "Point", "coordinates": [-122.205864, 47.811573]}}, {"type": "Feature", "properties": {"id": "664fafa7-e7d2-4142-9f7f-f75881e14de9", "name": "The Korea House", "category": "restaurant", "tags": ["restaurant", "korean"], "sources": ["overture"], "website": "http://www.thekoreahouseofseattle.com", "phone": "(425) 486-8866", "address": "20615 Bothell Everett Hwy"}, "geometry": {"type": "Point", "coordinates": [-122.2057953, 47.8116264]}}, {"type": "Feature", "properties": {"id": "c8b9c2cc-4fd4-4437-9dfe-bc46697fd0a8", "name": "Shangri La Apartments", "category": "attraction", "tags": ["attraction", "landmark", "historical", "building"], "sources": ["overture"], "website": "http://ShangrilaBothell.com/", "phone": "+14259084000", "address": "2021 201st Pl SE"}, "geometry": {"type": "Point", "coordinates": [-122.2060394, 47.8162384]}}, {"type": "Feature", "properties": {"id": "67042915-7710-4dd6-9f4c-006b50b38a45", "name": "eaves RockMeadow", "category": "attraction", "tags": ["attraction", "landmark", "historical", "building"], "sources": ["overture"], "website": "https://www.avaloncommunities.com/washington/bothell-apartments/eaves-rockmeadow?utm_source=gmb&utm_medium=organic&utm_campaign=gmblist", "phone": "+14257804176", "address": "19905 Bothell Everett Hwy"}, "geometry": {"type": "Point", "coordinates": [-122.2058411, 47.8180389]}}, {"type": "Feature", "properties": {"id": "a83087ea-2c5c-4a90-b05c-c7eac842ed4a", "name": "Madison Park Apartments", "category": "attraction", "tags": ["attraction", "landmark", "historical", "building"], "sources": ["overture"], "website": "https://www.madisonparkbothell.com/", "phone": "+14254830909", "address": "20520 Bothell Everett Hwy"}, "geometry": {"type": "Point", "coordinates": [-122.2088547, 47.8116226]}}, {"type": "Feature", "properties": {"id": "72d8cc82-0d33-42d9-8567-e93cd639456e", "name": "Avalon North Creek", "category": "attraction", "tags": ["attraction", "landmark", "historical", "building"], "sources": ["overture"], "website": "https://www.avaloncommunities.com/washington/bothell-apartments/avalon-north-creek?utm_source=gmb&utm_medium=organic&utm_campaign=gmblist", "phone": "+14254147505", "address": "1730 196th St SE"}, "geometry": {"type": "Point", "coordinates": [-122.209549, 47.8192596]}}, {"type": "Feature", "properties": {"id": "8f73fd3a-6b46-411d-b66a-ac5da16e546b", "name": "Griffis North Creek", "category": "attraction", "tags": ["attraction", "landmark", "historical", "building"], "sources": ["overture"], "website": "https://griffisresidential.com/property/north-creek/?utm_knock=fb", "phone": "+14254485763", "address": "20225 Bothell Everett Hwy"}, "geometry": {"type": "Point", "coordinates": [-122.203537, 47.814827]}}, {"type": "Feature", "properties": {"id": 6268301586, "name": "AT&T", "category": "mobile_phone", "tags": ["mobile-phone"], "sources": ["osm"]}, "geometry": {"type": "Point", "coordinates": [-122.206728, 47.8106361]}}, {"type": "Feature", "properties": {"id": 5530112713, "name": "Dollar Tree", "category": "variety_store", "tags": ["variety-store", "discount"], "sources": ["osm", "overture"], "website": "https://locations.dollartree.com/wa/bothell/20617-bothell-everett-hwy-unit-a", "phone": "+14254093303", "address": "20617 Bothell Everett Hwy", "hours": "Mo-Sa 08:00-22:00; Su 09:00-21:00"}, "geometry": {"type": "Point", "coordinates": [-122.2057262, 47.8111279]}}, {"type": "Feature", "properties": {"id": 10168050129, "name": "Mayuri foods", "category": "supermarket", "tags": ["supermarket"], "sources": ["osm"], "address": "20617 Bothell-Everett Highway"}, "geometry": {"type": "Point", "coordinates": [-122.2057638, 47.8110646]}}, {"type": "Feature", "properties": {"id": "2e3ffbac-912b-45e0-8ddd-65b64b9e3773", "name": "Sherwin-Williams", "category": "hardware", "tags": ["hardware"], "sources": ["overture"], "website": "https://www.sherwin-williams.com/store-locator/paint-store/bothell/wa/708548", "phone": "+14254854109", "address": "20619 Bothell Everett Hwy"}, "geometry": {"type": "Point", "coordinates": [-122.2058334, 47.8108902]}}, {"type": "Feature", "properties": {"id": "d6945232-04d4-481d-94f7-ba9e82e25ec9", "name": "AT&T Store", "category": "mobile_phone", "tags": ["mobile-phone", "mobile"], "sources": ["overture"], "website": "https://www.att.com/stores/washington/bothell/120132?source=E-Fls10000000000X&wtExtndSource=website", "phone": "+14254850034", "address": "20611 Bothell Everett Hwy"}, "geometry": {"type": "Point", "coordinates": [-122.2069931, 47.8107491]}}, {"type": "Feature", "properties": {"id": "6fd067c3-ab47-4e1b-b64e-1fde3a6ca4c1", "name": "Mayuri Grocery Store", "category": "supermarket", "tags": ["supermarket"], "sources": ["overture"], "website": "http://www.mayuriseattle.com", "phone": "+14254833000", "address": "20611 Bothell Everett Hwy"}, "geometry": {"type": "Point", "coordinates": [-122.2069931, 47.8107491]}}, {"type": "Feature", "properties": {"id": "94d82173-ae32-4e1a-9edd-df9f76a42af8", "name": "Matur Suksema", "category": "jewelry", "tags": ["jewelry"], "sources": ["overture"], "website": "http://www.matursuksema.com", "phone": "(425) 485-4771", "address": "20611 Bothell Everett Hwy"}, "geometry": {"type": "Point", "coordinates": [-122.2070084, 47.8107071]}}, {"type": "Feature", "properties": {"id": "a32a2566-687e-4eb1-91e3-e1c03cd7d1d2", "name": "Mayuri Foods and Video - Bothell", "category": "supermarket", "tags": ["supermarket"], "sources": ["overture"], "website": "http://www.mayuriseattle.com", "phone": "(425) 483-3000", "address": "20611 Bothell Everett Hwy Ste A"}, "geometry": {"type": "Point", "coordinates": [-122.2069931, 47.8117828]}}, {"type": "Feature", "properties": {"id": "56dd5e1e-5ebd-442b-b66b-4e083dfd784e", "name": "Dollar Store-Bothell Everett Hwy", "category": "department_store", "tags": ["department-store", "department"], "sources": ["overture"], "phone": "(425) 487-0530", "address": "20615 Bothell Everett Hwy Ste A"}, "geometry": {"type": "Point", "coordinates": [-122.2057419, 47.8110504]}}, {"type": "Feature", "properties": {"id": "a313a287-4980-46da-ba3d-f31d4974f35d", "name": "Safeway", "category": "pharmacy", "tags": ["pharmacy"], "sources": ["overture"], "website": "http://local.safeway.com/wa/bothell-535.html", "phone": "4254831060", "address": "20711 Bothell Hwy"}, "geometry": {"type": "Point", "coordinates": [-122.2076416, 47.8100586]}}, {"type": "Feature", "properties": {"id": 11575623904, "name": "Ruth Freeman, MD", "category": "clinic", "tags": ["clinic"], "sources": ["osm"], "address": "1908 201st Place Southeast"}, "geometry": {"type": "Point", "coordinates": [-122.2065917, 47.8157283]}}, {"type": "Feature", "properties": {"id": 430872144, "name": "Wells Fargo", "category": "bank", "tags": ["bank", "drive-through"], "sources": ["osm"]}, "geometry": {"type": "Point", "coordinates": [-122.2066323, 47.8115231]}}, {"type": "Feature", "properties": {"id": 7512391957, "name": "BECU", "category": "bank", "tags": ["bank"], "sources": ["osm"]}, "geometry": {"type": "Point", "coordinates": [-122.2070318, 47.8108546]}}, {"type": "Feature", "properties": {"id": 584340200, "name": "Sound Credit Union", "category": "bank", "tags": ["bank"], "sources": ["osm"]}, "geometry": {"type": "Point", "coordinates": [-122.2070376, 47.8143529]}}, {"type": "Feature", "properties": {"id": 6268297987, "name": "Postal Boxes Plus", "category": "post_office", "tags": ["post-office"], "sources": ["osm"]}, "geometry": {"type": "Point", "coordinates": [-122.2067257, 47.810697]}}, {"type": "Feature", "properties": {"id": "db9b5fdb-858b-4444-999a-34bae76c8c6d", "name": "Wells Fargo ATM", "category": "bank", "tags": ["bank", "credit", "union"], "sources": ["overture"], "website": "https://www.wellsfargo.com/locator/bank/20609__BOTHELL__EVERETT__HWY_BOTHELL_WA_98012/", "phone": "8008693557", "address": "20609 Bothell Everett Hwy"}, "geometry": {"type": "Point", "coordinates": [-122.2075577, 47.8119545]}}, {"type": "Feature", "properties": {"id": "1acbed17-9328-46ea-8ef0-9d6ed17f2b4a", "name": "Postal Boxes Inc", "category": "post_office", "tags": ["post-office", "office"], "sources": ["overture"], "website": "http://www.postalboxesplus.co", "phone": "(425) 487-1598", "address": "20611 Bothell Everett Hwy"}, "geometry": {"type": "Point", "coordinates": [-122.2069168, 47.8106804]}}, {"type": "Feature", "properties": {"id": 11575623903, "name": "Northwest CardioFit", "category": "fitness_centre", "tags": ["fitness-centre", "fitness"], "sources": ["osm"], "phone": "+1-206-427-2899", "address": "1908 201st Place Southeast"}, "geometry": {"type": "Point", "coordinates": [-122.2065864, 47.8155393]}}, {"type": "Feature", "properties": {"id": 430836833, "name": "Hot Tub", "category": "swimming_pool", "tags": ["swimming-pool"], "sources": ["osm"]}, "geometry": {"type": "Point", "coordinates": [-122.2063753, 47.8176289]}}, {"type": "Feature", "properties": {"id": "40665628-e901-4af2-9a8d-8a8a9c04af0e", "name": "bridges at northcreek gym", "category": "fitness_centre", "tags": ["fitness-centre", "gym"], "sources": ["overture"], "website": "http://www.bridgesatnorthcreek.com", "phone": "(888) 356-7661", "address": "20225 Bothell Everett Hwy"}, "geometry": {"type": "Point", "coordinates": [-122.2027435, 47.8159828]}}]}