{"type": "FeatureCollection", "features": [{"type": "Feature", "properties": {"id": 295233657, "name": "Tokyo Japanese Steakhouse", "category": "restaurant", "tags": ["restaurant", "japanese", "steak-house", "asian"], "sources": ["osm", "overture"], "website": "http://www.wtjsh.com", "phone": "+14254888786", "address": "13317 NE 175th St"}, "geometry": {"type": "Point", "coordinates": [-122.1610534, 47.7533933]}}, {"type": "Feature", "properties": {"id": 295233659, "name": "Racha Thai Cuisine", "category": "restaurant", "tags": ["restaurant", "thai", "asian"], "sources": ["osm", "overture"], "website": "http://www.order.rachawoodinville.com/", "phone": "+14254818833", "address": "13317 NE 175th St"}, "geometry": {"type": "Point", "coordinates": [-122.1602725, 47.7533823]}}, {"type": "Feature", "properties": {"id": "8d35d776-6bd7-4831-904e-87adc114b9fb", "name": "Starbucks", "category": "cafe", "tags": ["cafe", "coffee"], "sources": ["overture"], "website": "https://www.starbucks.com/store-locator/store/9006", "phone": "4257889150", "address": "19150 NE Woodinville Duvall Rd"}, "geometry": {"type": "Point", "coordinates": [-122.1699524, 47.7530479]}}, {"type": "Feature", "properties": {"id": 85681738, "name": "Mercurys Coffee Co.", "category": "cafe", "tags": ["cafe", "coffee-shop", "takeaway", "coffee"], "sources": ["osm", "overture"], "website": "http://mercuryscoffee.com", "phone": "+14254081271", "address": "12801 NE 175th St", "hours": "Mo-Th 04:30-20:00, Fr 04:30-21:00, Sa 05:00-21:00, Su 05:00-20:00"}, "geometry": {"type": "Point", "coordinates": [-122.1685429, 47.7533607]}}, {"type": "Feature", "properties": {"id": 614320960, "name": "Irene Thai", "category": "restaurant", "tags": ["restaurant", "thai"], "sources": ["osm"]}, "geometry": {"type": "Point", "coordinates": [-122.1625807, 47.7554222]}}, {"type": "Feature", "properties": {"id": "ba05eac8-04b4-4957-8eab-eeca3d16eae6", "name": "Las Margaritas", "category": "restaurant", "tags": ["restaurant", "mexican"], "sources": ["overture"], "website": "http://www.restaurantmitierra.com", "phone": "(425) 483-5656", "address": "13400 NE 175th St"}, "geometry": {"type": "Point", "coordinates": [-122.1605682, 47.755043]}}, {"type": "Feature", "properties": {"id": 994058853, "name": "Cut Shop", "category": "restaurant", "tags": ["restaurant"], "sources": ["osm"], "website": "https://www.woodinvillecutshop.com/", "address": "12801 Northeast 175th Street", "hours": "Tu-Th 16:00-24:00;Fr-Sa 11:00-2:00,Su 11:00-21:00;Mo off"}, "geometry": {"type": "Point", "coordinates": [-122.1690483, 47.7531228]}}, {"type": "Feature", "properties": {"id": 1680933441, "name": "Pho 175 Viernamese Noodle & Grill", "category": "restaurant", "tags": ["restaurant", "vietnamese"], "sources": ["osm"], "phone": "+1-425-486-9699"}, "geometry": {"type": "Point", "coordinates": [-122.1610678, 47.7534843]}}, {"type": "Feature", "properties": {"id": 2296076124, "name": "Collective on Tap", "category": "bar", "tags": ["bar"], "sources": ["osm"], "website": "http://collectiveontap.com/", "phone": "+1-425-488-2795", "address": "17802 134th Avenue Northeast", "hours": "Mo 15:00-23:00; Tu-Sa 11:00-23:00; Su 11:00-21:00"}, "geometry": {"type": "Point", "coordinates": [-122.1604269, 47.7579334]}}, {"type": "Feature", "properties": {"id": 537103286, "name": "Taco Bell", "category": "fast_food", "tags": ["fast-food", "tex-mex", "takeaway", "fast", "food", "taco", "mexican"], "sources": ["osm", "overture"], "website": "http://www.tacobell.com/", "phone": "+14254024707", "address": "13405 NE 175th St", "hours": "Mo-Th 07:00-02:00; Fr-Sa 07:00-03:00; Su 07:00-02:00"}, "geometry": {"type": "Point", "coordinates": [-122.1603186, 47.7541115]}}, {"type": "Feature", "properties": {"id": 12368903441, "name": "King's Teriyaki", "category": "restaurant", "tags": ["restaurant", "teriyaki", "japanese", "2", "takeaway", "asian"], "sources": ["osm", "overture"], "website": "http://restaurantselects.com/KingsTeriyaki", "phone": "+14254882322", "address": "13317 NE 175th St"}, "geometry": {"type": "Point", "coordinates": [-122.1604616, 47.7533805]}}, {"type": "Feature", "properties": {"id": "4985fc73-00d4-41e3-ae65-9365eed02419", "name": "Pizza Hut Express", "category": "restaurant", "tags": ["restaurant", "pizza"], "sources": ["overture"], "phone": "4254024707", "address": "13405 NE 175th St"}, "geometry": {"type": "Point", "coordinates": [-122.1603012, 47.754097]}}, {"type": "Feature", "properties": {"id": 11450832054, "name": "Walla Walla Steack Co", "category": "restaurant", "tags": ["restaurant"], "sources": ["osm"], "website": "https://wwsteakco.com/woodinville-wa/"}, "geometry": {"type": "Point", "coordinates": [-122.1629603, 47.7542219]}}, {"type": "Feature", "properties": {"id": 11450832055, "name": "Crossbuck Brewing", "category": "pub", "tags": ["pub", "microbrew"], "sources": ["osm"], "website": "https://crossbuckbrewing.com/"}, "geometry": {"type": "Point", "coordinates": [-122.1627675, 47.7541906]}}, {"type": "Feature", "properties": {"id": 11450832056, "name": "Ballard Pizza Company - Woodinville", "category": "restaurant", "tags": ["restaurant", "pizza", "vegetarian"], "sources": ["osm"], "website": "https://ballardpizzacompany.com/location/woodinville", "phone": "+1-425-537-7222", "address": "17401 133rd Avenue Northeast", "hours": "Mo-Th 16:00-21:00; Fr 16:00-22:00; Sa 11:00-22:00; Su 11:00-21:00"}, "geometry": {"type": "Point", "coordinates": [-122.1632869, 47.7532338]}}, {"type": "Feature", "properties": {"id": "6ba0102e-329f-49fa-8e7f-78fdbf99bdee", "name": "Ballard Pizza Company - Woodinville", "category": "restaurant", "tags": ["restaurant", "pizza"], "sources": ["overture"], "website": "https://ethanstowellrestaurants.com/restaurants/ballard-pizza-co-woodinville", "phone": "4255377222", "address": "17401 133rd Ave NE"}, "geometry": {"type": "Point", "coordinates": [-122.1620941, 47.7535515]}}, {"type": "Feature", "properties": {"id": 11450832060, "name": "Pintxo", "category": "restaurant", "tags": ["restaurant"], "sources": ["osm"], "website": "https://www.pintxobyvaldemar.com/"}, "geometry": {"type": "Point", "coordinates": [-122.1622777, 47.7534991]}}, {"type": "Feature", "properties": {"id": 11450832061, "name": "McQueen Champagne Bar", "category": "bar", "tags": ["bar", "wine"], "sources": ["osm", "overture"], "website": "https://www.mcqueenchampagnebar.com", "phone": "(661) 772-7559", "address": "17405 133rd Ave NE, Ste 1101, Woodinville, WA 98072"}, "geometry": {"type": "Point", "coordinates": [-122.1626349, 47.7534824]}}, {"type": "Feature", "properties": {"id": 11450832063, "name": "Nutty Squirrel Gelato", "category": "ice_cream", "tags": ["ice-cream", "gelato"], "sources": ["osm", "overture"], "website": "http://www.nuttysquirrel.com", "phone": "+12064228416", "address": "17409 133rd Ave NE"}, "geometry": {"type": "Point", "coordinates": [-122.1623772, 47.7542326]}}, {"type": "Feature", "properties": {"id": 12118872470, "name": "Rainbrew", "category": "pub", "tags": ["pub", "microbrew", "bar", "brewery"], "sources": ["osm", "overture"], "website": "http://www.rainbrew.com/", "phone": "+12065694456", "address": "12826 NE 178th St"}, "geometry": {"type": "Point", "coordinates": [-122.1672004, 47.7570165]}}, {"type": "Feature", "properties": {"id": 12368903429, "name": "The Pizza Coop & Ale House", "category": "restaurant", "tags": ["restaurant", "pizza"], "sources": ["osm"], "website": "https://thepizzacoop.com", "phone": "+1-425-242-3781", "hours": "We-Th 11:00-22:00; Fr-Sa 11:00-23:00; Su-Tu 11:00-21:30"}, "geometry": {"type": "Point", "coordinates": [-122.1611514, 47.7540198]}}, {"type": "Feature", "properties": {"id": 12368903432, "name": "Tealogy", "category": "cafe", "tags": ["cafe", "bubble-tea"], "sources": ["osm"]}, "geometry": {"type": "Point", "coordinates": [-122.1611432, 47.7538643]}}, {"type": "Feature", "properties": {"id": 26930470, "name": "Jack in the Box", "category": "fast_food", "tags": ["fast-food", "burger", "takeaway", "drive-through", "fast", "food"], "sources": ["osm", "overture"], "website": "https://www.jackinthebox.com", "phone": "+14254864580", "address": "17445 131st Ave NE", "hours": "24/7"}, "geometry": {"type": "Point", "coordinates": [-122.1658905, 47.7536367]}}, {"type": "Feature", "properties": {"id": 27915635, "name": "DQ Grill & Chill", "category": "fast_food", "tags": ["fast-food", "ice-cream", "burger", "takeaway"], "sources": ["osm"], "website": "https://www.dairyqueen.com/locations/wa/woodinville/17831-131st-ave-ne/2333", "phone": "+1-425-483-3688", "address": "17831 131st Avenue Northeast"}, "geometry": {"type": "Point", "coordinates": [-122.1652988, 47.7571629]}}, {"type": "Feature", "properties": {"id": "4d63b104-12c0-4361-8b95-6dfe4a1cb196", "name": "Dairy Queen Grill and Chill", "category": "fast_food", "tags": ["fast-food", "fast", "food"], "sources": ["overture"], "website": "https://www.dairyqueen.com/en-us/locations/wa/woodinville/17831-131st-ave-ne/2333/?utm_source=organic&utm_campaign=yext%2F&y_source=1_ODk5NTg0Ny01NTktbG9jYXRpb24ud2Vic2l0ZQ%3D%3D", "phone": "+14254833688", "address": "17831 131st Ave NE"}, "geometry": {"type": "Point", "coordinates": [-122.1652069, 47.7572021]}}, {"type": "Feature", "properties": {"id": "d57aa470-c207-4f9f-b923-c2a280785efd", "name": "Ballard Pizza Company", "category": "restaurant", "tags": ["restaurant", "pizza"], "sources": ["overture"], "website": "https://ethanstowellrestaurants.com/restaurants/ballard-pizza-co-woodinville", "phone": "4255377222", "address": "17401 133rd Ave NE"}, "geometry": {"type": "Point", "coordinates": [-122.1631851, 47.7538109]}}, {"type": "Feature", "properties": {"id": "f8b23316-956a-4989-aee1-6055116ebfbc", "name": "The Ultimate Melt", "category": "fast_food", "tags": ["fast-food", "food", "truck"], "sources": ["overture"], "website": "http://theultimatemelt.com", "phone": "(425) 269-4655"}, "geometry": {"type": "Point", "coordinates": [-122.1661301, 47.7532463]}}, {"type": "Feature", "properties": {"id": "5f46162e-84fa-4750-8674-fb972d93a27c", "name": "Mercury's Madness", "category": "cafe", "tags": ["cafe", "coffee"], "sources": ["overture"], "website": "http://mercuryscoffee.com", "phone": "(425) 806-3809", "address": "13110 NE 177th Pl Ste A"}, "geometry": {"type": "Point", "coordinates": [-122.1648712, 47.755928]}}, {"type": "Feature", "properties": {"id": "53af5c50-8e66-4ec1-83d5-0878918344fc", "name": "Montinore Estate and Landlines Estates Tasting Room", "category": "bar", "tags": ["bar", "wine"], "sources": ["overture"], "website": "https://www.montinore.com/woodinville", "phone": "4252866761", "address": "17401 133rd Ave NE Ste 1012"}, "geometry": {"type": "Point", "coordinates": [-122.1631851, 47.7537956]}}, {"type": "Feature", "properties": {"id": "89beb3ea-f901-423d-b576-dfb3a88007cd", "name": "SheChill Patisserie", "category": "bakery", "tags": ["bakery"], "sources": ["overture"], "website": "http://SheChill.square.site/", "phone": "+14253406618", "address": "17401 133rd Ave NE"}, "geometry": {"type": "Point", "coordinates": [-122.1630478, 47.7533493]}}, {"type": "Feature", "properties": {"id": "0643d17c-55e0-4b1c-a0fb-bfa74ff64e96", "name": "Pho175  Woodinville, WA", "category": "restaurant", "tags": ["restaurant", "asian", "vietnamese"], "sources": ["overture"], "website": "http://www.pho175.com/", "phone": "+14254869699", "address": "13317 NE 175th St"}, "geometry": {"type": "Point", "coordinates": [-122.1611862, 47.7534637]}}, {"type": "Feature", "properties": {"id": "44f69acb-aab9-4e98-a3b8-68e73c018202", "name": "175 Pho", "category": "restaurant", "tags": ["restaurant", "vietnamese", "asian", "noodles"], "sources": ["overture"], "website": "http://www.pho175.com/", "phone": "+14254869699", "address": "13317 NE 175th St"}, "geometry": {"type": "Point", "coordinates": [-122.1610184, 47.7534943]}}, {"type": "Feature", "properties": {"id": "2eed66b1-c970-460e-b02c-f3e09656ba45", "name": "Pho 175", "category": "restaurant", "tags": ["restaurant", "vietnamese"], "sources": ["overture"], "website": "https://www.pho175.com", "phone": "(425) 486-9699", "address": "13317 NE 175th St"}, "geometry": {"type": "Point", "coordinates": [-122.1611786, 47.7534981]}}, {"type": "Feature", "properties": {"id": "eb8720d5-6e30-47a0-a951-f8b588c508ef", "name": "Woodinville Bodega", "category": "restaurant", "tags": ["restaurant", "poke", "asian"], "sources": ["overture"], "website": "http://woodinvillebodega.square.site/", "phone": "+14259547280", "address": "17410 133rd Ave NE"}, "geometry": {"type": "Point", "coordinates": [-122.1616211, 47.7534752]}}, {"type": "Feature", "properties": {"id": "511890d2-4f24-4434-a944-5666b3e8548c", "name": "Caf\u00e9 Dupar", "category": "cafe", "tags": ["cafe", "coffee"], "sources": ["overture"], "website": "http://cafedupar.com/", "phone": "4252841178", "address": "17401 133 Ave NE Ste 1002"}, "geometry": {"type": "Point", "coordinates": [-122.1621475, 47.7534904]}}, {"type": "Feature", "properties": {"id": "e6568e09-ce5d-45b2-bfda-778c2f2a7898", "name": "Valdemar Estates", "category": "bar", "tags": ["bar", "wine"], "sources": ["overture"], "website": "http://www.valdemarestates.com", "phone": "(425) 364-4648", "address": "17401 133rd Ave NE"}, "geometry": {"type": "Point", "coordinates": [-122.1622543, 47.7538452]}}, {"type": "Feature", "properties": {"id": "aa050a36-db96-48c5-bd2e-40c91dd471e5", "name": "The Pizza Coop and Ale House", "category": "restaurant", "tags": ["restaurant", "pizza", "american"], "sources": ["overture"], "website": "http://www.thepizzacoop.com/", "phone": "+14254158415", "address": "13317 NE 175th St"}, "geometry": {"type": "Point", "coordinates": [-122.1611023, 47.7539749]}}, {"type": "Feature", "properties": {"id": "1ef21f3f-f7ac-4109-8400-181fef5bf6ce", "name": "Route 522 Taproom", "category": "restaurant", "tags": ["restaurant", "bar-and-grill", "bar", "grill"], "sources": ["overture"], "website": "http://Route522taproom.com/", "phone": "+14254080127", "address": "17802 134th Ave NE"}, "geometry": {"type": "Point", "coordinates": [-122.1604691, 47.7578354]}}, {"type": "Feature", "properties": {"id": "dd87c920-84fc-421c-ab12-9a59c7c2ad99", "name": "The Collective on Tap", "category": "bar", "tags": ["bar", "beer"], "sources": ["overture"], "website": "http://collectiveontap.com", "phone": "(425) 488-2795", "address": "17802 134th Ave NE"}, "geometry": {"type": "Point", "coordinates": [-122.1604156, 47.7578621]}}, {"type": "Feature", "properties": {"id": "bdc416ff-b01b-4d38-9292-c50e64f23793", "name": "Seattle Cinnamon Roll Co.", "category": "bakery", "tags": ["bakery"], "sources": ["overture"], "phone": "+14259390541", "address": "13410 NE 175th St"}, "geometry": {"type": "Point", "coordinates": [-122.1600418, 47.7547455]}}, {"type": "Feature", "properties": {"id": "c3a57ea4-990f-4057-8599-f9244103315a", "name": "Mi Tierra", "category": "restaurant", "tags": ["restaurant", "mexican"], "sources": ["overture"], "website": "http://www.restaurantmitierra.com/", "phone": "4254835656", "address": "13400 NE 175th St"}, "geometry": {"type": "Point", "coordinates": [-122.1602936, 47.7545586]}}, {"type": "Feature", "properties": {"id": "610ce4e2-9948-46fd-b108-b72f1b1f3e49", "name": "Hacienda Guadalajara", "category": "restaurant", "tags": ["restaurant", "mexican"], "sources": ["overture"], "website": "https://www.lahaciendaguadalajara.com", "phone": "(425) 483-5656", "address": "13400 NE 175th St Ste A"}, "geometry": {"type": "Point", "coordinates": [-122.1605453, 47.754715]}}, {"type": "Feature", "properties": {"id": "43bc1158-4643-458d-8a93-8041344e9ac0", "name": "Indian Palace", "category": "restaurant", "tags": ["restaurant", "indian"], "sources": ["overture"], "website": "http://indianpalacecuisine.com/", "phone": "(425) 483-6888", "address": "13330 NE 175th St"}, "geometry": {"type": "Point", "coordinates": [-122.1612549, 47.7555695]}}, {"type": "Feature", "properties": {"id": "159d4ec1-ee3b-407a-b6b6-62bb44782ea1", "name": "Cookhouse Restaurant & Bar", "category": "restaurant", "tags": ["restaurant"], "sources": ["overture"], "website": "http://www.indianpalacecuisine.com", "phone": "(425) 483-6888", "address": "13330 NE 175th St"}, "geometry": {"type": "Point", "coordinates": [-122.1612549, 47.7555695]}}, {"type": "Feature", "properties": {"id": "ce1611f6-0694-44fa-8699-e5de4ea7a4be", "name": "Gobble", "category": "restaurant", "tags": ["restaurant", "comfort-food", "comfort", "food"], "sources": ["overture"], "website": "http://gobblerestaurant.com", "phone": "(425) 486-1486", "address": "13300 NE 175th St #3"}, "geometry": {"type": "Point", "coordinates": [-122.1613235, 47.7555389]}}, {"type": "Feature", "properties": {"id": "ac13fdae-53dd-49a4-92f6-efeb7f9558de", "name": "Irene Thai Cuisine", "category": "restaurant", "tags": ["restaurant", "thai", "asian"], "sources": ["overture"], "website": "http://www.irenesthaicuisine.com/", "phone": "+14254028228", "address": "17530 132nd Ave NE"}, "geometry": {"type": "Point", "coordinates": [-122.1625977, 47.7553101]}}, {"type": "Feature", "properties": {"id": "f7acbf97-85fe-4f80-8ac2-265ef6ce98f7", "name": "Walla Walla Steak Co - Woodinville", "category": "bar", "tags": ["bar"], "sources": ["overture"], "website": "http://www.wwsteakco.com/", "phone": "4252853659", "address": "13205 NE 175th St."}, "geometry": {"type": "Point", "coordinates": [-122.1628342, 47.754467]}}, {"type": "Feature", "properties": {"id": "658821bf-6726-4e76-a710-e1302c2dced0", "name": "Crossbuck Brewing & Taproom", "category": "bar", "tags": ["bar"], "sources": ["overture"], "website": "https://crossbuckbrewing.com/woodinville-wa/", "phone": "4252853659", "address": "13205 NE 175th St"}, "geometry": {"type": "Point", "coordinates": [-122.1628342, 47.754467]}}, {"type": "Feature", "properties": {"id": "a48e0a08-dbd6-4306-98b3-bff5cd3a92f3", "name": "Armadillo Barbecue", "category": "restaurant", "tags": ["restaurant", "barbecue"], "sources": ["overture"], "website": "http://www.armadillobbq.com", "phone": "(425) 481-1417", "address": "13109 NE 175th St"}, "geometry": {"type": "Point", "coordinates": [-122.1646118, 47.7543716]}}, {"type": "Feature", "properties": {"id": "5b928993-1598-4851-9d94-c3aff7b0eccd", "name": "Crucible Brewing - Woodinville Forge", "category": "bar", "tags": ["bar", "brewery"], "sources": ["overture"], "website": "http://www.cruciblebrewing.com/", "phone": "4254839855", "address": "12826 NE 178th St Ste C"}, "geometry": {"type": "Point", "coordinates": [-122.1677551, 47.7564125]}}, {"type": "Feature", "properties": {"id": "29ea7507-a4a2-4dd1-b240-699b00758d4d", "name": "Woodinville Cut Shop", "category": "restaurant", "tags": ["restaurant", "bar-and-grill", "bar", "grill", "american"], "sources": ["overture"], "website": "http://www.woodinvillecutshop.com/", "phone": "+14254081173", "address": "12801 NE 175th St"}, "geometry": {"type": "Point", "coordinates": [-122.169014, 47.7531319]}}, {"type": "Feature", "properties": {"id": 1226375599, "name": "Woodinville Wine Cellars", "category": "attraction", "tags": ["attraction", "winery", "wine", "bar"], "sources": ["osm", "overture"], "website": "http://www.woodinvillewine.com", "phone": "(425) 481-8860", "address": "17721 132nd Ave NE"}, "geometry": {"type": "Point", "coordinates": [-122.16371, 47.7567561]}}, {"type": "Feature", "properties": {"id": 9648922872, "name": "Cornucopia sculpture", "category": "artwork", "tags": ["artwork"], "sources": ["osm"]}, "geometry": {"type": "Point", "coordinates": [-122.1630889, 47.752754]}}, {"type": "Feature", "properties": {"id": 9648972165, "name": "Dancers sculpture", "category": "artwork", "tags": ["artwork"], "sources": ["osm"]}, "geometry": {"type": "Point", "coordinates": [-122.1666575, 47.7542548]}}, {"type": "Feature", "properties": {"id": "009af91a-fc5c-4f8c-bdb1-e0110973bdba", "name": "District Flats", "category": "attraction", "tags": ["attraction", "landmark", "historical", "building"], "sources": ["overture"], "website": "https://districtflatswoodinville.com/?utm_source=social&utm_medium=display&utm_iq=social", "phone": "+14255376632", "address": "17409 133rd Ave NE"}, "geometry": {"type": "Point", "coordinates": [-122.1621246, 47.7538757]}}, {"type": "Feature", "properties": {"id": "3846aa17-93c5-4d60-8cca-8eb05d8a7e92", "name": "MoltenWorks Glass Studio", "category": "gallery", "tags": ["gallery", "art"], "sources": ["overture"], "website": "http://www.moltenworksglass.com", "phone": "(425) 999-2596", "address": "12810 NE 178th St Ste 103"}, "geometry": {"type": "Point", "coordinates": [-122.1678162, 47.7568436]}}, {"type": "Feature", "properties": {"id": 26618360, "name": "Wilmot Gateway Park", "category": "park", "tags": ["park"], "sources": ["osm", "overture"], "website": "http://www.ci.woodinville.wa.us/Play/WilmotGatewayPark.asp", "phone": "+14254892700", "address": "17301 131st Ave NE"}, "geometry": {"type": "Point", "coordinates": [-122.1665456, 47.752786]}}, {"type": "Feature", "properties": {"id": "99c62605-af23-4078-9f0f-744b6e96e884", "name": "Woodin Creek Park", "category": "park", "tags": ["park"], "sources": ["overture"], "website": "http://ci.woodinville.wa.us", "phone": "+14254892700", "address": "17401 133rd Ave NE"}, "geometry": {"type": "Point", "coordinates": [-122.1638947, 47.750885]}}, {"type": "Feature", "properties": {"id": "4b422ea7-d836-4253-9788-51edc6e1cef3", "name": "Woodin Creek Park", "category": "park", "tags": ["park"], "sources": ["overture"], "website": "http://ci.woodinville.wa.us", "phone": "(425) 398-9327", "address": "17401 133rd Ave NE"}, "geometry": {"type": "Point", "coordinates": [-122.1626434, 47.7536697]}}, {"type": "Feature", "properties": {"id": "419f2557-99c9-4891-8bcc-cd0c61ec71bf", "name": "Carol Edwards Center", "category": "playground", "tags": ["playground"], "sources": ["overture"], "website": "http://www.ci.woodinville.wa.us", "phone": "(425) 398-9327", "address": "17401 133rd Ave NE"}, "geometry": {"type": "Point", "coordinates": [-122.1626434, 47.7536697]}}, {"type": "Feature", "properties": {"id": 306444451, "name": "Woodinville Bike", "category": "bicycle", "tags": ["bicycle"], "sources": ["osm"], "phone": "+1-425-483-6626", "address": "13210 Northeast 175th Street"}, "geometry": {"type": "Point", "coordinates": [-122.16242, 47.754694]}}, {"type": "Feature", "properties": {"id": 306444639, "name": "Play It Again Sports", "category": "sports", "tags": ["sports", "fitness", "soccer", "basketball", "baseball", "tennis", "skiing", "multi"], "sources": ["osm"], "website": "https://www.playitagainsportswoodinville.com/", "address": "13210 Northeast 175th Street", "hours": "Mo-Sa 10:00-19:30; Su 10:00-17:00"}, "geometry": {"type": "Point", "coordinates": [-122.162648, 47.754694]}}, {"type": "Feature", "properties": {"id": 26930452, "name": "ampm", "category": "convenience", "tags": ["convenience"], "sources": ["osm", "overture"], "website": "https://www.ampm.com/", "phone": "+14258922847", "address": "13023 NE 175th St"}, "geometry": {"type": "Point", "coordinates": [-122.1661054, 47.7540143]}}, {"type": "Feature", "properties": {"id": 27915713, "name": "McLendon Hardware", "category": "doityourself", "tags": ["doityourself", "wifi", "hardware"], "sources": ["osm", "overture"], "website": "http://mclendons.com/find-a-store/Woodinville", "phone": "+14254851363", "address": "17705 130th Ave NE", "hours": "Mo-Sa 07:00-20:00; Su 08:00-20:00"}, "geometry": {"type": "Point", "coordinates": [-122.1672558, 47.7559731]}}, {"type": "Feature", "properties": {"id": 5782063353, "name": "Aquatech", "category": "hardware", "tags": ["hardware"], "sources": ["osm"]}, "geometry": {"type": "Point", "coordinates": [-122.1637567, 47.7554416]}}, {"type": "Feature", "properties": {"id": "d144964a-affb-4e22-93bb-f1955d0bc7a3", "name": "Matheus Lumber", "category": "hardware", "tags": ["hardware"], "sources": ["overture"], "phone": "+14254829834", "address": "12800 NE 175th St"}, "geometry": {"type": "Point", "coordinates": [-122.1699142, 47.7532387]}}, {"type": "Feature", "properties": {"id": 11450832057, "name": "Barnard Griffin", "category": "wine", "tags": ["wine", "winery"], "sources": ["osm", "overture"], "website": "https://barnardgriffin.com", "phone": "+14256711176", "address": "17401 133rd Ave NE"}, "geometry": {"type": "Point", "coordinates": [-122.1625861, 47.753352]}}, {"type": "Feature", "properties": {"id": 11450832058, "name": "L'Ecole", "category": "wine", "tags": ["wine"], "sources": ["osm"], "website": "https://www.lecole.com/visit-us/"}, "geometry": {"type": "Point", "coordinates": [-122.162467, 47.7533558]}}, {"type": "Feature", "properties": {"id": 11450832059, "name": "Landlines Estates", "category": "wine", "tags": ["wine"], "sources": ["osm"], "website": "https://www.landlinesestates.com/woodinville"}, "geometry": {"type": "Point", "coordinates": [-122.1623037, 47.7533535]}}, {"type": "Feature", "properties": {"id": 11450855383, "name": "Montinore Estate", "category": "wine", "tags": ["wine"], "sources": ["osm"], "website": "https://www.montinore.com/woodinville"}, "geometry": {"type": "Point", "coordinates": [-122.1621536, 47.7533514]}}, {"type": "Feature", "properties": {"id": 12368903433, "name": "Smoke Shop Leaf Life", "category": "cannabis", "tags": ["cannabis"], "sources": ["osm"]}, "geometry": {"type": "Point", "coordinates": [-122.1611376, 47.7537748]}}, {"type": "Feature", "properties": {"id": 12368903436, "name": "proper & ernest", "category": "alcohol", "tags": ["alcohol"], "sources": ["osm", "overture"], "website": "http://www.properandernest.com", "phone": "+14254080670", "address": "13317 NE 175th St"}, "geometry": {"type": "Point", "coordinates": [-122.1609372, 47.7533802]}}, {"type": "Feature", "properties": {"id": 26944786, "name": "Jacksons", "category": "convenience", "tags": ["convenience"], "sources": ["osm"], "phone": "+1-425-483-8659", "address": "13106 Northeast 175th Street"}, "geometry": {"type": "Point", "coordinates": [-122.164687, 47.7548784]}}, {"type": "Feature", "properties": {"id": "13e78551-3ccd-4334-abc8-4d1dae2c63e8", "name": "Mallory Paint Store", "category": "doityourself", "tags": ["doityourself", "building", "supply"], "sources": ["overture"], "website": "http://mallorypaint.com/", "phone": "+14254876600", "address": "17823 131st Ave NE"}, "geometry": {"type": "Point", "coordinates": [-122.1658936, 47.7571297]}}, {"type": "Feature", "properties": {"id": "7bef61e4-ac93-4e2a-92eb-39a8512ee74e", "name": "Jacksons Food Stores", "category": "convenience", "tags": ["convenience"], "sources": ["overture"], "website": "http://www.jacksonsfoodstores.com/", "phone": "4254838659", "address": "13106 NE 175th St"}, "geometry": {"type": "Point", "coordinates": [-122.1646957, 47.754837]}}, {"type": "Feature", "properties": {"id": "2d34862e-ba97-446b-a596-a4057c5c9749", "name": "L\u2019Ecole Woodinville", "category": "wine", "tags": ["wine", "winery"], "sources": ["overture"], "website": "https://www.lecole.com/", "phone": "4255225022", "address": "17401 133rd Ave NE Ste 1010"}, "geometry": {"type": "Point", "coordinates": [-122.1624146, 47.7533455]}}, {"type": "Feature", "properties": {"id": "35df315c-4785-4a30-a8d4-e28bc7365228", "name": "Mullan Road Cellars", "category": "wine", "tags": ["wine", "winery"], "sources": ["overture"], "website": "http://www.mullanroadcellars.com/", "phone": "+14252866112", "address": "17401 133rd Ave NE"}, "geometry": {"type": "Point", "coordinates": [-122.1625595, 47.753376]}}, {"type": "Feature", "properties": {"id": "3768a21c-317e-41b6-9733-d965a5d741eb", "name": "The Gift Horse Saddlery", "category": "gift", "tags": ["gift"], "sources": ["overture"], "website": "http://www.gifthorsesaddlery.com", "phone": "(425) 481-2900", "address": "13300 NE 175th St"}, "geometry": {"type": "Point", "coordinates": [-122.1613235, 47.7555389]}}, {"type": "Feature", "properties": {"id": "9fd347d2-70ed-46a7-a5c6-e78a573c9069", "name": "Woodinville Veterinary Hospital & Urgent Care Services", "category": "clinic", "tags": ["clinic", "medical"], "sources": ["overture"], "website": "https://woodinvilleveterinary.com/", "phone": "4254811184", "address": "13317 NE 175th St Ste P"}, "geometry": {"type": "Point", "coordinates": [-122.1611633, 47.7544899]}}, {"type": "Feature", "properties": {"id": "d75eb81d-a1a1-4285-9376-ff2a720b936f", "name": "US Bank", "category": "bank", "tags": ["bank", "credit", "union"], "sources": ["overture"], "website": "http://www.usbank.com/", "phone": "4254026846", "address": "13216 NE 175th St"}, "geometry": {"type": "Point", "coordinates": [-122.1620178, 47.7544746]}}, {"type": "Feature", "properties": {"id": 1061753603, "name": "Pony Mailbox & Business Center", "category": "post_office", "tags": ["post-office"], "sources": ["osm"], "website": "https://www.ponymailbox.com", "phone": "+1-425-483-0360", "address": "13110 Northeast 177th Place", "hours": "Mo-Fr 09:00-18:00; Sa 09:00-13:00; PH off"}, "geometry": {"type": "Point", "coordinates": [-122.1648915, 47.7559441]}}, {"type": "Feature", "properties": {"id": 6656584370, "name": "Banner Bank", "category": "bank", "tags": ["bank"], "sources": ["osm"], "address": "17530 132nd Avenue Northeast"}, "geometry": {"type": "Point", "coordinates": [-122.1626746, 47.7556607]}}, {"type": "Feature", "properties": {"id": 26778207, "name": "Woodinville Post Office", "category": "post_office", "tags": ["post-office"], "sources": ["osm"], "address": "17610 Woodinville Snohomish Road Northeast", "hours": "Mo-Fr 08:30-18:00; Sa 09:00-15:00; Su off"}, "geometry": {"type": "Point", "coordinates": [-122.160059, 47.7560649]}}, {"type": "Feature", "properties": {"id": "e10edb55-718e-488b-8801-38862e7a1106", "name": "U.S. Bank ATM", "category": "bank", "tags": ["bank", "credit", "union"], "sources": ["overture"], "website": "http://www.usbank.com/locations", "phone": "8008722657", "address": "13216 NE 175th St"}, "geometry": {"type": "Point", "coordinates": [-122.1620178, 47.7544746]}}, {"type": "Feature", "properties": {"id": "49ba9209-75ee-478d-861b-8c9f606d2d81", "name": "Post Office Woodinville, WA", "category": "post_office", "tags": ["post-office", "office"], "sources": ["overture"], "website": "http://www.usps.com", "phone": "+14254870995", "address": "17610 Woodinville Snohomish Rd NE"}, "geometry": {"type": "Point", "coordinates": [-122.1600723, 47.7560577]}}, {"type": "Feature", "properties": {"id": 12368903442, "name": "Root 2 Rise Yoga", "category": "fitness_centre", "tags": ["fitness-centre", "yoga", "studio"], "sources": ["osm", "overture"], "website": "http://www.theRoot2RiseYoga.com/", "phone": "+14254867668", "address": "13317 NE 175th St"}, "geometry": {"type": "Point", "coordinates": [-122.160351, 47.7533822]}}, {"type": "Feature", "properties": {"id": "bd8d40fb-f118-4629-935b-cb3e91908e6e", "name": "Root 2 Rise Yoga", "category": "fitness_centre", "tags": ["fitness-centre", "yoga", "studio"], "sources": ["overture"], "website": "http://www.root2riseyogastudio.com", "phone": "(425) 486-7668", "address": "13317 NE 175th St"}, "geometry": {"type": "Point", "coordinates": [-122.1612396, 47.7541962]}}, {"type": "Feature", "properties": {"id": 12730374775, "name": "Woodinville Fit Body Bootcamp", "category": "fitness_centre", "tags": ["fitness-centre"], "sources": ["osm"]}, "geometry": {"type": "Point", "coordinates": [-122.1616277, 47.7536307]}}, {"type": "Feature", "properties": {"id": 27005798, "name": "YMCA", "category": "sports_centre", "tags": ["sports-centre"], "sources": ["osm"], "website": "https://www.seattleymca.org/locations/northshore-ymca/carol-edwards-center-woodinville"}, "geometry": {"type": "Point", "coordinates": [-122.1632063, 47.753827]}}, {"type": "Feature", "properties": {"id": "e355924f-ba60-48b3-a497-090680298b26", "name": "Progressive Performance", "category": "fitness_centre", "tags": ["fitness-centre", "gym"], "sources": ["overture"], "website": "http://progressiveperformance.com/", "phone": "+14256864369", "address": "17704 134th Ave NE"}, "geometry": {"type": "Point", "coordinates": [-122.1602554, 47.7572556]}}, {"type": "Feature", "properties": {"id": "08b83afa-f40d-4b46-8af3-6b463f254aed", "name": "Progressive Performance", "category": "fitness_centre", "tags": ["fitness-centre", "gym"], "sources": ["overture"], "website": "http://www.progressiveperformance.com", "phone": "(425) 686-4369", "address": "17530 132nd Ave NE Ste H"}, "geometry": {"type": "Point", "coordinates": [-122.1625214, 47.7553482]}}, {"type": "Feature", "properties": {"id": "654a27b7-b064-4ea6-a3ec-8070c3b3c6b8", "name": "5Strong Fitness", "category": "fitness_centre", "tags": ["fitness-centre", "gym"], "sources": ["overture"], "phone": "4258910680", "address": "13300 NE 175th St Ste 2"}, "geometry": {"type": "Point", "coordinates": [-122.1617889, 47.7545242]}}]}