{"type": "FeatureCollection", "features": [{"type": "Feature", "properties": {"id": 764023166, "name": "Taco Time", "category": "fast_food", "tags": ["fast-food", "mexican", "takeaway", "vegetarian"], "sources": ["osm"], "website": "https://tacotimenw.com/find-us/edmonds/", "address": "23904 Highway 99"}, "geometry": {"type": "Point", "coordinates": [-122.3448379, 47.7821719]}}, {"type": "Feature", "properties": {"id": 710893981, "name": "Subway", "category": "fast_food", "tags": ["fast-food", "sandwich", "takeaway", "restaurant"], "sources": ["osm", "overture"], "website": "http://www.subway.com/en-us", "phone": "+14255828064", "address": "23805 Highway 99", "hours": "24/7"}, "geometry": {"type": "Point", "coordinates": [-122.3434159, 47.7828773]}}, {"type": "Feature", "properties": {"id": 7137622524, "name": "Starbucks", "category": "cafe", "tags": ["cafe", "coffee-shop", "takeaway", "coffee"], "sources": ["osm", "overture"], "website": "https://www.starbucks.com/store-locator/store/8208", "phone": "+14257781411", "address": "23632 Highway 99"}, "geometry": {"type": "Point", "coordinates": [-122.3442827, 47.7844919]}}, {"type": "Feature", "properties": {"id": "5630d4a2-3fa6-495c-9e52-0478e0bc7e76", "name": "Manna Teriyaki", "category": "restaurant", "tags": ["restaurant", "japanese", "asian"], "sources": ["overture"], "website": "http://mannateriyaki.com", "phone": "+14256729555", "address": "23805 Highway 99"}, "geometry": {"type": "Point", "coordinates": [-122.343544, 47.7828026]}}, {"type": "Feature", "properties": {"id": 7660228572, "name": "Pizza Hut", "category": "restaurant", "tags": ["restaurant", "pizza", "fast-food"], "sources": ["osm", "overture"], "website": "https://locations.pizzahut.com/wa/edmonds/23830-highway-99?utm_medium=organic&utm_source=local&utm_campaign=yextpowerlistings&utm_content=website&utm_term=299474", "phone": "+14257768700", "address": "23830 Highway 99"}, "geometry": {"type": "Point", "coordinates": [-122.344391, 47.7826233]}}, {"type": "Feature", "properties": {"id": 7137622526, "name": "Papa Murphy's", "category": "fast_food", "tags": ["fast-food", "pizza", "takeaway"], "sources": ["osm"]}, "geometry": {"type": "Point", "coordinates": [-122.343022, 47.7848037]}}, {"type": "Feature", "properties": {"id": "6c20294c-0db9-404c-8573-6b9ce647330a", "name": "Papa Murphy's", "category": "restaurant", "tags": ["restaurant", "pizza"], "sources": ["overture"], "website": "https://locations.papamurphys.com/wa/edmonds/23632-highway-99", "phone": "+14257717272", "address": "23632 Highway 99"}, "geometry": {"type": "Point", "coordinates": [-122.3446884, 47.7845459]}}, {"type": "Feature", "properties": {"id": 7137622535, "name": "Teriyaki Way", "category": "restaurant", "tags": ["restaurant", "japanese", "asian"], "sources": ["osm", "overture"], "website": "http://www.teriyakiway.com/", "phone": "+14256723378", "address": "23632 Highway 99"}, "geometry": {"type": "Point", "coordinates": [-122.344921, 47.7835853]}}, {"type": "Feature", "properties": {"id": 7137694156, "name": "Hosoonyi", "category": "restaurant", "tags": ["restaurant", "korean"], "sources": ["osm"]}, "geometry": {"type": "Point", "coordinates": [-122.3448189, 47.7829092]}}, {"type": "Feature", "properties": {"id": 7660228570, "name": "Dumpling Generation", "category": "restaurant", "tags": ["restaurant", "chinese", "asian"], "sources": ["osm", "overture"], "website": "http://dumplinggeneration.com/", "phone": "+14256780806", "address": "23830 Highway 99"}, "geometry": {"type": "Point", "coordinates": [-122.3447626, 47.7827418]}}, {"type": "Feature", "properties": {"id": 262905840, "name": "Family Pancake House", "category": "restaurant", "tags": ["restaurant", "american", "indoor-seating", "air-conditioned", "theme", "breakfast-and-brunch"], "sources": ["osm", "overture"], "website": "http://www.familypancakehouse.com/", "phone": "+14257756300", "address": "23725 Highway 99", "hours": "Mo-Su 06:30-20:00"}, "geometry": {"type": "Point", "coordinates": [-122.3425505, 47.7837941]}}, {"type": "Feature", "properties": {"id": "d595743d-a5af-4e2c-a0d8-89741fdd21a5", "name": "Beehive Espresso", "category": "cafe", "tags": ["cafe", "coffee"], "sources": ["overture"], "website": "https://www.chamberofcommerce.com/.../11890987-the-beehive-espresso", "phone": "+14257755294", "address": "23830 Highway 99"}, "geometry": {"type": "Point", "coordinates": [-122.3443375, 47.7829552]}}, {"type": "Feature", "properties": {"id": "eb765bd0-6409-43b3-a89f-b4fe93ba76d5", "name": "Taco Time NW", "category": "fast_food", "tags": ["fast-food", "fast", "food", "taco", "mexican"], "sources": ["overture"], "website": "https://order.tacotimenw.com/menu/edmonds", "phone": "+14257750110", "address": "23904 Highway 99"}, "geometry": {"type": "Point", "coordinates": [-122.344841, 47.7822151]}}, {"type": "Feature", "properties": {"id": "e8a1740d-29dc-430a-b68b-acda28d36839", "name": "Stars In the Sky", "category": "restaurant", "tags": ["restaurant"], "sources": ["overture"], "website": "http://starsintheskywa.com/", "phone": "4255828802", "address": "23830 Highway 99 Ste 121"}, "geometry": {"type": "Point", "coordinates": [-122.3445892, 47.7828636]}}, {"type": "Feature", "properties": {"id": "80394c9d-d3b0-44ba-9be9-2af00ccbd23c", "name": "Hosoonyi Korean Restaurant", "category": "restaurant", "tags": ["restaurant", "korean", "asian"], "sources": ["overture"], "website": "http://www.hosoonyitofu.us/", "phone": "+14257758196", "address": "23830 Highway 99"}, "geometry": {"type": "Point", "coordinates": [-122.3447342, 47.7828331]}}, {"type": "Feature", "properties": {"id": "4d86f90e-2249-4674-a447-08b552483e3a", "name": "Nana", "category": "restaurant", "tags": ["restaurant"], "sources": ["overture"], "phone": "(425) 776-3380", "address": "23830 Highway 99"}, "geometry": {"type": "Point", "coordinates": [-122.3448792, 47.7827034]}}, {"type": "Feature", "properties": {"id": "bbd7b9e5-70ed-4e03-bca3-601943bd98a3", "name": "Yummy Box", "category": "fast_food", "tags": ["fast-food", "food", "truck", "asian"], "sources": ["overture"], "website": "http://www.yummyboxfoodtruck.com/", "address": "23916 Highway 99"}, "geometry": {"type": "Point", "coordinates": [-122.3451309, 47.7818031]}}, {"type": "Feature", "properties": {"id": "2812d1a7-4d5b-4d9c-aefb-93110cd0f7f7", "name": "Papa Murphy's Take 'N' Bake Pizza", "category": "restaurant", "tags": ["restaurant", "pizza"], "sources": ["overture"], "website": "https://order.papamurphys.com/menu/papa-murphys-hwy-99", "phone": "4257717272", "address": "23632 Highway 99 Ste A1"}, "geometry": {"type": "Point", "coordinates": [-122.3430023, 47.7847939]}}, {"type": "Feature", "properties": {"id": "ef089c21-439b-4b50-8cc9-b0cfb8f96efc", "name": "Taqueria Los Amigos", "category": "restaurant", "tags": ["restaurant", "mexican", "fast-food"], "sources": ["overture"], "website": "https://www.mapquest.com/.../taquerias-los-amigos-taco-truck-285030241", "phone": "+14252934547", "address": "24111 Highway 99"}, "geometry": {"type": "Point", "coordinates": [-122.3436356, 47.780323]}}, {"type": "Feature", "properties": {"id": "9f6ba541-3e63-41cd-a48f-7995aafe0b05", "name": "Chicken Prince", "category": "restaurant", "tags": ["restaurant", "chicken"], "sources": ["overture"], "website": "http://www.starsintheskywa.com/", "phone": "+14255828802", "address": "23830 Highway 99"}, "geometry": {"type": "Point", "coordinates": [-122.344574, 47.7828979]}}, {"type": "Feature", "properties": {"id": "5da2d54e-f85f-4566-b877-298329cfa73f", "name": "The Beehive Espresso", "category": "cafe", "tags": ["cafe", "coffee"], "sources": ["overture"], "phone": "(425) 775-5294", "address": "23830 Highway 99"}, "geometry": {"type": "Point", "coordinates": [-122.3443375, 47.7829552]}}, {"type": "Feature", "properties": {"id": "2fa05dcf-0495-4def-8a18-1c01e95ca957", "name": "Mick Finster's Pub & Grill", "category": "bar", "tags": ["bar"], "sources": ["overture"], "website": "http://www.mickfinsters.com", "phone": "(425) 775-2121", "address": "24001 Highway 99"}, "geometry": {"type": "Point", "coordinates": [-122.3441162, 47.7811699]}}, {"type": "Feature", "properties": {"id": "2039ed23-ff1d-4a63-abbf-0c3eb885f78e", "name": "Rib-O-Lator BBQ Rotisserie", "category": "restaurant", "tags": ["restaurant", "barbecue"], "sources": ["overture"], "website": "http://www.ribolator.com/", "phone": "+12069990962", "address": "23632 Highway 99"}, "geometry": {"type": "Point", "coordinates": [-122.3440552, 47.7844086]}}, {"type": "Feature", "properties": {"id": "453787be-69a2-4382-97d6-618a3d9473f9", "name": "Caffe Mocha", "category": "restaurant", "tags": ["restaurant"], "sources": ["overture"], "website": "http://events.seattlepi.com", "phone": "(425) 778-5166", "address": "23632 Highway 99 Ste S"}, "geometry": {"type": "Point", "coordinates": [-122.3443909, 47.7846184]}}, {"type": "Feature", "properties": {"id": "3aa40ee8-5b1a-4daa-87d2-5e0c7fec3c56", "name": "Edmonds Gateway Apartments", "category": "attraction", "tags": ["attraction", "landmark", "historical", "building"], "sources": ["overture"], "website": "https://www.edmondsgatewayapts.com/", "phone": "+18332855089", "address": "8610 240th St SW"}, "geometry": {"type": "Point", "coordinates": [-122.3493958, 47.7809448]}}, {"type": "Feature", "properties": {"id": "9af52a33-7c19-4ef4-b3e3-59257cb2f49a", "name": "Hazel Apartments", "category": "attraction", "tags": ["attraction", "landmark", "historical", "building"], "sources": ["overture"], "website": "https://www.liveathazel.com/", "phone": "+18555220569", "address": "23400 Highway 99"}, "geometry": {"type": "Point", "coordinates": [-122.3414612, 47.7870407]}}, {"type": "Feature", "properties": {"id": 12152828201, "name": "Econo Lodge Edmonds North Seattle", "category": "motel", "tags": ["motel", "wifi", "hotel"], "sources": ["osm", "overture"], "website": "https://www.choicehotels.com/washington/edmonds/econo-lodge-hotels/wa422", "phone": "4257718008", "address": "23825 Highway 99", "hours": "24/7"}, "geometry": {"type": "Point", "coordinates": [-122.3431552, 47.7824663]}}, {"type": "Feature", "properties": {"id": "578df407-2be6-40b7-adf8-fce413474c2c", "name": "Golden West Motel", "category": "motel", "tags": ["motel"], "sources": ["overture"], "website": "http://goldenwestmotel.us", "phone": "+14257713447", "address": "23916 Highway 99"}, "geometry": {"type": "Point", "coordinates": [-122.345253, 47.7819405]}}, {"type": "Feature", "properties": {"id": "94579b23-299e-4a61-aae9-25de1515d146", "name": "K and E Motor Inn", "category": "motel", "tags": ["motel"], "sources": ["overture"], "website": "http://kemotorinn.com", "phone": "+14257782181", "address": "23921 Highway 99"}, "geometry": {"type": "Point", "coordinates": [-122.3439407, 47.7819824]}}, {"type": "Feature", "properties": {"id": "cd9556b9-c4cb-4ed1-a7d3-aa26b0a2efd4", "name": "Travelodge by Wyndham Seattle North/Edmonds", "category": "hotel", "tags": ["hotel"], "sources": ["overture"], "website": "https://www.wyndhamhotels.com/travelodge/edmonds-washington/travelodge-seattle-north-edmonds/overview?CID=LC:TL::BING:RIO:National:09538&iata=00093796", "phone": "4257718008", "address": "23825 Highway 99"}, "geometry": {"type": "Point", "coordinates": [-122.3436737, 47.78302]}}, {"type": "Feature", "properties": {"id": "181d8bf7-fbb0-428a-83bb-a71f04ead838", "name": "St Frances Motel", "category": "motel", "tags": ["motel"], "sources": ["overture"], "phone": "+14257750496", "address": "23905 Highway 99"}, "geometry": {"type": "Point", "coordinates": [-122.3437195, 47.7822723]}}, {"type": "Feature", "properties": {"id": "81c5b27e-c824-4d77-89e6-2c029e05613f", "name": "7-Eleven", "category": "convenience", "tags": ["convenience"], "sources": ["overture"], "website": "https://www.7-eleven.com/locations/wa/edmonds/8101-238th-st-sw-25334", "phone": "4257759811", "address": "8101 238th St SW"}, "geometry": {"type": "Point", "coordinates": [-122.3426514, 47.783268]}}, {"type": "Feature", "properties": {"id": 3785508316, "name": "TJ Maxx", "category": "department_store", "tags": ["department-store", "department"], "sources": ["osm", "overture"], "website": "https://tjmaxx.tjx.com/store/index.jsp", "phone": "+14257745001", "address": "23632 Highway 99"}, "geometry": {"type": "Point", "coordinates": [-122.3443296, 47.7845664]}}, {"type": "Feature", "properties": {"id": 7137622530, "name": "T-Mobile", "category": "mobile_phone", "tags": ["mobile-phone", "mobile"], "sources": ["osm", "overture"], "website": "https://www.t-mobile.com/stores/bd/t-mobile-edmonds-wa-98026-2204?utm_source=facebook&utm_medium=lastmile&utm_campaign=2204", "phone": "+14257746490", "address": "23632 Highway 99"}, "geometry": {"type": "Point", "coordinates": [-122.3436819, 47.7844702]}}, {"type": "Feature", "properties": {"id": 7137694169, "name": "Safeway", "category": "supermarket", "tags": ["supermarket"], "sources": ["osm", "overture"], "website": "https://local.safeway.com/safeway/wa/edmonds/23632-hwy-99.html", "phone": "+14257781411", "address": "23632 Highway 99", "hours": "Mo-Fr 05:00-24:00; Sa 05:00-24:00; Su 05:00-24:00"}, "geometry": {"type": "Point", "coordinates": [-122.3440243, 47.7844484]}}, {"type": "Feature", "properties": {"id": 3977303404, "name": "Dollar Tree", "category": "variety_store", "tags": ["variety-store", "discount", "convenience"], "sources": ["osm", "overture"], "website": "https://locations.dollartree.com/wa/edmonds/23632-highway-99-ste-110", "phone": "+15095427340", "address": "23632 Highway 99", "hours": "Mo-Sa 08:00-22:00; Su 09:00-21:00"}, "geometry": {"type": "Point", "coordinates": [-122.3433508, 47.78451]}}, {"type": "Feature", "properties": {"id": "69556169-2d0c-4d0a-b63c-5d362ea55c2f", "name": "Burlington", "category": "variety_store", "tags": ["variety-store", "discount"], "sources": ["overture"], "website": "https://stores.burlington.com/wa/edmonds/119/", "phone": "+14257762221", "address": "24111 Highway 99"}, "geometry": {"type": "Point", "coordinates": [-122.3444595, 47.7804832]}}, {"type": "Feature", "properties": {"id": 7660228573, "name": "Baro Grocery", "category": "convenience", "tags": ["convenience"], "sources": ["osm"]}, "geometry": {"type": "Point", "coordinates": [-122.3446627, 47.7827131]}}, {"type": "Feature", "properties": {"id": "71dde453-9b5a-4976-8f80-a948f1254626", "name": "Aurora Marketplace", "category": "supermarket", "tags": ["supermarket"], "sources": ["overture"], "website": "https://www.regencycenters.com/property/detail/90097/aurora-marketplace", "phone": "+15036034700", "address": "23632 Highway 99"}, "geometry": {"type": "Point", "coordinates": [-122.3445053, 47.7846451]}}, {"type": "Feature", "properties": {"id": "82a0d33e-5a50-4e29-8d84-3dad78d6b5f5", "name": "Smiley Dog Home Delivery Svc", "category": "pet", "tags": ["pet"], "sources": ["overture"], "website": "http://smileydog.com/", "phone": "2069039631", "address": "23303 Highway 99 Free Delivery Of Healthy Pet Foods"}, "geometry": {"type": "Point", "coordinates": [-122.3401337, 47.7846985]}}, {"type": "Feature", "properties": {"id": "9c69c7a4-4225-4cb2-9fff-d7b9c8151c1b", "name": "Safeway", "category": "pharmacy", "tags": ["pharmacy"], "sources": ["overture"], "website": "http://local.safeway.com/wa/edmonds-1297.html", "phone": "4257781411", "address": "23632 Highway 99"}, "geometry": {"type": "Point", "coordinates": [-122.3424606, 47.7847633]}}, {"type": "Feature", "properties": {"id": 12095431846, "name": "Community Health Center", "category": "clinic", "tags": ["clinic"], "sources": ["osm"], "address": "23320 Highway 99"}, "geometry": {"type": "Point", "coordinates": [-122.340482, 47.7882938]}}, {"type": "Feature", "properties": {"id": 7137622532, "name": "The UPS Store", "category": "post_office", "tags": ["post-office"], "sources": ["osm"]}, "geometry": {"type": "Point", "coordinates": [-122.344939, 47.7842774]}}, {"type": "Feature", "properties": {"id": 11030543199, "name": "Global Credit Union", "category": "bank", "tags": ["bank"], "sources": ["osm"], "website": "https://www.globalcu.org/branches/edmonds/", "address": "23632 Highway 99"}, "geometry": {"type": "Point", "coordinates": [-122.3444725, 47.7844666]}}, {"type": "Feature", "properties": {"id": "462661f8-6e92-4f8d-9a2a-cf7440b12d14", "name": "Club Pilates", "category": "fitness_centre", "tags": ["fitness-centre", "pilates", "studio"], "sources": ["overture"], "website": "http://www.clubpilates.com/edmondsshoreline", "phone": "+12067045571", "address": "23805 Highway 99"}, "geometry": {"type": "Point", "coordinates": [-122.3432236, 47.7829895]}}, {"type": "Feature", "properties": {"id": "671a2bc0-150b-4768-8a5a-88904b6ae51d", "name": "Tramp Stamp Fit", "category": "fitness_centre", "tags": ["fitness-centre", "gym"], "sources": ["overture"], "website": "https://trampstampfit.com/", "phone": "+17047794047", "address": "23931 Highway 99"}, "geometry": {"type": "Point", "coordinates": [-122.3444138, 47.7817039]}}]}