{"type": "FeatureCollection", "features": [{"type": "Feature", "properties": {"id": "dc479e7b-209f-490b-8a22-9d7da25d8aa0", "name": "Schoenfeld Art Studio", "category": "gallery", "tags": ["gallery", "art"], "sources": ["overture"], "website": "http://schoenfeldart.com/", "phone": "+12063768387", "address": "5235 S Graham St"}, "geometry": {"type": "Point", "coordinates": [-122.2656326, 47.5459862]}}, {"type": "Feature", "properties": {"id": 57850373, "name": "Martha Washington Park", "category": "park", "tags": ["park"], "sources": ["osm", "overture"], "website": "http://www.seattle.gov/parks/park_detail.asp?ID=432", "phone": "+12066844075", "address": "6600 57th Ave S"}, "geometry": {"type": "Point", "coordinates": [-122.260183, 47.5423292]}}, {"type": "Feature", "properties": {"id": "bcc1ee1b-4a1c-414c-91a6-470de5f0bc56", "name": "Martha Washington Park", "category": "park", "tags": ["park"], "sources": ["overture"], "website": "http://www.seattle.gov/parks/park_detail.asp?ID=432", "phone": "(206) 684-4075", "address": "6612 57th Ave. S"}, "geometry": {"type": "Point", "coordinates": [-122.2611313, 47.5434189]}}, {"type": "Feature", "properties": {"id": 294615043, "name": "South Brighton Street End", "category": "park", "tags": ["park"], "sources": ["osm"]}, "geometry": {"type": "Point", "coordinates": [-122.2604141, 47.5415227]}}, {"type": "Feature", "properties": {"id": 294615046, "name": "South Willow Street End", "category": "park", "tags": ["park"], "sources": ["osm"]}, "geometry": {"type": "Point", "coordinates": [-122.2617428, 47.5406591]}}, {"type": "Feature", "properties": {"id": "87e37aaa-926a-4220-b9b2-58afa07585cc", "name": "Shoreline Street End Park", "category": "park", "tags": ["park"], "sources": ["overture"], "website": "https://www.seattle.gov/transportation/projects-and-programs/programs/public-space-management-programs/shoreline-street-ends", "address": "5675r S Willow St"}, "geometry": {"type": "Point", "coordinates": [-122.262619, 47.5405159]}}]}