{"type": "FeatureCollection", "features": [{"type": "Feature", "properties": {"id": 11454574572, "name": "Water Carry", "category": "artwork", "tags": ["artwork"], "sources": ["osm"]}, "geometry": {"type": "Point", "coordinates": [-122.2620929, 47.478536]}}, {"type": "Feature", "properties": {"id": "ffd5dc29-dc24-41c3-9f3e-0a44aabbea26", "name": "Terrace Apartments", "category": "attraction", "tags": ["attraction", "landmark", "historical", "building"], "sources": ["overture"], "website": "https://www.apartmentguide.com/apartments/Washington/Tukwila/The-Terrace-Apartments/23659/", "phone": "+12062426251", "address": "13705 56th Ave S"}, "geometry": {"type": "Point", "coordinates": [-122.2666245, 47.4795647]}}, {"type": "Feature", "properties": {"id": 521045690, "name": "Macadam Winter Garden", "category": "park", "tags": ["park"], "sources": ["osm"]}, "geometry": {"type": "Point", "coordinates": [-122.2671937, 47.4735649]}}, {"type": "Feature", "properties": {"id": "4405647d-f8be-43bc-a190-9387467b1a78", "name": "Lee Phillips foster park", "category": "park", "tags": ["park"], "sources": ["overture"], "website": "http://www.grjsa.org/doclib/lee-philips.htm", "address": "13919 53rd Ave S"}, "geometry": {"type": "Point", "coordinates": [-122.2683792, 47.478466]}}, {"type": "Feature", "properties": {"id": "c5e638e0-e45a-45aa-abdd-a1d27fc54eef", "name": "Foster Memorial Park", "category": "park", "tags": ["park"], "sources": ["overture"], "phone": "+12067682822", "address": "13919 53rd Ave S"}, "geometry": {"type": "Point", "coordinates": [-122.2690506, 47.4779892]}}, {"type": "Feature", "properties": {"id": "d5baf3f4-1d47-4fc7-90d8-eb31e1166c45", "name": "Joseph Foster Memorial Park Pickleball Court", "category": "park", "tags": ["park"], "sources": ["overture"]}, "geometry": {"type": "Point", "coordinates": [-122.2685776, 47.4782333]}}, {"type": "Feature", "properties": {"id": 651652599, "name": "7-Eleven", "category": "convenience", "tags": ["convenience"], "sources": ["osm", "overture"], "website": "https://www.7-eleven.com/locations/wa/tukwila/14057-interurban-ave-s-17438", "phone": "2062441200", "address": "14057 Interurban Ave S"}, "geometry": {"type": "Point", "coordinates": [-122.2605758, 47.4767491]}}, {"type": "Feature", "properties": {"id": "63ade4fe-954b-4097-80d4-eb7feb02a7fd", "name": "Angry Squid Ink", "category": "clothes", "tags": ["clothes"], "sources": ["overture"], "website": "http://www.angrysquidink.com", "phone": "(206) 762-8461", "address": "5219 S 144th St"}, "geometry": {"type": "Point", "coordinates": [-122.2684402, 47.473732]}}]}