{"type": "FeatureCollection", "features": [{"type": "Feature", "properties": {"id": "58aa5b36-6db0-4b04-9595-be44732a1dfb", "name": "White Center Food Bank", "category": "restaurant", "tags": ["restaurant"], "sources": ["overture"], "website": "http://www.whitecenterfoodbank.org", "phone": "(206) 762-2848", "address": "10829 8th Ave SW"}, "geometry": {"type": "Point", "coordinates": [-122.3465576, 47.5031204]}}, {"type": "Feature", "properties": {"id": 6168644486, "name": "Four", "category": "artwork", "tags": ["artwork"], "sources": ["osm"]}, "geometry": {"type": "Point", "coordinates": [-122.3414014, 47.5026742]}}, {"type": "Feature", "properties": {"id": "108275b8-b0e7-45a2-aa9e-75ce6421f537", "name": "Providence Joseph House", "category": "attraction", "tags": ["attraction", "landmark", "historical", "building"], "sources": ["overture"], "website": "https://www.providencesupportivehousing.org/support-us/", "phone": "+12066861234", "address": "11215 5th Ave SW"}, "geometry": {"type": "Point", "coordinates": [-122.3408585, 47.5028801]}}, {"type": "Feature", "properties": {"id": "ad08969b-3856-4dc6-a923-9e9e4c33f6d3", "name": "Seola Gardens Apartments", "category": "attraction", "tags": ["attraction", "landmark", "historical", "building"], "sources": ["overture"], "phone": "+12068292465", "address": "10949 5th Ave SW"}, "geometry": {"type": "Point", "coordinates": [-122.3411636, 47.5027847]}}, {"type": "Feature", "properties": {"id": 36414977, "name": "Dick Thurnau Memorial Park", "category": "park", "tags": ["park"], "sources": ["osm"]}, "geometry": {"type": "Point", "coordinates": [-122.3440474, 47.5035209]}}, {"type": "Feature", "properties": {"id": "f8668f7a-93e7-4b96-a0e3-56f94ad4685e", "name": "Dick Thurnau Memorial Park", "category": "park", "tags": ["park"], "sources": ["overture"], "website": "https://kingcountyparks.org/?s=Thurnau", "phone": "+12066315500", "address": "Dick Thurnau Memorial Park, 11050 10th Ave SW"}, "geometry": {"type": "Point", "coordinates": [-122.3496094, 47.5005722]}}, {"type": "Feature", "properties": {"id": "6f779a83-119e-41de-808c-dc4f58c5b3a5", "name": "Hubbard Homestead Park", "category": "park", "tags": ["park"], "sources": ["overture"], "website": "http://www.seattle.gov/parks/find/parks/hubbard-homestead", "phone": "+12066844075", "address": "11203 5th Ave SW"}, "geometry": {"type": "Point", "coordinates": [-122.340744, 47.5020485]}}, {"type": "Feature", "properties": {"id": "6b67d050-dfeb-44a9-b902-831d8399d37b", "name": "Lakewood Park", "category": "park", "tags": ["park"], "sources": ["overture"], "website": "http://www.pdga.com/course_directory/course/lakewood-king-county-park", "phone": "(206) 205-7532", "address": "11050 10th Ave SW"}, "geometry": {"type": "Point", "coordinates": [-122.3453293, 47.5037575]}}, {"type": "Feature", "properties": {"id": "351ae721-b15e-4a1c-83c9-e3af236a2696", "name": "White Center Bicycle Playground", "category": "playground", "tags": ["playground"], "sources": ["overture"], "address": "11050 10th Ave SW"}, "geometry": {"type": "Point", "coordinates": [-122.3461456, 47.5048409]}}, {"type": "Feature", "properties": {"id": "3c1755f4-f7fa-4326-aadb-40a877ed0b8b", "name": "Evergreen Athletic Field", "category": "park", "tags": ["park"], "sources": ["overture"], "address": "SW 116th St"}, "geometry": {"type": "Point", "coordinates": [-122.3429642, 47.5021439]}}, {"type": "Feature", "properties": {"id": 12137906049, "name": "Chainbangers Pro Shop", "category": "sports", "tags": ["sports", "disc-golf"], "sources": ["osm"], "website": "https://chainbangers.com/"}, "geometry": {"type": "Point", "coordinates": [-122.3453595, 47.5037304]}}, {"type": "Feature", "properties": {"id": "a718f7b8-0967-462f-8b31-74d21d394ee3", "name": "No Judgment Fitness", "category": "fitness_centre", "tags": ["fitness-centre", "gym"], "sources": ["overture"], "website": "http://nojudgmentfitness.com/", "phone": "+12065885377", "address": "11019 10th Ave SW"}, "geometry": {"type": "Point", "coordinates": [-122.3473206, 47.5041161]}}]}