{"type": "FeatureCollection", "features": [{"type": "Feature", "properties": {"id": 13728180588, "name": "Hadley Glacier", "category": "artwork", "tags": ["artwork"], "sources": ["osm"], "stations": [{"stopCode": 42, "lines": "1,2", "name": "Shoreline North/185th Station", "walkingMeters": 993, "walkingSeconds": 715, "band": 15}]}, "geometry": {"type": "Point", "coordinates": [-122.3242659, 47.7555752]}}, {"type": "Feature", "properties": {"id": 74616191, "name": "Northcrest Park", "category": "park", "tags": ["park"], "sources": ["osm", "overture"], "website": "https://www.discovertheforest.org", "phone": "+12065465041", "address": "827 NE 170th St"}, "geometry": {"type": "Point", "coordinates": [-122.3202098, 47.7503696]}}, {"type": "Feature", "properties": {"id": 1488762236, "name": "5th Avenue Community Garden", "category": "garden", "tags": ["garden"], "sources": ["osm"], "website": "https://www.fifthavegarden.org/", "stations": [{"stopCode": 42, "lines": "1,2", "name": "Shoreline North/185th Station", "walkingMeters": 915, "walkingSeconds": 659, "band": 15}]}, "geometry": {"type": "Point", "coordinates": [-122.3232756, 47.7568845]}}, {"type": "Feature", "properties": {"id": "4eddcbfd-5ed1-4f24-9954-9479b74999f3", "name": "Fifth Ave Community Garden", "category": "park", "tags": ["park"], "sources": ["overture"], "website": "http://fifthavegarden.org/", "address": "510 NE 175th St", "stations": [{"stopCode": 42, "lines": "1,2", "name": "Shoreline North/185th Station", "walkingMeters": 990, "walkingSeconds": 713, "band": 15}]}, "geometry": {"type": "Point", "coordinates": [-122.3235321, 47.756134]}}, {"type": "Feature", "properties": {"id": 36745037, "name": "Shoreline Library", "category": "library", "tags": ["library"], "sources": ["osm", "overture"], "website": "https://kcls.org/locations/1535/", "phone": "+12063627550", "address": "345 NE 175th St", "hours": "Mo-Th 10:00-21:00; Fr 10:00-18:00; Sa 10:00-17:00; Su 11:00-19:00", "stations": [{"stopCode": 42, "lines": "1,2", "name": "Shoreline North/185th Station", "walkingMeters": 1054, "walkingSeconds": 759, "band": 15}]}, "geometry": {"type": "Point", "coordinates": [-122.3247657, 47.7555759]}}, {"type": "Feature", "properties": {"id": "d5a27319-d59d-4b26-9f22-0dfbb749cd8a", "name": "KCLS Shoreline Library", "category": "library", "tags": ["library"], "sources": ["overture"], "website": "http://www.kcls.org", "phone": "(206) 362-7550", "address": "345 NE 175th St", "stations": [{"stopCode": 42, "lines": "1,2", "name": "Shoreline North/185th Station", "walkingMeters": 998, "walkingSeconds": 718, "band": 15}]}, "geometry": {"type": "Point", "coordinates": [-122.3247147, 47.7558327]}}]}