{"type": "FeatureCollection", "features": [{"type": "Feature", "properties": {"id": 3220938240, "name": "Dilletante Mocha Cafe", "category": "cafe", "tags": ["cafe"], "sources": ["osm"], "hours": "Mo-Fr 06:30-17:00"}, "geometry": {"type": "Point", "coordinates": [-122.1877517, 47.5979662]}}, {"type": "Feature", "properties": {"id": "c1eb96c2-9b4b-42fc-aed0-52362127346e", "name": "Dilettante Mocha Cafe", "category": "cafe", "tags": ["cafe"], "sources": ["overture"], "website": "https://www.dilettantemochacafe.com/bellefield-contact", "phone": "+14254514086", "address": "1450 114th Ave SE"}, "geometry": {"type": "Point", "coordinates": [-122.1879578, 47.5979881]}}, {"type": "Feature", "properties": {"id": "3d79a31d-2e7f-4e8e-baef-d157cdf74bd5", "name": "Dilettante Mocha Caf\u00e9 at Bellefield Office Park", "category": "cafe", "tags": ["cafe", "coffee"], "sources": ["overture"], "website": "https://www.dilettantemochacafe.com/pages/locations-contact_bellefield", "phone": "4254514086", "address": "Bellefield Office Park, Conifer Building, 1450 114th Avenue Southeast #120"}, "geometry": {"type": "Point", "coordinates": [-122.1878815, 47.5979309]}}, {"type": "Feature", "properties": {"id": "263c90df-0fff-4f7d-b118-1e2ecb1a8960", "name": "Pepper Tree Burrito Cafe", "category": "restaurant", "tags": ["restaurant", "mexican"], "sources": ["overture"], "website": "http://www.menuism.com", "phone": "(425) 451-9040", "address": "1450 114th Ave SE", "stations": [{"stopCode": 57, "lines": "2", "name": "East Main Station", "walkingMeters": 1401, "walkingSeconds": 1009, "band": 15}]}, "geometry": {"type": "Point", "coordinates": [-122.1880722, 47.5980377]}}, {"type": "Feature", "properties": {"id": 482159325, "name": "Forest Canopy Overlook", "category": "viewpoint", "tags": ["viewpoint"], "sources": ["osm"]}, "geometry": {"type": "Point", "coordinates": [-122.1834131, 47.5952479]}}, {"type": "Feature", "properties": {"id": "9d361fa8-a321-45da-a7a4-7350a7175628", "name": "Mercer Slough Nature Park", "category": "park", "tags": ["park"], "sources": ["overture"], "website": "http://www.ci.bellevue.wa.us/mercer_slough_trail.htm", "phone": "+14254522565", "address": "2101 118th Ave SE"}, "geometry": {"type": "Point", "coordinates": [-122.1840515, 47.5935326]}}, {"type": "Feature", "properties": {"id": "78a9abe9-ebcd-4799-aa82-fe8a16c1a437", "name": "Bellefields Trailhead", "category": "park", "tags": ["park"], "sources": ["overture"], "address": "1905 118th Ave SE"}, "geometry": {"type": "Point", "coordinates": [-122.1828842, 47.5930176]}}, {"type": "Feature", "properties": {"id": "3a34133c-6ab3-42f1-87d3-290772f61ee1", "name": "Bellefields Nature Park", "category": "park", "tags": ["park"], "sources": ["overture"], "address": "2549 118th Se Ave"}, "geometry": {"type": "Point", "coordinates": [-122.1891861, 47.5943489]}}, {"type": "Feature", "properties": {"id": 13563444208, "name": "Rogers Behavioral Health", "category": "clinic", "tags": ["clinic"], "sources": ["osm"], "address": "1215 114th Avenue Southeast", "stations": [{"stopCode": 57, "lines": "2", "name": "East Main Station", "walkingMeters": 1280, "walkingSeconds": 921, "band": 15}]}, "geometry": {"type": "Point", "coordinates": [-122.1891922, 47.5999191]}}, {"type": "Feature", "properties": {"id": "e68b01f6-5d78-4620-8648-57f91dfeeea6", "name": "City of Hope National Medical Center", "category": "hospital", "tags": ["hospital"], "sources": ["overture"], "website": "http://www.cityofhope.org", "phone": "+14256469530", "address": "1309 114th Ave SE", "stations": [{"stopCode": 57, "lines": "2", "name": "East Main Station", "walkingMeters": 1447, "walkingSeconds": 1042, "band": 15}]}, "geometry": {"type": "Point", "coordinates": [-122.1892014, 47.5989227]}}, {"type": "Feature", "properties": {"id": "62c1cc02-6c29-40e4-84d0-59ed3ae2742f", "name": "Hot Yoga", "category": "fitness_centre", "tags": ["fitness-centre", "gym"], "sources": ["overture"], "website": "http://www.hotyogainc.com", "phone": "(425) 633-2488", "address": "1331 118th Ave SE Ste 200"}, "geometry": {"type": "Point", "coordinates": [-122.1835022, 47.5989494]}}, {"type": "Feature", "properties": {"id": 7278459386, "name": "Muscle Farmer", "category": "fitness_centre", "tags": ["fitness-centre"], "sources": ["osm"]}, "geometry": {"type": "Point", "coordinates": [-122.1833101, 47.5988414]}}, {"type": "Feature", "properties": {"id": "d0a7f369-81d4-44f3-ba62-352d174d2166", "name": "LivingFit CrossFit", "category": "fitness_centre", "tags": ["fitness-centre", "gym"], "sources": ["overture"], "website": "http://www.lakehillscrossfit.com", "phone": "+12069620063", "address": "1331 118th Ave SE"}, "geometry": {"type": "Point", "coordinates": [-122.1835632, 47.5989151]}}, {"type": "Feature", "properties": {"id": "8006724e-c8a8-4aa0-8b34-7add1e7ef1f8", "name": "Personal Training with Camie", "category": "fitness_centre", "tags": ["fitness-centre", "fitness", "trainer"], "sources": ["overture"], "phone": "+14257704796", "address": "1331 118th Ave SE"}, "geometry": {"type": "Point", "coordinates": [-122.1838303, 47.5989151]}}]}