{"type": "FeatureCollection", "features": [{"type": "Feature", "properties": {"id": 650541361, "name": "Espresso", "category": "cafe", "tags": ["cafe", "coffee-shop"], "sources": ["osm"], "address": "20738 1st Avenue South"}, "geometry": {"type": "Point", "coordinates": [-122.3348783, 47.4162053]}}, {"type": "Feature", "properties": {"id": "23effa6f-c972-4a24-aa1e-24f1594cd832", "name": "North Hill Espresso", "category": "cafe", "tags": ["cafe", "coffee"], "sources": ["overture"], "website": "http://northhillcommunityclub.org", "phone": "+12066697706", "address": "20738 1st Ave S"}, "geometry": {"type": "Point", "coordinates": [-122.3349609, 47.4161491]}}, {"type": "Feature", "properties": {"id": "9d67f6d1-541b-406b-94f5-00600f305358", "name": "Marine View Park", "category": "park", "tags": ["park"], "sources": ["overture"], "website": "http://www.ci.normandy-park.wa.us", "phone": "+12062487603", "address": "20945 Marine View Dr SW"}, "geometry": {"type": "Point", "coordinates": [-122.3392105, 47.4150467]}}, {"type": "Feature", "properties": {"id": "9002e344-672c-4bf7-af44-619bec1bb4c7", "name": "Puget Sound Floral-Normandy Park", "category": "florist", "tags": ["florist"], "sources": ["overture"], "website": "http://www.pugetsoundfloral.com/", "phone": "2062430009", "address": "20716 1st Ave S Ste A"}, "geometry": {"type": "Point", "coordinates": [-122.3352966, 47.4170151]}}, {"type": "Feature", "properties": {"id": "bb730849-40c7-4b0f-8162-46beb94b5e24", "name": "3rd Ave Little Free Library, North Hill, Des Moines WA", "category": "library", "tags": ["library"], "sources": ["overture"], "address": "20421 3rd Ave S"}, "geometry": {"type": "Point", "coordinates": [-122.3322144, 47.4192238]}}]}