{"type": "FeatureCollection", "features": [{"type": "Feature", "properties": {"id": 3700159126, "name": "Subway", "category": "fast_food", "tags": ["fast-food", "sandwich", "takeaway", "fast", "food"], "sources": ["osm", "overture"], "website": "https://restaurants.subway.com/united-states/wa/seattle/345-15th-avenue-east?utm_source=yxt-bing&utm_medium=local&utm_term=acq&utm_content=13038&utm_campaign=evergreen-2020&y_source=1_MTQ5MDQ0OTctNDgzLWxvY2F0aW9uLndlYnNpdGU%3D", "phone": "2063231880", "address": "345 15th Avenue East, Suite 301", "hours": "Mo-Fr 09:00-21:00; Sa-Su 10:00-21:00", "stations": [{"stopCode": 49, "lines": "1,2", "name": "Capitol Hill Station", "walkingMeters": 835, "walkingSeconds": 600, "band": 15}]}, "geometry": {"type": "Point", "coordinates": [-122.3129013, 47.6217399]}}, {"type": "Feature", "properties": {"id": 6981899486, "name": "Starbucks", "category": "cafe", "tags": ["cafe", "coffee-shop", "takeaway", "coffee"], "sources": ["osm", "overture"], "website": "https://www.starbucks.com/store-locator/store/12134", "phone": "+12063234988", "address": "1410 E John St", "stations": [{"stopCode": 49, "lines": "1,2", "name": "Capitol Hill Station", "walkingMeters": 716, "walkingSeconds": 515, "band": 10}]}, "geometry": {"type": "Point", "coordinates": [-122.3131775, 47.6206617]}}, {"type": "Feature", "properties": {"id": "6fb50549-3868-475c-93ac-ec6a3e60d788", "name": "Starbucks", "category": "cafe", "tags": ["cafe", "coffee"], "sources": ["overture"], "website": "http://www.starbucks.com/", "phone": "(206) 323-1568", "address": "328 15th Ave E", "stations": [{"stopCode": 49, "lines": "1,2", "name": "Capitol Hill Station", "walkingMeters": 821, "walkingSeconds": 590, "band": 15}]}, "geometry": {"type": "Point", "coordinates": [-122.3124924, 47.6214828]}}, {"type": "Feature", "properties": {"id": "face9b57-c7e5-4fdd-8723-fe9ca46c751d", "name": "Teapot Vegetarian House", "category": "restaurant", "tags": ["restaurant", "vegan"], "sources": ["overture"], "website": "http://www.teapotvegetarianhouse.com/", "phone": "(206) 325-1010", "address": "345 15th Ave E", "stations": [{"stopCode": 49, "lines": "1,2", "name": "Capitol Hill Station", "walkingMeters": 838, "walkingSeconds": 602, "band": 15}]}, "geometry": {"type": "Point", "coordinates": [-122.3128128, 47.6217651]}}, {"type": "Feature", "properties": {"id": 1726737132, "name": "Caffe Ladro", "category": "cafe", "tags": ["cafe", "outdoor-seating", "indoor-seating"], "sources": ["osm", "overture"], "website": "http://CaffeLadro.com/", "phone": "+12062670551", "address": "435 15th Ave E", "stations": [{"stopCode": 49, "lines": "1,2", "name": "Capitol Hill Station", "walkingMeters": 974, "walkingSeconds": 700, "band": 15}]}, "geometry": {"type": "Point", "coordinates": [-122.3128173, 47.6229877]}}, {"type": "Feature", "properties": {"id": "3598af3d-b0af-42eb-a2b0-97ca21a738cd", "name": "Cafe Solstice", "category": "cafe", "tags": ["cafe"], "sources": ["overture"], "website": "http://cafesolsticeseattle.com", "phone": "(206) 675-0850", "address": "925 E Thomas St", "stations": [{"stopCode": 49, "lines": "1,2", "name": "Capitol Hill Station", "walkingMeters": 240, "walkingSeconds": 173, "band": 5}]}, "geometry": {"type": "Point", "coordinates": [-122.3197784, 47.6209106]}}, {"type": "Feature", "properties": {"id": 1539274991, "name": "Liberty", "category": "bar", "tags": ["bar", "wifi", "cocktail", "sushi"], "sources": ["osm", "overture"], "website": "http://www.libertybars.com/", "phone": "+12063239898", "address": "517 15th Ave E", "hours": "We-Mo 12:00-02:00, Tu 15:00-02:00", "stations": [{"stopCode": 49, "lines": "1,2", "name": "Capitol Hill Station", "walkingMeters": 1036, "walkingSeconds": 744, "band": 15}]}, "geometry": {"type": "Point", "coordinates": [-122.312827, 47.6235665]}}, {"type": "Feature", "properties": {"id": 1539274997, "name": "Jamjuree", "category": "restaurant", "tags": ["restaurant", "thai", "outdoor-seating", "air-conditioned"], "sources": ["osm"], "website": "https://www.jamjuree.com/", "address": "509 15th Avenue East", "hours": "Mo-Su 11:30-21:00", "stations": [{"stopCode": 49, "lines": "1,2", "name": "Capitol Hill Station", "walkingMeters": 1021, "walkingSeconds": 733, "band": 15}]}, "geometry": {"type": "Point", "coordinates": [-122.3128279, 47.6234297]}}, {"type": "Feature", "properties": {"id": 1539274998, "name": "Victrola Coffee Roasters", "category": "cafe", "tags": ["cafe", "coffee-shop", "outdoor-seating", "indoor-seating", "wifi", "coffee"], "sources": ["osm", "overture"], "website": "http://www.victrolacoffee.com/", "phone": "+12063256520", "address": "411 15th Ave E", "hours": "Mo-Sa 06:00-22:00; Su 06:00-21:00", "stations": [{"stopCode": 49, "lines": "1,2", "name": "Capitol Hill Station", "walkingMeters": 903, "walkingSeconds": 649, "band": 15}]}, "geometry": {"type": "Point", "coordinates": [-122.312829, 47.6223517]}}, {"type": "Feature", "properties": {"id": 1726737135, "name": "Hopvine Pub", "category": "pub", "tags": ["pub", "outdoor-seating", "wifi", "restaurant"], "sources": ["osm", "overture"], "website": "http://hopvinepub.com/", "phone": "+12063283120", "address": "507 15th Ave E", "hours": "Su-Fr 13:00-22:00; Sa 13:00-23:00", "stations": [{"stopCode": 49, "lines": "1,2", "name": "Capitol Hill Station", "walkingMeters": 1014, "walkingSeconds": 728, "band": 15}]}, "geometry": {"type": "Point", "coordinates": [-122.312828, 47.6233694]}}, {"type": "Feature", "properties": {"id": 1975835344, "name": "Rione XIII", "category": "restaurant", "tags": ["restaurant", "italian", "outdoor-seating", "indoor-seating"], "sources": ["osm", "overture"], "website": "https://ethanstowellrestaurants.com/restaurants/rione-xiii-capitol-hill-seattle", "phone": "+12068382878", "address": "401 15th Ave E", "hours": "Mo-Su 16:00-20:00+", "stations": [{"stopCode": 49, "lines": "1,2", "name": "Capitol Hill Station", "walkingMeters": 860, "walkingSeconds": 618, "band": 15}]}, "geometry": {"type": "Point", "coordinates": [-122.31283, 47.6220796]}}, {"type": "Feature", "properties": {"id": 2131651276, "name": "El Farol Mexican", "category": "restaurant", "tags": ["restaurant", "mexican"], "sources": ["osm"], "website": "http://elfarolseattle.com", "phone": "+1-206-325-9005", "address": "1467 East Republican Street", "stations": [{"stopCode": 49, "lines": "1,2", "name": "Capitol Hill Station", "walkingMeters": 967, "walkingSeconds": 695, "band": 15}]}, "geometry": {"type": "Point", "coordinates": [-122.3129329, 47.6229898]}}, {"type": "Feature", "properties": {"id": 2131651280, "name": "Rubinstein Bagels", "category": "cafe", "tags": ["cafe", "bagel", "outdoor-seating", "indoor-seating", "bakery"], "sources": ["osm", "overture"], "website": "https://rubinsteinbagels.com/", "phone": "+12065392888", "address": "403 15th Ave E", "hours": "Mo-Su 07:00-14:00", "stations": [{"stopCode": 49, "lines": "1,2", "name": "Capitol Hill Station", "walkingMeters": 876, "walkingSeconds": 630, "band": 15}]}, "geometry": {"type": "Point", "coordinates": [-122.312829, 47.622121]}}, {"type": "Feature", "properties": {"id": 2131651282, "name": "Bar Vacilando", "category": "restaurant", "tags": ["restaurant", "spanish", "indoor-seating", "bar-and-grill", "bar", "grill"], "sources": ["osm", "overture"], "website": "http://barvacilando.com/", "phone": "+12064201584", "address": "405 15th Ave E", "hours": "Tu-Th 11:00-22:00; Fr-Sa 11:00-23:00", "stations": [{"stopCode": 49, "lines": "1,2", "name": "Capitol Hill Station", "walkingMeters": 884, "walkingSeconds": 635, "band": 15}]}, "geometry": {"type": "Point", "coordinates": [-122.312829, 47.6221817]}}, {"type": "Feature", "properties": {"id": 2131716739, "name": "Tandoori Flame", "category": "restaurant", "tags": ["restaurant"], "sources": ["osm"], "phone": "+1-206-567-3399", "address": "345 15th Avenue East", "hours": "Mo-Sa 11:00-21:30; Su 11:30-21:00", "stations": [{"stopCode": 49, "lines": "1,2", "name": "Capitol Hill Station", "walkingMeters": 840, "walkingSeconds": 604, "band": 15}]}, "geometry": {"type": "Point", "coordinates": [-122.3128721, 47.6217831]}}, {"type": "Feature", "properties": {"id": 2383892146, "name": "Harry's Bar", "category": "bar", "tags": ["bar", "italian", "outdoor-seating", "indoor-seating", "wifi", "cocktail", "pizza"], "sources": ["osm", "overture"], "website": "https://order.toasttab.com/online/olympia-pizza-and-spaghetti-house-iii-516-15th-ave-e", "phone": "+12063294500", "address": "514 15th Ave E", "hours": "11:00-26:00", "stations": [{"stopCode": 49, "lines": "1,2", "name": "Capitol Hill Station", "walkingMeters": 1073, "walkingSeconds": 771, "band": 15}]}, "geometry": {"type": "Point", "coordinates": [-122.3124231, 47.6237638]}}, {"type": "Feature", "properties": {"id": 2383892151, "name": "Olympia Pizza III", "category": "restaurant", "tags": ["restaurant", "pizza", "italian", "outdoor-seating", "indoor-seating", "vegetarian"], "sources": ["osm"], "phone": "+1-206-329-4500", "address": "516 15th Avenue East", "stations": [{"stopCode": 49, "lines": "1,2", "name": "Capitol Hill Station", "walkingMeters": 1078, "walkingSeconds": 775, "band": 15}]}, "geometry": {"type": "Point", "coordinates": [-122.3124224, 47.6238096]}}, {"type": "Feature", "properties": {"id": 2384428135, "name": "Overcast Coffee Company", "category": "cafe", "tags": ["cafe", "coffee-shop", "coffee"], "sources": ["osm", "overture"], "website": "https://www.overcastcoffeecompany.com", "phone": "+12063222220", "address": "312 15th Ave E", "stations": [{"stopCode": 49, "lines": "1,2", "name": "Capitol Hill Station", "walkingMeters": 770, "walkingSeconds": 553, "band": 10}]}, "geometry": {"type": "Point", "coordinates": [-122.31249, 47.621029]}}, {"type": "Feature", "properties": {"id": 2384428139, "name": "Moli Bento", "category": "cafe", "tags": ["cafe", "asian", "restaurant", "japanese"], "sources": ["osm", "overture"], "website": "http://www.agr.wa.gov", "phone": "+12063258630", "address": "316 15th Ave E", "stations": [{"stopCode": 49, "lines": "1,2", "name": "Capitol Hill Station", "walkingMeters": 783, "walkingSeconds": 562, "band": 10}]}, "geometry": {"type": "Point", "coordinates": [-122.3125209, 47.6211399]}}, {"type": "Feature", "properties": {"id": 2384428143, "name": "Club Comedy Seattle", "category": "pub", "tags": ["pub", "wifi"], "sources": ["osm"], "website": "http://clubcomedyseattle.com", "address": "328 15th Avenue East", "hours": "Tu-Th,Su 19:30-22:00; Fr-Sa 19:30-24:00", "stations": [{"stopCode": 49, "lines": "1,2", "name": "Capitol Hill Station", "walkingMeters": 817, "walkingSeconds": 587, "band": 15}]}, "geometry": {"type": "Point", "coordinates": [-122.3124398, 47.621446]}}, {"type": "Feature", "properties": {"id": 2384428146, "name": "Smith", "category": "restaurant", "tags": ["restaurant", "pub", "outdoor-seating", "indoor-seating", "american"], "sources": ["osm", "overture"], "website": "http://www.smithseattle.com/", "phone": "+12067091900", "address": "332 15th Ave E", "hours": "Su-Fr 16:00-22:00, Sa 16:00-23:00, Sa,Su 10:00-14:00", "stations": [{"stopCode": 49, "lines": "1,2", "name": "Capitol Hill Station", "walkingMeters": 826, "walkingSeconds": 594, "band": 15}]}, "geometry": {"type": "Point", "coordinates": [-122.312523, 47.6215351]}}, {"type": "Feature", "properties": {"id": 2384428154, "name": "The Shop Agora", "category": "cafe", "tags": ["cafe", "mediterranean", "outdoor-seating", "indoor-seating", "wine", "supermarket"], "sources": ["osm", "overture"], "website": "http://www.theshopagora.com/", "phone": "+12063221103", "address": "346 15th Ave E", "stations": [{"stopCode": 49, "lines": "1,2", "name": "Capitol Hill Station", "walkingMeters": 868, "walkingSeconds": 624, "band": 15}]}, "geometry": {"type": "Point", "coordinates": [-122.312493, 47.6219057]}}, {"type": "Feature", "properties": {"id": 2384428158, "name": "Palermo", "category": "restaurant", "tags": ["restaurant", "pasta", "pizza", "outdoor-seating", "indoor-seating", "takeaway", "delivery"], "sources": ["osm"], "website": "http://capitolhill.palermorestaurant.com/", "phone": "+1-206-322-3875", "address": "350 15th Avenue East", "stations": [{"stopCode": 49, "lines": "1,2", "name": "Capitol Hill Station", "walkingMeters": 888, "walkingSeconds": 638, "band": 15}]}, "geometry": {"type": "Point", "coordinates": [-122.312477, 47.6219772]}}, {"type": "Feature", "properties": {"id": 3313308295, "name": "Spice Waala", "category": "restaurant", "tags": ["restaurant", "indian", "indoor-seating", "asian"], "sources": ["osm", "overture"], "website": "http://www.spicewaala.com/", "phone": "+12064665195", "address": "340 15th Ave E", "hours": "Tu 17:00-21:00; We-Sa 11:00-14:30,17:00-21:00", "stations": [{"stopCode": 49, "lines": "1,2", "name": "Capitol Hill Station", "walkingMeters": 845, "walkingSeconds": 607, "band": 15}]}, "geometry": {"type": "Point", "coordinates": [-122.312486, 47.6217008]}}, {"type": "Feature", "properties": {"id": "38865c90-0867-4622-aeb7-a6bc082f3dd8", "name": "Olive Tree Mediterranean Restaurant", "category": "restaurant", "tags": ["restaurant", "mediterranean", "middle-eastern"], "sources": ["overture"], "website": "http://www.olivetreemenu.com/", "phone": "2064661582", "address": "340 15th Ave E", "stations": [{"stopCode": 49, "lines": "1,2", "name": "Capitol Hill Station", "walkingMeters": 787, "walkingSeconds": 566, "band": 10}]}, "geometry": {"type": "Point", "coordinates": [-122.3125916, 47.6211815]}}, {"type": "Feature", "properties": {"id": 3700162126, "name": "Bites of Bangkok", "category": "restaurant", "tags": ["restaurant", "thai"], "sources": ["osm"], "website": "https://bitesofbangkok.com/", "phone": "+1-206-268-0823", "address": "340 15th Avenue East", "hours": "We-Su 17:00-01:00", "stations": [{"stopCode": 49, "lines": "1,2", "name": "Capitol Hill Station", "walkingMeters": 835, "walkingSeconds": 600, "band": 15}]}, "geometry": {"type": "Point", "coordinates": [-122.312495, 47.6216137]}}, {"type": "Feature", "properties": {"id": 12503823002, "name": "Bar Cantinetta", "category": "bar", "tags": ["bar", "restaurant", "italian"], "sources": ["osm", "overture"], "website": "http://www.cantinetta.com/", "phone": "+12062943800", "address": "555 15th Ave E", "stations": [{"stopCode": 49, "lines": "1,2", "name": "Capitol Hill Station", "walkingMeters": 1094, "walkingSeconds": 786, "band": 15}]}, "geometry": {"type": "Point", "coordinates": [-122.3127903, 47.6240947]}}, {"type": "Feature", "properties": {"id": 434605699, "name": "The Patio", "category": "restaurant", "tags": ["restaurant", "thai", "outdoor-seating", "indoor-seating"], "sources": ["osm"], "address": "524 15th Avenue East", "stations": [{"stopCode": 49, "lines": "1,2", "name": "Capitol Hill Station", "walkingMeters": 1105, "walkingSeconds": 794, "band": 15}]}, "geometry": {"type": "Point", "coordinates": [-122.3123408, 47.6240448]}}, {"type": "Feature", "properties": {"id": 434605708, "name": "Ada's Technical Books and Cafe", "category": "cafe", "tags": ["cafe", "outdoor-seating", "coffee", "wifi", "books"], "sources": ["osm", "overture"], "website": "http://www.AdasBooks.com/", "phone": "+12063221058", "address": "425 15th Ave E", "hours": "Su-Th 08:00-21:00; Fr-Sa 08:00-22:00", "stations": [{"stopCode": 49, "lines": "1,2", "name": "Capitol Hill Station", "walkingMeters": 938, "walkingSeconds": 674, "band": 15}]}, "geometry": {"type": "Point", "coordinates": [-122.3129936, 47.6226655]}}, {"type": "Feature", "properties": {"id": "68912044-1595-4970-a04a-f6e4c4014ddb", "name": "Chutneys Grille on the Hill", "category": "restaurant", "tags": ["restaurant", "indian"], "sources": ["overture"], "website": "http://www.chutneystogo.com", "phone": "(206) 726-1000", "address": "605 15th Ave E", "stations": [{"stopCode": 49, "lines": "1,2", "name": "Capitol Hill Station", "walkingMeters": 1126, "walkingSeconds": 809, "band": 15}]}, "geometry": {"type": "Point", "coordinates": [-122.3127213, 47.6244125]}}, {"type": "Feature", "properties": {"id": "4cd05fdc-da00-4cd3-9b61-609395a2bce1", "name": "Olympia Pizza and Spaghetti House III", "category": "restaurant", "tags": ["restaurant", "italian", "pizza"], "sources": ["overture"], "website": "http://www.olympiapizza3.com", "phone": "+12063294500", "address": "516 15th Ave E", "stations": [{"stopCode": 49, "lines": "1,2", "name": "Capitol Hill Station", "walkingMeters": 1078, "walkingSeconds": 774, "band": 15}]}, "geometry": {"type": "Point", "coordinates": [-122.3125305, 47.623806]}}, {"type": "Feature", "properties": {"id": "9eeb152f-3d9b-42ca-a32f-ebcc816c5aed", "name": "Canterbury Ale House", "category": "pub", "tags": ["pub"], "sources": ["overture"], "website": "http://thecanterburyalehouse.com/", "phone": "2063253110", "address": "534 15th Ave E", "stations": [{"stopCode": 49, "lines": "1,2", "name": "Capitol Hill Station", "walkingMeters": 1117, "walkingSeconds": 803, "band": 15}]}, "geometry": {"type": "Point", "coordinates": [-122.3126144, 47.6242142]}}, {"type": "Feature", "properties": {"id": "93079a0b-beec-4adc-85c3-2c87bef5e651", "name": "The Patio Fine Thai Cuisine", "category": "restaurant", "tags": ["restaurant", "thai", "asian"], "sources": ["overture"], "website": "http://www.thepatiothai.com", "phone": "+12063282406", "address": "524 15th Ave E", "stations": [{"stopCode": 49, "lines": "1,2", "name": "Capitol Hill Station", "walkingMeters": 1104, "walkingSeconds": 793, "band": 15}]}, "geometry": {"type": "Point", "coordinates": [-122.3124542, 47.6240425]}}, {"type": "Feature", "properties": {"id": "50c73513-3186-446f-86db-acc0109c5122", "name": "North Hill Bakery", "category": "bakery", "tags": ["bakery"], "sources": ["overture"], "website": "http://www.northhillbakery.com", "phone": "(206) 325-9007", "address": "518 15th Ave E", "stations": [{"stopCode": 49, "lines": "1,2", "name": "Capitol Hill Station", "walkingMeters": 1085, "walkingSeconds": 780, "band": 15}]}, "geometry": {"type": "Point", "coordinates": [-122.3124924, 47.6238708]}}, {"type": "Feature", "properties": {"id": "3b9fa28b-d44a-46d1-b041-370f7ce9e6cc", "name": "Nuflours", "category": "bakery", "tags": ["bakery", "gluten-free"], "sources": ["overture"], "website": "https://linktr.ee/nuflours", "phone": "+12066585531", "address": "518 15th Ave E", "stations": [{"stopCode": 49, "lines": "1,2", "name": "Capitol Hill Station", "walkingMeters": 1084, "walkingSeconds": 779, "band": 15}]}, "geometry": {"type": "Point", "coordinates": [-122.3123398, 47.6238594]}}, {"type": "Feature", "properties": {"id": "3e4ec62d-8fa6-4a03-9398-3c14c3d77031", "name": "Jamjuree Thai Cuisine", "category": "restaurant", "tags": ["restaurant", "thai", "asian"], "sources": ["overture"], "website": "http://www.jamjuree.com", "phone": "+12063234255", "address": "509 15th Ave E", "stations": [{"stopCode": 49, "lines": "1,2", "name": "Capitol Hill Station", "walkingMeters": 1023, "walkingSeconds": 735, "band": 15}]}, "geometry": {"type": "Point", "coordinates": [-122.3127975, 47.623455]}}, {"type": "Feature", "properties": {"id": "6d8e3efc-b884-46e4-8899-e0ac6e5fe8aa", "name": "El Farol Mexican Restaurant", "category": "restaurant", "tags": ["restaurant", "mexican", "latin-american", "taco"], "sources": ["overture"], "website": "http://Www.elfarolseattle.com/", "phone": "+12063259005", "address": "1467 E Republican St", "stations": [{"stopCode": 49, "lines": "1,2", "name": "Capitol Hill Station", "walkingMeters": 970, "walkingSeconds": 698, "band": 15}]}, "geometry": {"type": "Point", "coordinates": [-122.3128815, 47.6230354]}}, {"type": "Feature", "properties": {"id": "3584e12d-4a0d-4e7c-9235-02588b7bc43e", "name": "The Lab at Ada's", "category": "bar", "tags": ["bar", "cocktail"], "sources": ["overture"], "website": "http://thelab.adasbooks.com/", "phone": "+12063221058", "address": "425 15th Ave E", "stations": [{"stopCode": 49, "lines": "1,2", "name": "Capitol Hill Station", "walkingMeters": 938, "walkingSeconds": 675, "band": 15}]}, "geometry": {"type": "Point", "coordinates": [-122.3128738, 47.622673]}}, {"type": "Feature", "properties": {"id": "a387e9f8-2046-49db-9d0a-0dd3f6a5b5b6", "name": "Coastal Kitchen", "category": "restaurant", "tags": ["restaurant", "breakfast-and-brunch", "breakfast", "brunch", "seafood"], "sources": ["overture"], "website": "https://www.coastalkitchenseattle.com/", "phone": "2063221145", "address": "429 15th Ave E", "stations": [{"stopCode": 49, "lines": "1,2", "name": "Capitol Hill Station", "walkingMeters": 952, "walkingSeconds": 685, "band": 15}]}, "geometry": {"type": "Point", "coordinates": [-122.3129654, 47.6227951]}}, {"type": "Feature", "properties": {"id": "e351bba5-4d41-4879-9d94-597b91806e8a", "name": "Chow Foods", "category": "restaurant", "tags": ["restaurant"], "sources": ["overture"], "website": "http://www.chowfoods.com", "phone": "(206) 322-0124", "address": "429 15th Ave E", "stations": [{"stopCode": 49, "lines": "1,2", "name": "Capitol Hill Station", "walkingMeters": 946, "walkingSeconds": 680, "band": 15}]}, "geometry": {"type": "Point", "coordinates": [-122.3129272, 47.6227417]}}, {"type": "Feature", "properties": {"id": "824f724a-b701-4d08-94f6-cc25176cb1c9", "name": "The Wandering Goose", "category": "restaurant", "tags": ["restaurant"], "sources": ["overture"], "website": "http://www.thewanderinggoose.com", "phone": "(206) 323-9938", "address": "403 15th Ave E", "stations": [{"stopCode": 49, "lines": "1,2", "name": "Capitol Hill Station", "walkingMeters": 895, "walkingSeconds": 643, "band": 15}]}, "geometry": {"type": "Point", "coordinates": [-122.3128967, 47.6222801]}}, {"type": "Feature", "properties": {"id": "8541d06b-8c60-48b6-958c-3d028f0af633", "name": "Capitol Hill Caffe Ladro", "category": "cafe", "tags": ["cafe", "coffee"], "sources": ["overture"], "website": "http://www.caffeladro.com/", "phone": "2062670551", "address": "435 15th Ave E", "stations": [{"stopCode": 49, "lines": "1,2", "name": "Capitol Hill Station", "walkingMeters": 924, "walkingSeconds": 664, "band": 15}]}, "geometry": {"type": "Point", "coordinates": [-122.3126984, 47.6224823]}}, {"type": "Feature", "properties": {"id": "ff6a4673-683e-4778-8f5d-5a7025d9af46", "name": "Remedy Teas", "category": "cafe", "tags": ["cafe", "tea", "room"], "sources": ["overture"], "website": "http://remedyteas.com/", "phone": "(206) 323-4832", "address": "345 15th Ave E", "stations": [{"stopCode": 49, "lines": "1,2", "name": "Capitol Hill Station", "walkingMeters": 844, "walkingSeconds": 606, "band": 15}]}, "geometry": {"type": "Point", "coordinates": [-122.312973, 47.6219292]}}, {"type": "Feature", "properties": {"id": "9d8500d9-e985-479a-93c3-b55f54253b88", "name": "Tandoori Flame and Indian Grill", "category": "restaurant", "tags": ["restaurant", "indian"], "sources": ["overture"], "website": "https://tandooriflameindiangrill.com/", "phone": "+12065673399", "address": "345 15th Ave E", "stations": [{"stopCode": 49, "lines": "1,2", "name": "Capitol Hill Station", "walkingMeters": 813, "walkingSeconds": 584, "band": 15}]}, "geometry": {"type": "Point", "coordinates": [-122.312973, 47.621769]}}, {"type": "Feature", "properties": {"id": "b043900f-89ea-4adf-abc3-cf12944d0b82", "name": "Plum Cafe", "category": "restaurant", "tags": ["restaurant", "vegan"], "sources": ["overture"], "website": "http://www.hillsidequickie.com/", "phone": "(206) 325-6429", "address": "324 15th Ave E", "stations": [{"stopCode": 49, "lines": "1,2", "name": "Capitol Hill Station", "walkingMeters": 806, "walkingSeconds": 579, "band": 15}]}, "geometry": {"type": "Point", "coordinates": [-122.312706, 47.6214027]}}, {"type": "Feature", "properties": {"id": "43a913bb-8833-43ec-870d-03b6ad51289a", "name": "Palermo Pizza & Pasta", "category": "restaurant", "tags": ["restaurant", "italian", "pizza"], "sources": ["overture"], "website": "https://palermo-pizza-and-pasta-capitol-hill.securebrygid.com/zgrid/proc/site/mobile/start.jsp", "phone": "+12063223875", "address": "350 15th Ave E", "stations": [{"stopCode": 49, "lines": "1,2", "name": "Capitol Hill Station", "walkingMeters": 874, "walkingSeconds": 628, "band": 15}]}, "geometry": {"type": "Point", "coordinates": [-122.3125, 47.6219673]}}, {"type": "Feature", "properties": {"id": "0eb71da5-d26a-4f04-8369-2692caa07b19", "name": "Palermo Restaurant", "category": "restaurant", "tags": ["restaurant"], "sources": ["overture"], "website": "http://www.mypalermopizza.com", "phone": "(206) 322-3879", "address": "350 15th Ave E", "stations": [{"stopCode": 49, "lines": "1,2", "name": "Capitol Hill Station", "walkingMeters": 862, "walkingSeconds": 620, "band": 15}]}, "geometry": {"type": "Point", "coordinates": [-122.3123856, 47.6218567]}}, {"type": "Feature", "properties": {"id": "21d88693-6e32-4946-958a-95c058d38894", "name": "Harissa Lebanese Cuisine", "category": "restaurant", "tags": ["restaurant", "middle-eastern", "middle", "eastern"], "sources": ["overture"], "website": "http://www.harissalebanesecuisine.com", "phone": "(206) 535-6857", "address": "340 15th Ave E", "stations": [{"stopCode": 49, "lines": "1,2", "name": "Capitol Hill Station", "walkingMeters": 836, "walkingSeconds": 601, "band": 15}]}, "geometry": {"type": "Point", "coordinates": [-122.3123703, 47.621624]}}, {"type": "Feature", "properties": {"id": "bddffba4-a6d0-4f14-8c8c-0016b0cb95be", "name": "Capital \"D\" Cafe", "category": "cafe", "tags": ["cafe"], "sources": ["overture"], "website": "http://www.capitaldcafe.com", "phone": "(206) 322-2220", "address": "312 15th Ave E", "stations": [{"stopCode": 49, "lines": "1,2", "name": "Capitol Hill Station", "walkingMeters": 758, "walkingSeconds": 545, "band": 10}]}, "geometry": {"type": "Point", "coordinates": [-122.3123169, 47.6209183]}}, {"type": "Feature", "properties": {"id": "aa38dc16-e8f0-4e22-94f2-efc28480ae7d", "name": "Badi", "category": "restaurant", "tags": ["restaurant"], "sources": ["overture"], "website": "http://www.loveyourbadi.com", "phone": "(206) 355-5555", "address": "340 15th Ave E", "stations": [{"stopCode": 49, "lines": "1,2", "name": "Capitol Hill Station", "walkingMeters": 884, "walkingSeconds": 635, "band": 15}]}, "geometry": {"type": "Point", "coordinates": [-122.3122101, 47.6216316]}}, {"type": "Feature", "properties": {"id": 772402830, "name": "Black Sun", "category": "artwork", "tags": ["artwork", "wheelchair-accessible"], "sources": ["osm"], "address": "1400 East Galer Street"}, "geometry": {"type": "Point", "coordinates": [-122.315202, 47.6299452]}}, {"type": "Feature", "properties": {"id": 3211770225, "name": "Tulip Tree Mosaic", "category": "artwork", "tags": ["artwork"], "sources": ["osm"]}, "geometry": {"type": "Point", "coordinates": [-122.311383, 47.6268]}}, {"type": "Feature", "properties": {"id": 3211770226, "name": "Judge Thomas Burke", "category": "artwork", "tags": ["artwork", "wheelchair-accessible"], "sources": ["osm"], "address": "1400 East Galer Street"}, "geometry": {"type": "Point", "coordinates": [-122.31525, 47.629283]}}, {"type": "Feature", "properties": {"id": 40790430, "name": "Volunteer Park Water Tower", "category": "viewpoint", "tags": ["viewpoint"], "sources": ["osm"], "website": "https://volunteerparktrust.org/profile/water-tower/"}, "geometry": {"type": "Point", "coordinates": [-122.314573, 47.629022]}}, {"type": "Feature", "properties": {"id": "5cc3018d-1342-42f0-8ae3-bbdc75395406", "name": "Capitol Hill Art Walk", "category": "gallery", "tags": ["gallery", "art"], "sources": ["overture"], "website": "http://capitolhillartwalk.com/", "stations": [{"stopCode": 49, "lines": "1,2", "name": "Capitol Hill Station", "walkingMeters": 636, "walkingSeconds": 458, "band": 10}]}, "geometry": {"type": "Point", "coordinates": [-122.3186874, 47.6239662]}}, {"type": "Feature", "properties": {"id": "76a594d5-11de-4612-8a4c-69cd23004e59", "name": "Lavanch Apartments", "category": "attraction", "tags": ["attraction", "landmark", "historical", "building"], "sources": ["overture"], "website": "http://www.lavanchapartments.com/", "phone": "+12063298642", "address": "956 10th Ave E", "stations": [{"stopCode": 49, "lines": "1,2", "name": "Capitol Hill Station", "walkingMeters": 1111, "walkingSeconds": 800, "band": 15}]}, "geometry": {"type": "Point", "coordinates": [-122.3199615, 47.6284752]}}, {"type": "Feature", "properties": {"id": "70a3269e-3f9f-49e6-a305-60c720584bf7", "name": "The Lyric", "category": "attraction", "tags": ["attraction", "landmark", "historical", "building"], "sources": ["overture"], "website": "https://www.thelyriccapitolhill.com/?utm_source=facebook&utm_medium=social", "phone": "+18142125673", "address": "215 10th Ave E", "stations": [{"stopCode": 49, "lines": "1,2", "name": "Capitol Hill Station", "walkingMeters": 215, "walkingSeconds": 154, "band": 5}]}, "geometry": {"type": "Point", "coordinates": [-122.3199692, 47.6206779]}}, {"type": "Feature", "properties": {"id": "f444cba0-10bb-4824-9342-3b676e140e7b", "name": "The Daphne Apartments", "category": "attraction", "tags": ["attraction", "landmark", "historical", "building"], "sources": ["overture"], "phone": "+12063225559", "address": "433 13th Ave E", "stations": [{"stopCode": 49, "lines": "1,2", "name": "Capitol Hill Station", "walkingMeters": 737, "walkingSeconds": 530, "band": 10}]}, "geometry": {"type": "Point", "coordinates": [-122.31604, 47.6229553]}}, {"type": "Feature", "properties": {"id": "70103eb5-9f54-47f4-ba47-a7d38adc6f73", "name": "The White House", "category": "attraction", "tags": ["attraction", "landmark", "historical", "building"], "sources": ["overture"], "website": "http://www.whitehouse.gov/", "address": "905 12th Ave E", "stations": [{"stopCode": 49, "lines": "1,2", "name": "Capitol Hill Station", "walkingMeters": 1100, "walkingSeconds": 792, "band": 15}]}, "geometry": {"type": "Point", "coordinates": [-122.3170319, 47.6268616]}}, {"type": "Feature", "properties": {"id": "a0d234e8-26eb-426e-9de6-6cb7b930c2ae", "name": "Water Tower Observation Deck", "category": "attraction", "tags": ["attraction", "landmark", "historical", "building"], "sources": ["overture"], "address": "1400 E Prospect St"}, "geometry": {"type": "Point", "coordinates": [-122.3145905, 47.6290169]}}, {"type": "Feature", "properties": {"id": "fda6fa3c-9887-49ab-8222-3a7ab7405fef", "name": "The Edge Apartments", "category": "attraction", "tags": ["attraction", "landmark", "historical", "building"], "sources": ["overture"], "website": "http://www.theedgeseattle.com/", "phone": "+12064681948", "address": "500 13th Ave E", "stations": [{"stopCode": 49, "lines": "1,2", "name": "Capitol Hill Station", "walkingMeters": 801, "walkingSeconds": 576, "band": 10}]}, "geometry": {"type": "Point", "coordinates": [-122.3155289, 47.6233826]}}, {"type": "Feature", "properties": {"id": "27941253-1ee1-4fd1-ac82-865782ff206a", "name": "Yardhouse Apartments", "category": "attraction", "tags": ["attraction", "landmark", "historical", "building"], "sources": ["overture"], "website": "https://www.yardhouseapartments.com/?utm_source=businessprofile&utm_medium=search&utm_campaign=general", "phone": "+18445434727", "address": "1406 E Republican St", "stations": [{"stopCode": 49, "lines": "1,2", "name": "Capitol Hill Station", "walkingMeters": 866, "walkingSeconds": 623, "band": 15}]}, "geometry": {"type": "Point", "coordinates": [-122.3144455, 47.6232643]}}, {"type": "Feature", "properties": {"id": "0507b265-2a41-416d-9e41-4681329922eb", "name": "Capitol Hilltop Apartments", "category": "attraction", "tags": ["attraction", "landmark", "historical", "building"], "sources": ["overture"], "website": "http://thecapitolhilltop.com/", "phone": "+12066498985", "address": "555 15th Ave E", "stations": [{"stopCode": 49, "lines": "1,2", "name": "Capitol Hill Station", "walkingMeters": 1088, "walkingSeconds": 782, "band": 15}]}, "geometry": {"type": "Point", "coordinates": [-122.3129272, 47.6240349]}}, {"type": "Feature", "properties": {"id": "c6dda67f-57d8-4954-8ac2-03470a2c37c9", "name": "The Gables", "category": "attraction", "tags": ["attraction", "landmark", "historical", "building"], "sources": ["overture"], "website": "http://www.gableslbi.com/", "phone": "+14049235500", "address": "409 16th Ave E", "stations": [{"stopCode": 49, "lines": "1,2", "name": "Capitol Hill Station", "walkingMeters": 991, "walkingSeconds": 712, "band": 15}]}, "geometry": {"type": "Point", "coordinates": [-122.311554, 47.6222992]}}, {"type": "Feature", "properties": {"id": 397508979, "name": "Broadway Hill Park", "category": "park", "tags": ["park"], "sources": ["osm", "overture"], "website": "http://www.twitter.com/FedRepPark", "phone": "+12063223784", "address": "500 Federal Ave E", "hours": "04:00-23:30", "stations": [{"stopCode": 49, "lines": "1,2", "name": "Capitol Hill Station", "walkingMeters": 584, "walkingSeconds": 420, "band": 10}]}, "geometry": {"type": "Point", "coordinates": [-122.3185393, 47.6233522]}}, {"type": "Feature", "properties": {"id": "79c59bfd-4f23-464c-b8ae-84e3d135ea31", "name": "Volunteer Parkway", "category": "park", "tags": ["park"], "sources": ["overture"], "website": "http://volunteerparksda.org", "phone": "+12063255544", "address": "1300 E Aloha St"}, "geometry": {"type": "Point", "coordinates": [-122.3154221, 47.626873]}}, {"type": "Feature", "properties": {"id": "4298527b-b4ab-4179-867d-cb4a63c6a2af", "name": "Roy Street Commons", "category": "hotel", "tags": ["hotel"], "sources": ["overture"], "website": "http://www.roystreetcommons.com/", "phone": "+12068662165", "address": "621 12th Ave E", "stations": [{"stopCode": 49, "lines": "1,2", "name": "Capitol Hill Station", "walkingMeters": 879, "walkingSeconds": 632, "band": 15}]}, "geometry": {"type": "Point", "coordinates": [-122.317009, 47.624897]}}, {"type": "Feature", "properties": {"id": "d3e6d6ad-7569-461a-9c88-8a9ad3ccb7df", "name": "Shafer Baillie Mansion Bed & Breakfast", "category": "guest_house", "tags": ["guest-house", "bed", "breakfast"], "sources": ["overture"], "website": "https://www.sbmansion.com/", "phone": "+12063224654", "address": "907 14th Ave E"}, "geometry": {"type": "Point", "coordinates": [-122.3148193, 47.6271133]}}, {"type": "Feature", "properties": {"id": "55c462e1-9a95-40ea-88ee-088ec6f29a5a", "name": "Mozart Guest House Bed and Breakfast", "category": "guest_house", "tags": ["guest-house", "bed", "breakfast"], "sources": ["overture"], "phone": "(206) 290-5712", "address": "1013 15th Ave E"}, "geometry": {"type": "Point", "coordinates": [-122.3128357, 47.6280823]}}, {"type": "Feature", "properties": {"id": "4ed5b579-895d-4061-b3ee-8b7a9314aaa1", "name": "QFC", "category": "supermarket", "tags": ["supermarket"], "sources": ["overture"], "website": "https://www.qfc.com", "phone": "(206) 322-5020", "address": "416 15th Ave E", "stations": [{"stopCode": 49, "lines": "1,2", "name": "Capitol Hill Station", "walkingMeters": 997, "walkingSeconds": 717, "band": 15}]}, "geometry": {"type": "Point", "coordinates": [-122.3122711, 47.6227226]}}, {"type": "Feature", "properties": {"id": 1724756236, "name": "4 Gift Seattle", "category": "florist", "tags": ["florist"], "sources": ["osm"], "address": "300 15th Avenue East", "hours": "Mo-Fr 08:30-18:00; Sa 09:00-12:00", "stations": [{"stopCode": 49, "lines": "1,2", "name": "Capitol Hill Station", "walkingMeters": 731, "walkingSeconds": 525, "band": 10}]}, "geometry": {"type": "Point", "coordinates": [-122.3124931, 47.6206739]}}, {"type": "Feature", "properties": {"id": 136575897, "name": "Safeway", "category": "supermarket", "tags": ["supermarket"], "sources": ["osm", "overture"], "website": "https://local.safeway.com/safeway/wa/seattle/1410-e-john-st.html", "phone": "+12063234988", "address": "1410 E John St", "stations": [{"stopCode": 49, "lines": "1,2", "name": "Capitol Hill Station", "walkingMeters": 697, "walkingSeconds": 500, "band": 10}]}, "geometry": {"type": "Point", "coordinates": [-122.3131578, 47.6204852]}}, {"type": "Feature", "properties": {"id": 2131651268, "name": "Ruckus Recreational Cannabis", "category": "cannabis", "tags": ["cannabis"], "sources": ["osm"], "address": "1463 East Republican Street", "stations": [{"stopCode": 49, "lines": "1,2", "name": "Capitol Hill Station", "walkingMeters": 955, "walkingSeconds": 687, "band": 15}]}, "geometry": {"type": "Point", "coordinates": [-122.3130881, 47.6229932]}}, {"type": "Feature", "properties": {"id": 2131651274, "name": "Petty Snacks", "category": "convenience", "tags": ["convenience"], "sources": ["osm"], "address": "1465 East Republican Street", "stations": [{"stopCode": 49, "lines": "1,2", "name": "Capitol Hill Station", "walkingMeters": 960, "walkingSeconds": 691, "band": 15}]}, "geometry": {"type": "Point", "coordinates": [-122.3130181, 47.6229909]}}, {"type": "Feature", "properties": {"id": 2131651292, "name": "Creature", "category": "clothes", "tags": ["clothes", "second-hand"], "sources": ["osm"], "website": "https://creatureconsign.com", "address": "415 15th Avenue East", "hours": "Tu-Su 10:00-19:00", "stations": [{"stopCode": 49, "lines": "1,2", "name": "Capitol Hill Station", "walkingMeters": 912, "walkingSeconds": 655, "band": 15}]}, "geometry": {"type": "Point", "coordinates": [-122.312828, 47.6224304]}}, {"type": "Feature", "properties": {"id": 2131651293, "name": "The Red Balloon Company", "category": "gift", "tags": ["gift"], "sources": ["osm"], "website": "https://www.redballoon.com", "phone": "+1-206-467-0318", "address": "417 15th Avenue East", "hours": "Mo-Sa 10:30-17:00; Su 10:30-16:00", "stations": [{"stopCode": 49, "lines": "1,2", "name": "Capitol Hill Station", "walkingMeters": 919, "walkingSeconds": 661, "band": 15}]}, "geometry": {"type": "Point", "coordinates": [-122.3128327, 47.6224997]}}, {"type": "Feature", "properties": {"id": 2131651406, "name": "Flowers on 15th", "category": "florist", "tags": ["florist"], "sources": ["osm"], "address": "515 15th Avenue East", "stations": [{"stopCode": 49, "lines": "1,2", "name": "Capitol Hill Station", "walkingMeters": 1030, "walkingSeconds": 740, "band": 15}]}, "geometry": {"type": "Point", "coordinates": [-122.3128274, 47.6235126]}}, {"type": "Feature", "properties": {"id": 2383892160, "name": "European Vine Selections", "category": "wine", "tags": ["wine"], "sources": ["osm"], "website": "http://www.evswines.com/", "phone": "+1-206-323-3557", "address": "522 15th Avenue East", "hours": "12:00-19:00", "stations": [{"stopCode": 49, "lines": "1,2", "name": "Capitol Hill Station", "walkingMeters": 1093, "walkingSeconds": 786, "band": 15}]}, "geometry": {"type": "Point", "coordinates": [-122.31242, 47.6239435]}}, {"type": "Feature", "properties": {"id": 2384428178, "name": "Thistle & Poppy", "category": "toys", "tags": ["toys"], "sources": ["osm"], "website": "https://www.thistleandpoppy.com", "address": "428 15th Avenue East", "stations": [{"stopCode": 49, "lines": "1,2", "name": "Capitol Hill Station", "walkingMeters": 985, "walkingSeconds": 708, "band": 15}]}, "geometry": {"type": "Point", "coordinates": [-122.3124824, 47.6229798]}}, {"type": "Feature", "properties": {"id": 2384428180, "name": "Haunted Burrow", "category": "books", "tags": ["books"], "sources": ["osm"], "website": "https://hauntedburrowbooks.com", "address": "430 15th Avenue East", "hours": "Tu-We 10:00-18:00; Th-Su 10:00-19:00", "stations": [{"stopCode": 49, "lines": "1,2", "name": "Capitol Hill Station", "walkingMeters": 994, "walkingSeconds": 715, "band": 15}]}, "geometry": {"type": "Point", "coordinates": [-122.3124815, 47.6230616]}}, {"type": "Feature", "properties": {"id": 3436606323, "name": "Windthrow", "category": "clothes", "tags": ["clothes"], "sources": ["osm"], "website": "https://windthrow.store/", "address": "345 15th Avenue East", "hours": "Mo,We,Th,Fr,Sa 11:00-19:00; Su 11:00-18:00; Tu off", "stations": [{"stopCode": 49, "lines": "1,2", "name": "Capitol Hill Station", "walkingMeters": 834, "walkingSeconds": 599, "band": 15}]}, "geometry": {"type": "Point", "coordinates": [-122.3130495, 47.6218464]}}, {"type": "Feature", "properties": {"id": 3688649425, "name": "Uncle Ike's", "category": "cannabis", "tags": ["cannabis"], "sources": ["osm"], "website": "https://ikes.com/locations/capitol-hill-east", "address": "501 15th Avenue East", "hours": "Mo-Su 08:00-23:45", "stations": [{"stopCode": 49, "lines": "1,2", "name": "Capitol Hill Station", "walkingMeters": 996, "walkingSeconds": 716, "band": 15}]}, "geometry": {"type": "Point", "coordinates": [-122.312832, 47.6232134]}}, {"type": "Feature", "properties": {"id": "52a9fac4-5558-442e-8bb5-73552f009c49", "name": "Spaces", "category": "doityourself", "tags": ["doityourself", "building", "supply"], "sources": ["overture"], "website": "http://www.maryika-spaces.com", "phone": "(206) 441-0868", "address": "925 11th Ave E", "stations": [{"stopCode": 49, "lines": "1,2", "name": "Capitol Hill Station", "walkingMeters": 1135, "walkingSeconds": 817, "band": 15}]}, "geometry": {"type": "Point", "coordinates": [-122.3183212, 47.6278114]}}, {"type": "Feature", "properties": {"id": "7bf7a413-7a8c-43ad-b167-8d5bf08fcf93", "name": "Cannabis Hemp Store", "category": "tobacco", "tags": ["tobacco"], "sources": ["overture"], "website": "http://www.cannabishermpstore.com", "phone": "(612) 547-8548", "address": "1117 E Harrison St", "stations": [{"stopCode": 49, "lines": "1,2", "name": "Capitol Hill Station", "walkingMeters": 537, "walkingSeconds": 386, "band": 10}]}, "geometry": {"type": "Point", "coordinates": [-122.3170929, 47.6218185]}}, {"type": "Feature", "properties": {"id": "2ca945ad-3fbf-4cd0-ab93-257279bb08b9", "name": "Zen Dog Walking", "category": "pet", "tags": ["pet"], "sources": ["overture"], "website": "http://www.zendogwalking.net", "phone": "(206) 432-4808", "address": "629 12th Ave E Apt 4", "stations": [{"stopCode": 49, "lines": "1,2", "name": "Capitol Hill Station", "walkingMeters": 911, "walkingSeconds": 655, "band": 15}]}, "geometry": {"type": "Point", "coordinates": [-122.3171082, 47.6251183]}}, {"type": "Feature", "properties": {"id": "e744bc5f-d2b0-4476-acb2-c74c49879c49", "name": "Ruckus - Recreational Marijuana 21+", "category": "gift", "tags": ["gift"], "sources": ["overture"], "website": "https://www.ruckusrec.com/", "phone": "2062574805", "address": "1463 E Republican St", "stations": [{"stopCode": 49, "lines": "1,2", "name": "Capitol Hill Station", "walkingMeters": 961, "walkingSeconds": 691, "band": 15}]}, "geometry": {"type": "Point", "coordinates": [-122.3130112, 47.622921]}}, {"type": "Feature", "properties": {"id": "4692d13e-7232-42b6-97a0-34cc8b61a31e", "name": "Ruckus Recreational Apparel", "category": "cannabis", "tags": ["cannabis", "clinic"], "sources": ["overture"], "website": "http://ruckusrecreationalapparel.com/", "phone": "+12063998847", "address": "1465 E Republican St", "stations": [{"stopCode": 49, "lines": "1,2", "name": "Capitol Hill Station", "walkingMeters": 961, "walkingSeconds": 691, "band": 15}]}, "geometry": {"type": "Point", "coordinates": [-122.3130112, 47.6230316]}}, {"type": "Feature", "properties": {"id": "b0eb8153-03ed-4077-a366-11d9fd407408", "name": "Alterations Plus", "category": "clothes", "tags": ["clothes"], "sources": ["overture"], "website": "http://www.4abesttailor.vpweb.com", "phone": "(206) 324-4487", "address": "520 15th Ave E", "stations": [{"stopCode": 49, "lines": "1,2", "name": "Capitol Hill Station", "walkingMeters": 1074, "walkingSeconds": 771, "band": 15}]}, "geometry": {"type": "Point", "coordinates": [-122.312294, 47.623764]}}, {"type": "Feature", "properties": {"id": "1d5a25e1-6c68-47f2-873e-dc0c05c32ba8", "name": "EVS Wines", "category": "alcohol", "tags": ["alcohol"], "sources": ["overture"], "website": "http://www.evswines.com/", "phone": "+12063233557", "address": "522 15th Ave E", "stations": [{"stopCode": 49, "lines": "1,2", "name": "Capitol Hill Station", "walkingMeters": 1095, "walkingSeconds": 786, "band": 15}]}, "geometry": {"type": "Point", "coordinates": [-122.312294, 47.6239548]}}, {"type": "Feature", "properties": {"id": "44b002db-a1c7-47c0-be3d-0e606f958953", "name": "Uncle Ike's Capitol Hill", "category": "cannabis", "tags": ["cannabis"], "sources": ["overture"], "website": "https://ikes.com/locations/capitol-hill-east", "phone": "2064205798", "address": "501 15th Ave E", "stations": [{"stopCode": 49, "lines": "1,2", "name": "Capitol Hill Station", "walkingMeters": 984, "walkingSeconds": 707, "band": 15}]}, "geometry": {"type": "Point", "coordinates": [-122.3128967, 47.6232681]}}, {"type": "Feature", "properties": {"id": "82feece4-df32-419f-99f5-b8bae44e7a95", "name": "Casita International", "category": "gift", "tags": ["gift"], "sources": ["overture"], "website": "http://www.casitainternational.com", "phone": "(206) 322-7800", "address": "423 15th Ave E", "stations": [{"stopCode": 49, "lines": "1,2", "name": "Capitol Hill Station", "walkingMeters": 940, "walkingSeconds": 676, "band": 15}]}, "geometry": {"type": "Point", "coordinates": [-122.3129349, 47.6226883]}}, {"type": "Feature", "properties": {"id": "55f16b08-9ac0-4f38-a682-6836f8082635", "name": "Creature Consignment", "category": "clothes", "tags": ["clothes"], "sources": ["overture"], "website": "https://www.creatureconsign.com/", "phone": "+12064209627", "address": "415 15th Ave E", "stations": [{"stopCode": 49, "lines": "1,2", "name": "Capitol Hill Station", "walkingMeters": 911, "walkingSeconds": 655, "band": 15}]}, "geometry": {"type": "Point", "coordinates": [-122.3127823, 47.6224251]}}, {"type": "Feature", "properties": {"id": "52a0e65d-a146-4574-8fcf-b3949da6225c", "name": "1-800-flowers 4 Gift Seattle", "category": "florist", "tags": ["florist"], "sources": ["overture"], "website": "http://www.1800flowers4giftseattle.com/", "phone": "2063255068", "address": "300 15th Ave E", "stations": [{"stopCode": 49, "lines": "1,2", "name": "Capitol Hill Station", "walkingMeters": 728, "walkingSeconds": 523, "band": 10}]}, "geometry": {"type": "Point", "coordinates": [-122.3125534, 47.6206131]}}, {"type": "Feature", "properties": {"id": "da7aa856-9718-42ef-aa8b-bcbcf8eef997", "name": "Dunshee Medical", "category": "cannabis", "tags": ["cannabis"], "sources": ["overture"], "phone": "2063246602", "address": "303 17th Ave E", "stations": [{"stopCode": 49, "lines": "1,2", "name": "Capitol Hill Station", "walkingMeters": 928, "walkingSeconds": 667, "band": 15}]}, "geometry": {"type": "Point", "coordinates": [-122.3100433, 47.6206818]}}, {"type": "Feature", "properties": {"id": 6618467638, "name": "Walgreens", "category": "pharmacy", "tags": ["pharmacy"], "sources": ["osm"], "stations": [{"stopCode": 49, "lines": "1,2", "name": "Capitol Hill Station", "walkingMeters": 1057, "walkingSeconds": 759, "band": 15}]}, "geometry": {"type": "Point", "coordinates": [-122.3124265, 47.6236171]}}, {"type": "Feature", "properties": {"id": "05850a91-dca8-484c-b91d-51f3dafb9366", "name": "Walgreens Pharmacy", "category": "pharmacy", "tags": ["pharmacy"], "sources": ["overture"], "website": "https://www.walgreens.com", "phone": "+12067094569", "address": "500 15th Ave E", "stations": [{"stopCode": 49, "lines": "1,2", "name": "Capitol Hill Station", "walkingMeters": 1050, "walkingSeconds": 754, "band": 15}]}, "geometry": {"type": "Point", "coordinates": [-122.3123703, 47.6235542]}}, {"type": "Feature", "properties": {"id": "bd7840ec-aa96-4ef4-9783-ce61c49051a3", "name": "Bone Marrow Transplant Program at Seattle Cancer Care Alliance", "category": "hospital", "tags": ["hospital"], "sources": ["overture"], "website": "http://www.seattlecca.org/treatments/bone-marrow-transplant", "phone": "2062887222", "address": "1354 E Aloha St"}, "geometry": {"type": "Point", "coordinates": [-122.3151779, 47.6266441]}}, {"type": "Feature", "properties": {"id": "5f9213f3-e6be-4951-9639-876e8d7750bd", "name": "Sameday Testing", "category": "clinic", "tags": ["clinic", "medical"], "sources": ["overture"], "website": "https://sameday-testing.com", "phone": "(310) 429-7178", "address": "430 15th Ave E", "stations": [{"stopCode": 49, "lines": "1,2", "name": "Capitol Hill Station", "walkingMeters": 1018, "walkingSeconds": 732, "band": 15}]}, "geometry": {"type": "Point", "coordinates": [-122.3124084, 47.6231155]}}, {"type": "Feature", "properties": {"id": "9b6f31df-64dc-4e84-a8bf-cc3002b9b90e", "name": "Kaiser Permanente Podiatry", "category": "clinic", "tags": ["clinic", "medical"], "sources": ["overture"], "phone": "+12063263592", "address": "310 15th Ave E", "stations": [{"stopCode": 49, "lines": "1,2", "name": "Capitol Hill Station", "walkingMeters": 750, "walkingSeconds": 539, "band": 10}]}, "geometry": {"type": "Point", "coordinates": [-122.3124771, 47.6208496]}}, {"type": "Feature", "properties": {"id": "0c3c0842-2ab0-47cb-ba08-bf54bed5b94a", "name": "Donald Lum MD | Kaiser Permanente", "category": "clinic", "tags": ["clinic", "medical"], "sources": ["overture"], "website": "https://healthy.kaiserpermanente.org/washington/front-door", "phone": "2063263000", "address": "310 15th Ave E, 0", "stations": [{"stopCode": 49, "lines": "1,2", "name": "Capitol Hill Station", "walkingMeters": 752, "walkingSeconds": 540, "band": 10}]}, "geometry": {"type": "Point", "coordinates": [-122.3124924, 47.6208687]}}, {"type": "Feature", "properties": {"id": 1722522713, "name": "KeyBank", "category": "bank", "tags": ["bank", "credit", "union"], "sources": ["osm", "overture"], "website": "https://www.key.com/locations/WA/Seattle/BRCH47310255/321-15th-Ave-E?ppc=cmpyxt", "phone": "+12067483822", "address": "321 15th Ave E", "stations": [{"stopCode": 49, "lines": "1,2", "name": "Capitol Hill Station", "walkingMeters": 760, "walkingSeconds": 546, "band": 10}]}, "geometry": {"type": "Point", "coordinates": [-122.3131094, 47.6213086]}}, {"type": "Feature", "properties": {"id": 3800939506, "name": "Wells Fargo", "category": "bank", "tags": ["bank"], "sources": ["osm"], "address": "1410 East John Street", "hours": "Mo-Fr 10:00-19:00; Sa 09:00-17:00; Su closed", "stations": [{"stopCode": 49, "lines": "1,2", "name": "Capitol Hill Station", "walkingMeters": 657, "walkingSeconds": 472, "band": 10}]}, "geometry": {"type": "Point", "coordinates": [-122.312948, 47.6201294]}}, {"type": "Feature", "properties": {"id": "2049e423-dad2-408b-bc78-6cf6c01270ec", "name": "Postal Plus", "category": "post_office", "tags": ["post-office", "office"], "sources": ["overture"], "website": "http://postalplusseattle.com", "phone": "+12063240181", "address": "1463 E Republican St", "stations": [{"stopCode": 49, "lines": "1,2", "name": "Capitol Hill Station", "walkingMeters": 942, "walkingSeconds": 677, "band": 15}]}, "geometry": {"type": "Point", "coordinates": [-122.3132629, 47.6229515]}}, {"type": "Feature", "properties": {"id": 3700160527, "name": "The Grinning Yogi", "category": "fitness_centre", "tags": ["fitness-centre", "yoga", "studio"], "sources": ["osm", "overture"], "website": "https://thegrinningyogiseattle.com/", "phone": "+12067557611", "address": "345 15th Ave E", "stations": [{"stopCode": 49, "lines": "1,2", "name": "Capitol Hill Station", "walkingMeters": 839, "walkingSeconds": 603, "band": 15}]}, "geometry": {"type": "Point", "coordinates": [-122.3129767, 47.6217845]}}, {"type": "Feature", "properties": {"id": "9e637cef-13ef-46a7-a6bd-3f7804e9a37f", "name": "Sol Dance Fitness", "category": "fitness_centre", "tags": ["fitness-centre", "gym"], "sources": ["overture"], "website": "https://www.soldancefitness.com/", "address": "Dance Underground, 340 15th Ave E", "stations": [{"stopCode": 49, "lines": "1,2", "name": "Capitol Hill Station", "walkingMeters": 839, "walkingSeconds": 602, "band": 15}]}, "geometry": {"type": "Point", "coordinates": [-122.3123932, 47.6216431]}}]}