{"type": "FeatureCollection", "features": [{"type": "Feature", "properties": {"id": 10046344717, "name": "Sweet Spot Espresso", "category": "cafe", "tags": ["cafe"], "sources": ["osm"]}, "geometry": {"type": "Point", "coordinates": [-122.2315491, 47.3784426]}}, {"type": "Feature", "properties": {"id": 640715256, "name": "La Campinita", "category": "restaurant", "tags": ["restaurant"], "sources": ["osm"], "address": "623 Central Avenue South"}, "geometry": {"type": "Point", "coordinates": [-122.2306818, 47.3758237]}}, {"type": "Feature", "properties": {"id": "e2a7b6df-e97d-421c-a8ef-0481539fb8e6", "name": "WoW Hotdogs & Burgers", "category": "restaurant", "tags": ["restaurant", "burger"], "sources": ["overture"], "website": "https://wowfastfood.com/", "phone": "+14254992151", "address": "405 Central Ave S"}, "geometry": {"type": "Point", "coordinates": [-122.231163, 47.3782692]}}, {"type": "Feature", "properties": {"id": "b937b7b2-a1b6-4179-8854-75b16d02e0c4", "name": "Ishtar Greek and Mediterranean Cuisine", "category": "restaurant", "tags": ["restaurant", "greek", "mediterranean"], "sources": ["overture"], "website": "https://www.ishtargreekrestaurant.com/", "phone": "+12532208927", "address": "421 Central Ave S"}, "geometry": {"type": "Point", "coordinates": [-122.2313919, 47.3780441]}}, {"type": "Feature", "properties": {"id": "f03475a3-487d-465c-b225-47c9836a5e9b", "name": "La Chapanita", "category": "restaurant", "tags": ["restaurant", "mexican", "buffet"], "sources": ["overture"], "website": "https://la-chapanita.business.site", "phone": "+12062883858", "address": "623 Central Ave S"}, "geometry": {"type": "Point", "coordinates": [-122.2304764, 47.3757706]}}, {"type": "Feature", "properties": {"id": "cd362d8c-d445-4252-979b-79437220a03e", "name": "Webster Court Senior Apartments", "category": "attraction", "tags": ["attraction", "landmark", "historical", "building"], "sources": ["overture"], "website": "https://www.webstercourtapartments.com", "phone": "+12538138888", "address": "309 5th Ave S"}, "geometry": {"type": "Point", "coordinates": [-122.2390137, 47.379261]}}, {"type": "Feature", "properties": {"id": "b924b4fc-6d24-41c0-b749-956d0e1018ce", "name": "Kent Fifth Avenue Apartments", "category": "attraction", "tags": ["attraction", "landmark", "historical", "building"], "sources": ["overture"], "phone": "+12062906236", "address": "731 5th Ave S"}, "geometry": {"type": "Point", "coordinates": [-122.2399826, 47.3745918]}}, {"type": "Feature", "properties": {"id": "78d3f819-ac3f-440e-8786-fc8b8affe034", "name": "Shelcor Apartments", "category": "attraction", "tags": ["attraction", "landmark", "historical", "building"], "sources": ["overture"], "phone": "+12066936411", "address": "503 4th Ave S"}, "geometry": {"type": "Point", "coordinates": [-122.2378387, 47.377552]}}, {"type": "Feature", "properties": {"id": 353937835, "name": "Titus Railroad Park", "category": "park", "tags": ["park"], "sources": ["osm", "overture"], "phone": "+12538565000", "address": "216 1st Ave S"}, "geometry": {"type": "Point", "coordinates": [-122.2333369, 47.3799434]}}, {"type": "Feature", "properties": {"id": 359625428, "name": "Kiwanis Tot Lot #4", "category": "park", "tags": ["park"], "sources": ["osm"]}, "geometry": {"type": "Point", "coordinates": [-122.2397643, 47.3765246]}}, {"type": "Feature", "properties": {"id": 359625443, "name": "Kiwanis Tot Lot #1", "category": "park", "tags": ["park"], "sources": ["osm"], "address": "532 1st Avenue South"}, "geometry": {"type": "Point", "coordinates": [-122.233742, 47.3768594]}}, {"type": "Feature", "properties": {"id": "999b143e-1569-4021-802a-76cf264a7bb8", "name": "Kiwanis Tot Lot Number 1", "category": "park", "tags": ["park"], "sources": ["overture"], "website": "http://www.berkleymich.org/spotlight_parksKiwanis.shtm", "phone": "+12538565000", "address": "532 1st Ave S"}, "geometry": {"type": "Point", "coordinates": [-122.233429, 47.3768921]}}, {"type": "Feature", "properties": {"id": 640715315, "name": "7-Eleven", "category": "convenience", "tags": ["convenience"], "sources": ["osm", "overture"], "website": "https://www.7-eleven.com/", "phone": "+12534102791", "address": "511 Central Ave S", "hours": "24/7"}, "geometry": {"type": "Point", "coordinates": [-122.2312746, 47.3774952]}}, {"type": "Feature", "properties": {"id": "b318497e-42b1-4318-9d78-abf45386593d", "name": "McKinnon Furniture", "category": "furniture", "tags": ["furniture"], "sources": ["overture"], "website": "http://www.mckinnonfurniture.com", "phone": "(253) 852-0274", "address": "822 3rd Ave S"}, "geometry": {"type": "Point", "coordinates": [-122.2349472, 47.3732262]}}, {"type": "Feature", "properties": {"id": 4216604605, "name": "Na Fashion Boutique", "category": "clothes", "tags": ["clothes"], "sources": ["osm"], "address": "235 1st Avenue South", "hours": "Mo-Fr 10:00-20:00; Sa-Su 10:00-21:00"}, "geometry": {"type": "Point", "coordinates": [-122.2337321, 47.3798925]}}, {"type": "Feature", "properties": {"id": 5430262729, "name": "Sunrise Glass", "category": "hardware", "tags": ["hardware"], "sources": ["osm"], "address": "707 Central Avenue South"}, "geometry": {"type": "Point", "coordinates": [-122.230752, 47.374773]}}, {"type": "Feature", "properties": {"id": 5430297941, "name": "Club Car", "category": "sports", "tags": ["sports"], "sources": ["osm"], "address": "913 Central Avenue South"}, "geometry": {"type": "Point", "coordinates": [-122.2307568, 47.3721259]}}, {"type": "Feature", "properties": {"id": 5445967824, "name": "Snatch AV", "category": "electronics", "tags": ["electronics"], "sources": ["osm"]}, "geometry": {"type": "Point", "coordinates": [-122.230603, 47.371411]}}, {"type": "Feature", "properties": {"id": 6035604574, "name": "Istar Smoke Shop", "category": "tobacco", "tags": ["tobacco"], "sources": ["osm"], "address": "519 Central Avenue South"}, "geometry": {"type": "Point", "coordinates": [-122.2307054, 47.3773023]}}, {"type": "Feature", "properties": {"id": 649910656, "name": "The City Smoke Shop", "category": "tobacco", "tags": ["tobacco"], "sources": ["osm", "overture"], "website": "http://Thecityhookah.com/", "phone": "+12532779617", "address": "417 Central Ave S"}, "geometry": {"type": "Point", "coordinates": [-122.23116, 47.3782018]}}, {"type": "Feature", "properties": {"id": 640715083, "name": "SiteOne Landscape Supply", "category": "hardware", "tags": ["hardware"], "sources": ["osm"], "address": "633 Central Avenue South"}, "geometry": {"type": "Point", "coordinates": [-122.2307461, 47.37551]}}, {"type": "Feature", "properties": {"id": 640715327, "name": "Alki Fence", "category": "hardware", "tags": ["hardware"], "sources": ["osm"]}, "geometry": {"type": "Point", "coordinates": [-122.2305613, 47.3703937]}}, {"type": "Feature", "properties": {"id": 649910722, "name": "Sun Star Food Mart", "category": "convenience", "tags": ["convenience"], "sources": ["osm", "overture"], "website": "https://sun-star-food-mart.business.site/?m=true", "phone": "+12539814623", "address": "405 Central Ave S"}, "geometry": {"type": "Point", "coordinates": [-122.2315374, 47.3783298]}}, {"type": "Feature", "properties": {"id": "6b43829a-27ee-4559-87d0-bc408f1d0b92", "name": "Daiso", "category": "convenience", "tags": ["convenience"], "sources": ["overture"], "website": "https://www.daisojapan.com", "phone": "(253) 236-4212", "address": "4TH Ave"}, "geometry": {"type": "Point", "coordinates": [-122.2374496, 47.3790436]}}, {"type": "Feature", "properties": {"id": "98d3fa4d-6101-4b2a-81cc-291c885fb472", "name": "CESSCO Inc", "category": "doityourself", "tags": ["doityourself", "building", "supply"], "sources": ["overture"], "website": "http://www.cessco.us/about.html", "phone": "4252919292", "address": "926 5th Ave S"}, "geometry": {"type": "Point", "coordinates": [-122.2386703, 47.3733521]}}, {"type": "Feature", "properties": {"id": "f49850b8-eb27-4797-b988-f0b1dbe4c1f5", "name": "Swift Tool Co.", "category": "doityourself", "tags": ["doityourself", "home", "improvement"], "sources": ["overture"], "website": "http://www.swifttoolco.com", "phone": "(253) 854-7777", "address": "633 Central Ave S"}, "geometry": {"type": "Point", "coordinates": [-122.2306671, 47.3755417]}}, {"type": "Feature", "properties": {"id": "46a135bb-4506-4257-81dd-aae60eb9c105", "name": "Acorn Uniforms", "category": "clothes", "tags": ["clothes"], "sources": ["overture"], "website": "https://www.acornuniforms.com/", "phone": "4252840505", "address": "414 Railroad Ave S"}, "geometry": {"type": "Point", "coordinates": [-122.2319717, 47.3783264]}}, {"type": "Feature", "properties": {"id": "386d24d3-17fd-4f82-b36a-137cb556e865", "name": "Sunstar Foodmart Ephrath", "category": "convenience", "tags": ["convenience"], "sources": ["overture"], "phone": "+12538540025"}, "geometry": {"type": "Point", "coordinates": [-122.2315216, 47.3784256]}}, {"type": "Feature", "properties": {"id": 649910590, "name": "Sea Mar Community Health Center", "category": "clinic", "tags": ["clinic"], "sources": ["osm"], "website": "https://www.seamar.org/king-medical-kent.html", "phone": "+1-206-436-6380", "address": "233 2nd Avenue South", "hours": "Mo,We 08:00-20:00; Tu,Th,Fr 08:00-17:00"}, "geometry": {"type": "Point", "coordinates": [-122.2351854, 47.3799628]}}, {"type": "Feature", "properties": {"id": 649910529, "name": "Pediatric Interim Care Center", "category": "clinic", "tags": ["clinic"], "sources": ["osm"], "address": "328 4th Avenue South"}, "geometry": {"type": "Point", "coordinates": [-122.2370746, 47.3789352]}}, {"type": "Feature", "properties": {"id": "7876deb4-9879-4883-897f-2c0277092228", "name": "West Coast Emergency Response", "category": "pharmacy", "tags": ["pharmacy"], "sources": ["overture"], "website": "http://www.wcerwa.com", "phone": "(206) 488-4117", "address": "324 1st Ave S"}, "geometry": {"type": "Point", "coordinates": [-122.2332916, 47.3790703]}}]}