{"type": "FeatureCollection", "features": [{"type": "Feature", "properties": {"id": 264402731, "name": "Lakemont Highlands Park", "category": "park", "tags": ["park"], "sources": ["osm"]}, "geometry": {"type": "Point", "coordinates": [-122.1300852, 47.5511441]}}, {"type": "Feature", "properties": {"id": 264403205, "name": "Saddleback Park", "category": "park", "tags": ["park"], "sources": ["osm"]}, "geometry": {"type": "Point", "coordinates": [-122.13837, 47.5541712]}}, {"type": "Feature", "properties": {"id": 264403207, "name": "Saddleback Open Space", "category": "park", "tags": ["park"], "sources": ["osm"]}, "geometry": {"type": "Point", "coordinates": [-122.1374434, 47.5532371]}}, {"type": "Feature", "properties": {"id": 267172922, "name": "Easglesmere Open Space", "category": "park", "tags": ["park"], "sources": ["osm"]}, "geometry": {"type": "Point", "coordinates": [-122.1366221, 47.5580343]}}, {"type": "Feature", "properties": {"id": "8fd62a6f-3205-401a-9004-41aab87ed455", "name": "Saddleback Mini Park", "category": "park", "tags": ["park"], "sources": ["overture"], "website": "http://www.bellevuewa.gov/saddleback.htm", "phone": "+14254526885", "address": "5501 152nd Pl SE"}, "geometry": {"type": "Point", "coordinates": [-122.138504, 47.554245]}}]}