{"type": "FeatureCollection", "features": [{"type": "Feature", "properties": {"id": "e05374e5-5eb7-446e-84ef-65ab696d9315", "name": "Emerald Pointe Condominiums", "category": "attraction", "tags": ["attraction", "landmark", "historical", "building"], "sources": ["overture"], "address": "31900 104th Ave SE"}, "geometry": {"type": "Point", "coordinates": [-122.2037125, 47.3171654]}}, {"type": "Feature", "properties": {"id": "6d5ec071-c6e5-4367-9cab-211ba9bf0dbc", "name": "Lea Hill Condominiums", "category": "attraction", "tags": ["attraction", "landmark", "historical", "building"], "sources": ["overture"], "website": "http://www.leahillcondorentals.com/", "phone": "+12538333128", "address": "31420 106th Pl SE"}, "geometry": {"type": "Point", "coordinates": [-122.2010117, 47.3190613]}}, {"type": "Feature", "properties": {"id": "3043ae88-2aff-4971-ae21-5999ea56bee4", "name": "Amberview", "category": "attraction", "tags": ["attraction", "landmark", "historical", "building"], "sources": ["overture"], "website": "http://www.amberviewapts.com/", "phone": "+12534877608", "address": "32115 105th Pl SE"}, "geometry": {"type": "Point", "coordinates": [-122.2007523, 47.314518]}}, {"type": "Feature", "properties": {"id": 25889999, "name": "104th Avenue SE Park", "category": "park", "tags": ["park"], "sources": ["osm"]}, "geometry": {"type": "Point", "coordinates": [-122.2061235, 47.3188552]}}, {"type": "Feature", "properties": {"id": 478236691, "name": "Lea Hill Tennis and Basketball Courts", "category": "park", "tags": ["park"], "sources": ["osm"], "website": "https://www.auburnwa.gov/things_to_do/parks_trails/lea_hill_tennis_courts.htm", "address": "32121 105th Place Southeast"}, "geometry": {"type": "Point", "coordinates": [-122.2004872, 47.3143676]}}]}