{"type": "FeatureCollection", "features": [{"type": "Feature", "properties": {"id": 4809853464, "name": "Subway", "category": "fast_food", "tags": ["fast-food", "sandwich", "takeaway", "restaurant"], "sources": ["osm", "overture"], "website": "http://www.subway.com/en-us", "phone": "+12539396905", "address": "12722 SE 312th St", "hours": "Mo-Sa 8:00-23:00, Su 9:00-22:00"}, "geometry": {"type": "Point", "coordinates": [-122.1725633, 47.3229715]}}, {"type": "Feature", "properties": {"id": "fc98c761-c060-4227-ac66-4f2979916af0", "name": "Taco Del Mar", "category": "fast_food", "tags": ["fast-food", "fast", "food"], "sources": ["overture"], "website": "http://www.tacodelmar.com", "phone": "(253) 735-7835", "address": "12722 SE 312th St Apt D"}, "geometry": {"type": "Point", "coordinates": [-122.1724091, 47.3228607]}}, {"type": "Feature", "properties": {"id": 4809853466, "name": "Ringo Wok Teriyaki", "category": "restaurant", "tags": ["restaurant", "chinese", "asian", "japanese"], "sources": ["osm", "overture"], "website": "http://orderringowokteriyaki.com", "phone": "+12537374865", "address": "12722 SE 312th St", "hours": "Mo-Sa 11:00-21:00"}, "geometry": {"type": "Point", "coordinates": [-122.1720468, 47.3228273]}}, {"type": "Feature", "properties": {"id": 4809853467, "name": "Lezzet Turkish Brunch", "category": "restaurant", "tags": ["restaurant", "mediterranean"], "sources": ["osm"], "hours": "Mo-Sa 11:00-20:30"}, "geometry": {"type": "Point", "coordinates": [-122.1719311, 47.3228277]}}, {"type": "Feature", "properties": {"id": 5058726351, "name": "Pho U", "category": "restaurant", "tags": ["restaurant", "vietnamese"], "sources": ["osm"], "hours": "Mo-Th 11:00-21:30, Fr-Sa 11:00-22:00"}, "geometry": {"type": "Point", "coordinates": [-122.1722024, 47.3228366]}}, {"type": "Feature", "properties": {"id": 6624099187, "name": "Burgers", "category": "fast_food", "tags": ["fast-food"], "sources": ["osm"]}, "geometry": {"type": "Point", "coordinates": [-122.1721341, 47.3228265]}}, {"type": "Feature", "properties": {"id": "14890c50-c5a4-4250-b918-d217a8b80190", "name": "00 Pizza", "category": "restaurant", "tags": ["restaurant", "pizza"], "sources": ["overture"], "website": "https://squareup.com/store/00pizza", "phone": "2532372280", "address": "31217 124th Ave SE Ste 6"}, "geometry": {"type": "Point", "coordinates": [-122.1771622, 47.3218193]}}, {"type": "Feature", "properties": {"id": "53179d89-3ab9-4f24-9aa7-518f2c6fc615", "name": "Lezzet Brunch", "category": "restaurant", "tags": ["restaurant", "turkish", "breakfast-and-brunch", "middle-eastern"], "sources": ["overture"], "phone": "+12537374601", "address": "12722 SE 312th St"}, "geometry": {"type": "Point", "coordinates": [-122.1719284, 47.3227425]}}, {"type": "Feature", "properties": {"id": "c8625408-4483-49f5-85da-1ab61d75f497", "name": "D'LARA Mediterranean Grill", "category": "restaurant", "tags": ["restaurant", "greek", "mediterranean"], "sources": ["overture"], "website": "http://www.laramediterraneangrill.com/", "phone": "2539298515", "address": "12722 SE 312th St Ste H"}, "geometry": {"type": "Point", "coordinates": [-122.1720123, 47.3227806]}}, {"type": "Feature", "properties": {"id": "ccb718d6-d5d4-4710-800f-1d8e86675539", "name": "Pho U Plus Burger", "category": "restaurant", "tags": ["restaurant", "burger", "vietnamese", "asian"], "sources": ["overture"], "website": "http://coinstar.com", "phone": "+12537375611", "address": "12722 SE 312th St"}, "geometry": {"type": "Point", "coordinates": [-122.1721802, 47.3227272]}}, {"type": "Feature", "properties": {"id": "708501f8-69f1-4a30-b91e-20c4b8e8fde8", "name": "Herfy's Burger & Restaurant", "category": "restaurant", "tags": ["restaurant", "burger", "american", "fast-food"], "sources": ["overture"], "website": "http://coinstar.com", "phone": "+12533974193", "address": "12722 SE 312th St"}, "geometry": {"type": "Point", "coordinates": [-122.1723022, 47.322773]}}, {"type": "Feature", "properties": {"id": "415acf7d-abf9-4d70-9cea-31fc4187d85e", "name": "Pasa Fino Apartments", "category": "attraction", "tags": ["attraction", "landmark", "historical", "building"], "sources": ["overture"], "website": "http://pasafinoapartments.com", "phone": "+12538040400", "address": "12110 SE 312th St"}, "geometry": {"type": "Point", "coordinates": [-122.179985, 47.3228035]}}, {"type": "Feature", "properties": {"id": "ef22c493-e2e0-45f7-8c2b-91d7286879e3", "name": "Meadows On Lea Hill", "category": "attraction", "tags": ["attraction", "landmark", "historical", "building"], "sources": ["overture"], "website": "http://www.alliedresidential.com", "phone": "+12538335300", "address": "12505 SE 312th St"}, "geometry": {"type": "Point", "coordinates": [-122.1744308, 47.3213043]}}, {"type": "Feature", "properties": {"id": "f707975f-617c-4cf5-b15a-7c321463d57f", "name": "Gentry Walk Apartments", "category": "attraction", "tags": ["attraction", "landmark", "historical", "building"], "sources": ["overture"], "website": "http://www.gentrywalk.com", "phone": "+12533512331", "address": "12725 SE 312th St"}, "geometry": {"type": "Point", "coordinates": [-122.1724472, 47.3213081]}}, {"type": "Feature", "properties": {"id": 484449679, "name": "7-Eleven", "category": "convenience", "tags": ["convenience"], "sources": ["osm"], "website": "https://www.7-eleven.com/locations/wa/auburn/31207-124th-ave-se-35334", "phone": "+1-253-735-9643", "address": "31207 124th Avenue Southeast", "hours": "24/7"}, "geometry": {"type": "Point", "coordinates": [-122.177069, 47.3221624]}}, {"type": "Feature", "properties": {"id": 521184505, "name": "7-Eleven", "category": "convenience", "tags": ["convenience"], "sources": ["osm", "overture"], "website": "https://www.7-eleven.com/", "phone": "+19714550282", "address": "12400 SE 312th St"}, "geometry": {"type": "Point", "coordinates": [-122.1757366, 47.3229999]}}, {"type": "Feature", "properties": {"id": 6624372885, "name": "Dollar Tree", "category": "variety_store", "tags": ["variety-store", "discount"], "sources": ["osm", "overture"], "website": "https://locations.dollartree.com/wa/auburn/12722-se-312th-st-ste-k", "phone": "+15099044988", "address": "12722 SE 312th St", "hours": "Mo-Sa 09:00-22:00; Su 09:00-21:00"}, "geometry": {"type": "Point", "coordinates": [-122.1736028, 47.3229748]}}, {"type": "Feature", "properties": {"id": "d35a475a-7351-454d-a3fe-7d76fae715df", "name": "Dollar Tree", "category": "convenience", "tags": ["convenience"], "sources": ["overture"], "website": "http://www.dollartree.com/locations/wa/auburn/7965/", "phone": "2539291252", "address": "12722 SE 312th St Ste K"}, "geometry": {"type": "Point", "coordinates": [-122.1722717, 47.3224335]}}, {"type": "Feature", "properties": {"id": 9990752019, "name": "Dhotsons", "category": "supermarket", "tags": ["supermarket"], "sources": ["osm", "overture"], "website": "http://dhotsons.com", "phone": "+12533974202", "address": "12722 SE 312th St"}, "geometry": {"type": "Point", "coordinates": [-122.1731345, 47.3229525]}}, {"type": "Feature", "properties": {"id": "bd2e2582-54f4-4c2d-9dfd-405394f353c5", "name": "Lea Hill Urgent Care + Family Medicine", "category": "clinic", "tags": ["clinic", "medical"], "sources": ["overture"], "phone": "2537375333", "address": "31217 124th Ave SE Ste 5"}, "geometry": {"type": "Point", "coordinates": [-122.1764679, 47.3221741]}}]}