{"type": "FeatureCollection", "features": [{"type": "Feature", "properties": {"id": "c7db43de-15ff-4a6b-b9fa-36a7b0130731", "name": "Royal Hills Apartments", "category": "attraction", "tags": ["attraction", "landmark", "historical", "building"], "sources": ["overture"], "website": "http://Royalhillsapts.com/", "phone": "+14254968864", "address": "3000 SE Royal Hills Dr"}, "geometry": {"type": "Point", "coordinates": [-122.1781235, 47.4692688]}}, {"type": "Feature", "properties": {"id": 422104781, "name": "Tiffany Park", "category": "park", "tags": ["park"], "sources": ["osm", "overture"], "website": "http://www.tiffany-park.org/", "phone": "+14254306700", "address": "1902 Lake Youngs Way SE"}, "geometry": {"type": "Point", "coordinates": [-122.1781137, 47.4631581]}}, {"type": "Feature", "properties": {"id": "5ca40e9c-e47a-4545-a9c6-3a333b1c3ed3", "name": "Tiffany Park", "category": "park", "tags": ["park"], "sources": ["overture"], "website": "https://rentonwa.gov/cms/One.aspx?portalId=7922741&pageId=8839017", "phone": "+14254306600", "address": "1808 Kirkland Ave SE"}, "geometry": {"type": "Point", "coordinates": [-122.1757278, 47.4638824]}}, {"type": "Feature", "properties": {"id": 521671928, "name": "Tiffany Park Neighborhood Park", "category": "park", "tags": ["park"], "sources": ["osm"]}, "geometry": {"type": "Point", "coordinates": [-122.172085, 47.464985]}}, {"type": "Feature", "properties": {"id": 735376311, "name": "Allura Neighborhood Park", "category": "park", "tags": ["park"], "sources": ["osm"]}, "geometry": {"type": "Point", "coordinates": [-122.1743781, 47.4628399]}}]}