{"type": "FeatureCollection", "features": [{"type": "Feature", "properties": {"id": 728175891, "name": "Mexican Bar", "category": "bar", "tags": ["bar"], "sources": ["osm"]}, "geometry": {"type": "Point", "coordinates": [-122.3220637, 47.5390962]}}, {"type": "Feature", "properties": {"id": "6c0b3523-d027-466e-b8bd-9e9626b81ee5", "name": "Northwest Commissary Kitchens", "category": "restaurant", "tags": ["restaurant"], "sources": ["overture"], "website": "http://www.northwestcommissarykitchens.com/", "phone": "+12066129936", "address": "7912 7th Ave S"}, "geometry": {"type": "Point", "coordinates": [-122.3254013, 47.5315094]}}, {"type": "Feature", "properties": {"id": "c024bf88-d5c0-4d9a-ab63-80dc3fdac049", "name": "Timber Ginger Beer", "category": "bar", "tags": ["bar", "brewery"], "sources": ["overture"], "website": "http://www.timbergingerbeer.com/"}, "geometry": {"type": "Point", "coordinates": [-122.3231735, 47.5303955]}}, {"type": "Feature", "properties": {"id": "4a7b2dfd-4a91-4fc1-9429-806af229b706", "name": "Burdick Brewery", "category": "bar", "tags": ["bar", "brewery"], "sources": ["overture"], "website": "http://www.burdickbrewery.com", "phone": "(206) 909-9632", "address": "8103 8th Ave S"}, "geometry": {"type": "Point", "coordinates": [-122.3232727, 47.5303764]}}, {"type": "Feature", "properties": {"id": "c90dfd5d-27d9-410d-af2b-90213691e411", "name": "Lowercase Brewing", "category": "bar", "tags": ["bar", "brewery"], "sources": ["overture"], "website": "https://www.lowercasebrewing.com/welcome", "phone": "2062584987", "address": "8103 8th Ave S"}, "geometry": {"type": "Point", "coordinates": [-122.322876, 47.530365]}}, {"type": "Feature", "properties": {"id": "2fd9c887-2a72-4ae2-8242-e4096b88b4ce", "name": "Southern breakfast", "category": "restaurant", "tags": ["restaurant", "breakfast-and-brunch", "breakfast", "brunch"], "sources": ["overture"], "website": "https://www.toasttab.com/lunar-foods-3804-evanston-ave-n", "phone": "+12063765274", "address": "863 S Kenyon St"}, "geometry": {"type": "Point", "coordinates": [-122.3210526, 47.5317993]}}, {"type": "Feature", "properties": {"id": "8feefe24-51d1-47ad-9d85-856108286f6f", "name": "Baowich", "category": "restaurant", "tags": ["restaurant", "burger"], "sources": ["overture"], "phone": "+14159353780", "address": "836 S Kenyon St"}, "geometry": {"type": "Point", "coordinates": [-122.3210831, 47.5321846]}}, {"type": "Feature", "properties": {"id": "d7cab714-714e-467c-ac43-0e8a5a1bc357", "name": "Chester's Chicken", "category": "restaurant", "tags": ["restaurant", "chicken"], "sources": ["overture"], "website": "https://www.chesterschicken.com/", "phone": "2067634431", "address": "7200 E Marginal Way S"}, "geometry": {"type": "Point", "coordinates": [-122.3204803, 47.5385895]}}, {"type": "Feature", "properties": {"id": 9777651968, "name": "Citizen Six Distillery Pipe", "category": "artwork", "tags": ["artwork"], "sources": ["osm"]}, "geometry": {"type": "Point", "coordinates": [-122.3252693, 47.5305382]}}, {"type": "Feature", "properties": {"id": "61e71b7c-cf93-4cc8-8ca7-a1cc3045cb1b", "name": "Glass Eye Studio", "category": "gallery", "tags": ["gallery", "art"], "sources": ["overture"], "website": "http://www.glasseye.com/", "phone": "+12067826548", "address": "7433 5th Ave S"}, "geometry": {"type": "Point", "coordinates": [-122.3285522, 47.5358009]}}, {"type": "Feature", "properties": {"id": "ea21033d-59bb-436c-8782-c34a050e0862", "name": "Seattle Solstice", "category": "gallery", "tags": ["gallery", "art"], "sources": ["overture"], "website": "http://www.seattlesolstice.com/", "phone": "+12067630221", "address": "7500 5th Ave S"}, "geometry": {"type": "Point", "coordinates": [-122.3280106, 47.5352859]}}, {"type": "Feature", "properties": {"id": 363207055, "name": "t\u0313a\u0142t\u0313a\u0142ucid Park and Shoreline Habitat", "category": "park", "tags": ["park"], "sources": ["osm"], "website": "https://www.portseattle.org/places/taltalucid-park-and-shoreline-habitat", "address": "7797 8th Avenue South"}, "geometry": {"type": "Point", "coordinates": [-122.3231236, 47.5336793]}}, {"type": "Feature", "properties": {"id": "44a7ebbe-ba71-4cdd-bc29-109e8a363cf9", "name": "ampm", "category": "convenience", "tags": ["convenience"], "sources": ["overture"], "phone": "2067634431", "address": "7200 E Marginal Way S"}, "geometry": {"type": "Point", "coordinates": [-122.3204803, 47.5385895]}}, {"type": "Feature", "properties": {"id": "b9fa9109-bed6-483a-8918-501cea83dc24", "name": "Marine Lumber Market Sales Office", "category": "doityourself", "tags": ["doityourself", "building", "supply"], "sources": ["overture"], "website": "http://www.marinelumbermarket.com/", "phone": "+14252518010", "address": "525 S Chicago St"}, "geometry": {"type": "Point", "coordinates": [-122.3271332, 47.532589]}}, {"type": "Feature", "properties": {"id": "44b8098d-6388-4bde-b9c1-f383cb898da6", "name": "marine lumber", "category": "hardware", "tags": ["hardware"], "sources": ["overture"], "website": "http://www.marinelumberservice.com", "phone": "(206) 767-4730", "address": "525 S Chicago St"}, "geometry": {"type": "Point", "coordinates": [-122.3270798, 47.532444]}}, {"type": "Feature", "properties": {"id": "4b1377bd-e95e-4ee6-9870-91f99b0f4281", "name": "Interior Effects", "category": "doityourself", "tags": ["doityourself", "building", "supply"], "sources": ["overture"], "website": "http://www.interioreffects.com", "phone": "(206) 243-7687", "address": "719 S Riverside Dr"}, "geometry": {"type": "Point", "coordinates": [-122.3243027, 47.5337448]}}, {"type": "Feature", "properties": {"id": "60295faa-b6ed-452b-94a4-20585ba99f60", "name": "Windows101", "category": "hardware", "tags": ["hardware"], "sources": ["overture"], "website": "https://usa.windows101.com/", "phone": "+12066241636", "address": "730 S Portland St"}, "geometry": {"type": "Point", "coordinates": [-122.3244019, 47.5334969]}}, {"type": "Feature", "properties": {"id": "a9eca772-0fbe-4323-b520-ca03cfa8f7b8", "name": "United Rentals - Trench Safety", "category": "clothes", "tags": ["clothes"], "sources": ["overture"], "website": "https://www.unitedrentals.com/locations/wa/seattle/trench-safety-rentals/b52?utm_source=bing&utm_medium=distrib&utm_campaign=bing-distrib", "phone": "2067673121", "address": "7135 8th Ave S"}, "geometry": {"type": "Point", "coordinates": [-122.3231812, 47.5391884]}}]}