{"type": "FeatureCollection", "features": [{"type": "Feature", "properties": {"id": 649041306, "name": "Taco Time", "category": "fast_food", "tags": ["fast-food", "mexican", "takeaway", "drive-through", "vegetarian", "wifi"], "sources": ["osm"], "website": "https://tacotimenw.com/find-us/kent-meeker/", "address": "1302 West Meeker Street", "hours": "Mo-We 10:00-22:00; Th-Sa 10:00-23:00; Su 10:00-22:00"}, "geometry": {"type": "Point", "coordinates": [-122.2499922, 47.3809766]}}, {"type": "Feature", "properties": {"id": 3590888651, "name": "Starbucks", "category": "cafe", "tags": ["cafe", "coffee-shop", "takeaway", "coffee"], "sources": ["osm", "overture"], "website": "https://www.starbucks.com/store-locator/store/13703", "phone": "+12538524454", "address": "210 Washington Ave S", "hours": "Mo-Fr 5:30-20:00; Sa-Su 6:30-20:00"}, "geometry": {"type": "Point", "coordinates": [-122.246547, 47.3801852]}}, {"type": "Feature", "properties": {"id": 649041304, "name": "McDonald's", "category": "fast_food", "tags": ["fast-food", "burger", "takeaway", "drive-through", "wifi", "fast", "food"], "sources": ["osm", "overture"], "website": "https://www.mcdonalds.com/us/en-us/location/wa/kent/1236-w-meeker/10501.html?cid=RF%3AYXT%3ARoN%3A%3AClicks%3Fcid%3DRF%3AYXT%3AFB%3A%3AClicks", "phone": "+12538599692", "address": "1236 W Meeker St", "hours": "24/7"}, "geometry": {"type": "Point", "coordinates": [-122.2485421, 47.3808969]}}, {"type": "Feature", "properties": {"id": 3597518897, "name": "Jimmy John's", "category": "fast_food", "tags": ["fast-food", "sandwich", "takeaway", "delivery", "restaurant"], "sources": ["osm", "overture"], "website": "https://locations.jimmyjohns.com/wa/kent/sandwiches-1435.html", "phone": "+12538528000", "address": "229 Washington Ave N", "hours": "Mo-Su 10:30-21:00"}, "geometry": {"type": "Point", "coordinates": [-122.2477669, 47.3827163]}}, {"type": "Feature", "properties": {"id": 649041305, "name": "Burger King", "category": "fast_food", "tags": ["fast-food", "burger", "takeaway", "drive-through", "wifi", "restaurant", "american"], "sources": ["osm", "overture"], "website": "https://burgerking.com/store-locator/store/11152", "phone": "+12538542705", "address": "1240 W Meeker St", "hours": "Mo-Sa 06:00-00:00; Su 07:00-00:00"}, "geometry": {"type": "Point", "coordinates": [-122.2492462, 47.3809484]}}, {"type": "Feature", "properties": {"id": 3636359531, "name": "Emerald City Smoothie", "category": "cafe", "tags": ["cafe", "smoothie"], "sources": ["osm"], "address": "1313 West Meeker Street", "hours": "Mo-Fr 07:00-20:00; Sa 08:00-18:00; Su 10:00-18:00"}, "geometry": {"type": "Point", "coordinates": [-122.2495196, 47.3817704]}}, {"type": "Feature", "properties": {"id": 912172780, "name": "BigFoot Java", "category": "cafe", "tags": ["cafe", "coffee-shop", "coffee", "theme"], "sources": ["osm", "overture"], "website": "https://bigfootjava.com/locations/paradise-bigfoot-java/", "phone": "+12538562000", "address": "23803 W Valley Hwy", "hours": "24/7"}, "geometry": {"type": "Point", "coordinates": [-122.2487474, 47.3881405]}}, {"type": "Feature", "properties": {"id": 3597518898, "name": "Little Caesars", "category": "fast_food", "tags": ["fast-food", "pizza", "takeaway"], "sources": ["osm"], "website": "https://littlecaesars.com/en-us/store/10918/", "hours": "Mo-Su 11:00-23:00"}, "geometry": {"type": "Point", "coordinates": [-122.2462391, 47.3815816]}}, {"type": "Feature", "properties": {"id": 3597518895, "name": "Ichi Teriyaki", "category": "restaurant", "tags": ["restaurant", "asian", "takeaway", "japanese"], "sources": ["osm", "overture"], "website": "https://ichi-teriyaki-wa-6.hub.biz", "phone": "+12538500553", "address": "1313 W Meeker St", "hours": "Mo-Sa 11:00-21:00"}, "geometry": {"type": "Point", "coordinates": [-122.2495104, 47.3820293]}}, {"type": "Feature", "properties": {"id": 3597518902, "name": "Pho Mau Vietnamese Noodle Shop", "category": "restaurant", "tags": ["restaurant", "vietnamese", "takeaway"], "sources": ["osm"], "hours": "Mo-Sa 09:00-21:00; Su 10:00-19:00"}, "geometry": {"type": "Point", "coordinates": [-122.2468792, 47.3819479]}}, {"type": "Feature", "properties": {"id": 3597518904, "name": "Golden Dynasty Chinese Restaurant", "category": "restaurant", "tags": ["restaurant", "chinese", "takeaway"], "sources": ["osm", "overture"], "phone": "(253) 859-7025", "address": "126 Washington Ave N", "hours": "Mo-Sa 11:00-21:00"}, "geometry": {"type": "Point", "coordinates": [-122.2462645, 47.3820264]}}, {"type": "Feature", "properties": {"id": 3597518907, "name": "Thai Chili Restaurant", "category": "restaurant", "tags": ["restaurant", "thai", "takeaway"], "sources": ["osm", "overture"], "website": "http://www.mythaichili.com", "phone": "(253) 850-5887", "address": "120 Washington Ave N", "hours": "Mo-Fr 11:00-21:00; Sa 12:00-21:00"}, "geometry": {"type": "Point", "coordinates": [-122.2462543, 47.3819106]}}, {"type": "Feature", "properties": {"id": 4474335597, "name": "Asadero", "category": "restaurant", "tags": ["restaurant", "mexican", "steak-house", "reservations"], "sources": ["osm"], "website": "https://www.asaderoprime.com/", "phone": "+1-253-854-0971", "address": "310 Washington Avenue North", "hours": "We-Su 11:00-22:00"}, "geometry": {"type": "Point", "coordinates": [-122.246975, 47.3831455]}}, {"type": "Feature", "properties": {"id": 6239095385, "name": "Golden Indian Curry House", "category": "restaurant", "tags": ["restaurant", "indian"], "sources": ["osm", "overture"], "website": "http://goldenindiancurryhouse.com/", "phone": "+12532468967", "address": "23811 W Valley Hwy"}, "geometry": {"type": "Point", "coordinates": [-122.2484163, 47.3876372]}}, {"type": "Feature", "properties": {"id": 643003122, "name": "Cave Man Kitchen", "category": "restaurant", "tags": ["restaurant", "american", "barbecue", "outdoor-seating", "indoor-seating", "takeaway", "wheelchair-accessible"], "sources": ["osm", "overture"], "website": "https://cavemankitchen.com/", "phone": "+12538541210", "address": "807 W Valley Hwy", "hours": "Mo-Su 10:00-19:00"}, "geometry": {"type": "Point", "coordinates": [-122.2488704, 47.3888919]}}, {"type": "Feature", "properties": {"id": 649041312, "name": "The Family Drive-In", "category": "restaurant", "tags": ["restaurant", "burger", "takeaway"], "sources": ["osm"], "phone": "+1-253-854-0837", "address": "1124 West Meeker Street", "hours": "Mo-Sa 11:00-21:00"}, "geometry": {"type": "Point", "coordinates": [-122.246308, 47.3811506]}}, {"type": "Feature", "properties": {"id": 649041334, "name": "Blinker Tavern", "category": "pub", "tags": ["pub", "restaurant", "bar-and-grill", "bar", "grill"], "sources": ["osm", "overture"], "website": "http://blinkertavern.com/", "phone": "+12538502337", "address": "206 Washington Ave N"}, "geometry": {"type": "Point", "coordinates": [-122.2469782, 47.3823461]}}, {"type": "Feature", "properties": {"id": 649041691, "name": "Bikini Beans Espresso", "category": "cafe", "tags": ["cafe", "coffee-shop", "coffee"], "sources": ["osm", "overture"], "website": "http://www.ibikinicoffee.com", "phone": "(253) 277-2492", "address": "1129 W James St"}, "geometry": {"type": "Point", "coordinates": [-122.2464827, 47.3868843]}}, {"type": "Feature", "properties": {"id": "7f17f975-d9e1-4771-8530-737d9775462b", "name": "Little Caesars Pizza", "category": "restaurant", "tags": ["restaurant", "pizza", "fast-food"], "sources": ["overture"], "website": "https://littlecaesars.com/en-us/store/10918", "phone": "+12539814970", "address": "110 Washington Ave N"}, "geometry": {"type": "Point", "coordinates": [-122.2462234, 47.3816032]}}, {"type": "Feature", "properties": {"id": "47930269-def5-4c96-981b-97f1a3dfbc5e", "name": "La GranD Seattle", "category": "bar", "tags": ["bar"], "sources": ["overture"], "website": "http://www.LaZetaRadio.com", "phone": "+12535206935", "address": "1004 W James St"}, "geometry": {"type": "Point", "coordinates": [-122.2449951, 47.386364]}}, {"type": "Feature", "properties": {"id": "7745a3ea-46f5-44de-a51b-5baec7637269", "name": "Oberto Beef Jerky", "category": "fast_food", "tags": ["fast-food", "fast", "food"], "sources": ["overture"], "website": "https://www.oberto.com", "phone": "+18774537591", "address": "7060 S 238th St"}, "geometry": {"type": "Point", "coordinates": [-122.2445374, 47.3890762]}}, {"type": "Feature", "properties": {"id": "3340317d-e1fe-4c0e-9720-86e7bff59206", "name": "Golden Curry Pizza", "category": "restaurant", "tags": ["restaurant"], "sources": ["overture"], "website": "https://www.goldencurrypizzawa.com/?utm_source=bing&utm_medium=websiteurl&utm_campaign=search", "phone": "2539813691", "address": "23811 W VALLEY Highway"}, "geometry": {"type": "Point", "coordinates": [-122.248764, 47.387661]}}, {"type": "Feature", "properties": {"id": "3951d708-4c1e-46ce-a976-058d06d3aded", "name": "GOLDEN DYNASTY", "category": "restaurant", "tags": ["restaurant"], "sources": ["overture"], "website": "https://goldendynasty.menufy.com/?utm_source=bing&utm_medium=websiteurl&utm_campaign=search", "phone": "2538597025", "address": "126 Washington Ave N"}, "geometry": {"type": "Point", "coordinates": [-122.2462463, 47.382019]}}, {"type": "Feature", "properties": {"id": "40ade8ae-1faa-4f56-8641-d90491b3b363", "name": "La Estancia Comida Guatemalteca", "category": "restaurant", "tags": ["restaurant", "guatemalan", "latin-american"], "sources": ["overture"], "website": "https://www.yelp.com/biz/la-estancia-comida-guatemalteca-kent", "phone": "+12532467397", "address": "120 Washington Ave N"}, "geometry": {"type": "Point", "coordinates": [-122.2462769, 47.3819237]}}, {"type": "Feature", "properties": {"id": "da282ba8-206b-413c-9d7a-21b1d7afc480", "name": "Antigua Guatemala Restaurant", "category": "restaurant", "tags": ["restaurant", "latin-american", "american"], "sources": ["overture"], "website": "https://antiguaguatemalarestaurant.com", "phone": "(253) 236-4437", "address": "120 Washington Ave N"}, "geometry": {"type": "Point", "coordinates": [-122.2462311, 47.3817749]}}, {"type": "Feature", "properties": {"id": "463764b4-eb25-41c0-b621-1ffd356d3b6d", "name": "Serenity Moon Tea", "category": "cafe", "tags": ["cafe", "tea", "room"], "sources": ["overture"], "website": "http://www.serenitymoontea.com/", "phone": "+12538506179", "address": "136 Washington Ave N"}, "geometry": {"type": "Point", "coordinates": [-122.246727, 47.3816719]}}, {"type": "Feature", "properties": {"id": "25cad6dd-46b6-439b-a13c-eed7320e0ee8", "name": "Pho Mau", "category": "restaurant", "tags": ["restaurant", "vietnamese", "asian"], "sources": ["overture"], "website": "http://phomaukent.gastrobars.com", "phone": "+12538507788", "address": "138 Washington Ave N"}, "geometry": {"type": "Point", "coordinates": [-122.2467575, 47.3816605]}}, {"type": "Feature", "properties": {"id": "5b3de871-dc96-48eb-9cd2-79ffeab015ea", "name": "Little David's Sub Shop", "category": "restaurant", "tags": ["restaurant", "sandwich"], "sources": ["overture"], "website": "http://littledavids.com/index.html", "phone": "(253) 854-3450", "address": "136 Washington Ave N"}, "geometry": {"type": "Point", "coordinates": [-122.246727, 47.3820267]}}, {"type": "Feature", "properties": {"id": "19d08800-b545-4ae7-b530-2e5591a8f472", "name": "egghole", "category": "restaurant", "tags": ["restaurant", "breakfast-and-brunch", "breakfast", "brunch", "american"], "sources": ["overture"], "website": "http://www.myegghole.com/", "phone": "+12534870744", "address": "229 Washington Ave N"}, "geometry": {"type": "Point", "coordinates": [-122.2478409, 47.3824997]}}, {"type": "Feature", "properties": {"id": "01fa60a3-e28b-43c7-bb1f-4b294b5cd2da", "name": "Asadero Prime", "category": "restaurant", "tags": ["restaurant", "steakhouse", "mexican", "latin-american"], "sources": ["overture"], "website": "http://asaderoprime.com", "phone": "+12538540971", "address": "310 Washington Ave N"}, "geometry": {"type": "Point", "coordinates": [-122.2470245, 47.3831673]}}, {"type": "Feature", "properties": {"id": "62e97269-ccd1-4800-a5c6-b95618c94b00", "name": "Family Drive-In", "category": "restaurant", "tags": ["restaurant", "theme", "fast-food", "american"], "sources": ["overture"], "website": "https://familydrivein.menu11.com", "phone": "+12538540837", "address": "1124 W Meeker St"}, "geometry": {"type": "Point", "coordinates": [-122.2463913, 47.3811264]}}, {"type": "Feature", "properties": {"id": "6ad5daf3-c7c8-4319-857e-ca82476ba52b", "name": "Trailside at Kent Station Apartments", "category": "attraction", "tags": ["attraction", "landmark", "historical", "building"], "sources": ["overture"], "website": "https://neiders.com/properties/trailside-at-kent-station-apartments/", "phone": "+12532174585", "address": "1111 W James St"}, "geometry": {"type": "Point", "coordinates": [-122.2455902, 47.3872566]}}, {"type": "Feature", "properties": {"id": "7ec50484-22e2-4e76-98fe-c5c0311cde22", "name": "Artsy Fartsy Art Lessons", "category": "gallery", "tags": ["gallery", "art"], "sources": ["overture"], "website": "https://artsyfartsyartlessons.com/", "phone": "+12533659947", "address": "108 68th Ave S"}, "geometry": {"type": "Point", "coordinates": [-122.2471924, 47.3811684]}}, {"type": "Feature", "properties": {"id": 26270951, "name": "Rotary 'Hoops' Park", "category": "park", "tags": ["park"], "sources": ["osm"]}, "geometry": {"type": "Point", "coordinates": [-122.2416362, 47.3848866]}}, {"type": "Feature", "properties": {"id": 26271040, "name": "Uplands Playfield", "category": "park", "tags": ["park"], "sources": ["osm"]}, "geometry": {"type": "Point", "coordinates": [-122.241549, 47.3822707]}}, {"type": "Feature", "properties": {"id": "4544d5b6-bc16-4214-81a3-98235f9be2a9", "name": "Kent Lions Skate Park", "category": "park", "tags": ["park"], "sources": ["overture"], "website": "http://www.kentwa.gov/Home/Components/FacilityDirectory/FacilityDirectory/251/318?selamenityid=1&selcat=73", "address": "W James St"}, "geometry": {"type": "Point", "coordinates": [-122.2479019, 47.3867264]}}, {"type": "Feature", "properties": {"id": 649041740, "name": "7-Eleven", "category": "convenience", "tags": ["convenience"], "sources": ["osm", "overture"], "website": "https://www.7-eleven.com/", "phone": "+14257576732", "address": "711 Washington Ave N", "hours": "24/7"}, "geometry": {"type": "Point", "coordinates": [-122.2482394, 47.387169]}}, {"type": "Feature", "properties": {"id": 649041721, "name": "Food Mart", "category": "convenience", "tags": ["convenience"], "sources": ["osm"], "address": "1133 West James Street"}, "geometry": {"type": "Point", "coordinates": [-122.2468265, 47.387067]}}, {"type": "Feature", "properties": {"id": 3597518899, "name": "Metro by T-Mobile", "category": "mobile_phone", "tags": ["mobile-phone", "mobile"], "sources": ["osm", "overture"], "website": "https://www.metrobyt-mobile.com/stores/bd/metro-by-t-mobile-kent-wa-10219072/?utm_source=facebook&utm_medium=lastmile&utm_campaign=35580", "phone": "+12538542095", "address": "142 Washington Ave N", "hours": "Mo-Sa 10:00-19:30"}, "geometry": {"type": "Point", "coordinates": [-122.247008, 47.381946]}}, {"type": "Feature", "properties": {"id": 337341588, "name": "Safeway", "category": "supermarket", "tags": ["supermarket", "pharmacy"], "sources": ["osm", "overture"], "website": "https://local.safeway.com/safeway/wa/kent/210-washington-ave-s.html", "phone": "+12538524454", "address": "210 Washington Ave S", "hours": "05:00-01:00"}, "geometry": {"type": "Point", "coordinates": [-122.2466416, 47.3803862]}}, {"type": "Feature", "properties": {"id": 649041277, "name": "Hungry Bear Market", "category": "convenience", "tags": ["convenience"], "sources": ["osm"], "address": "1202 West Meeker Street", "hours": "Mo-Fr 05:00-00:00; Sa 06:00-00:00; Su 06:00-22:00"}, "geometry": {"type": "Point", "coordinates": [-122.2478498, 47.3808921]}}, {"type": "Feature", "properties": {"id": 447914645, "name": "Big Lots", "category": "department_store", "tags": ["department-store", "variety-store", "discount"], "sources": ["osm", "overture"], "website": "https://local.biglots.com/wa/kent/4521?utm_source=bing&utm_medium=distrib&utm_campaign=bing-distrib", "phone": "2538545274", "address": "1301 W Meeker St", "hours": "Mo-Su 09:00-21:00"}, "geometry": {"type": "Point", "coordinates": [-122.2489627, 47.3823718]}}, {"type": "Feature", "properties": {"id": 649041367, "name": "The Doggie Den Daycare", "category": "pet", "tags": ["pet"], "sources": ["osm"], "phone": "+1-253-236-4603", "address": "405 Washington Avenue North"}, "geometry": {"type": "Point", "coordinates": [-122.2479604, 47.3837595]}}, {"type": "Feature", "properties": {"id": "fd5fb6bc-d485-4ddb-8d02-4d547879163e", "name": "Rite Aid", "category": "convenience", "tags": ["convenience"], "sources": ["overture"], "website": "https://www.riteaid.com/store-details?storeNumber=6488", "phone": "2533730156", "address": "105 Washington Ave N"}, "geometry": {"type": "Point", "coordinates": [-122.2470016, 47.3814926]}}, {"type": "Feature", "properties": {"id": "40a84147-ab87-477e-bce0-e4061acb532d", "name": "Oberto Sausage Co.", "category": "supermarket", "tags": ["supermarket"], "sources": ["overture"], "website": "http://www.oberto.com", "phone": "+12534376100", "address": "7060 Oberto Dr"}, "geometry": {"type": "Point", "coordinates": [-122.2442932, 47.3894653]}}, {"type": "Feature", "properties": {"id": "7db73782-47e9-4aa6-a6e9-023753f0ca53", "name": "Jerry's Rock and Gem", "category": "jewelry", "tags": ["jewelry"], "sources": ["overture"], "website": "http://jerrysrockandgem.com/", "phone": "+12538520539", "address": "804 W Valley Hwy"}, "geometry": {"type": "Point", "coordinates": [-122.2481155, 47.3886375]}}, {"type": "Feature", "properties": {"id": "bf797fb8-6a3c-42c7-ace4-99f92762fb1d", "name": "Afshar Bakery", "category": "supermarket", "tags": ["supermarket", "pizza"], "sources": ["overture"], "website": "https://afsharbakery.com/", "phone": "+12532364141", "address": "124 Washington Ave N"}, "geometry": {"type": "Point", "coordinates": [-122.2463303, 47.3819923]}}, {"type": "Feature", "properties": {"id": "5e409693-94e3-41d6-a78d-24ac59a44468", "name": "Chevron Station Kent", "category": "convenience", "tags": ["convenience"], "sources": ["overture"], "phone": "2534722345", "address": "1202 W Meeker St"}, "geometry": {"type": "Point", "coordinates": [-122.2477951, 47.3810883]}}, {"type": "Feature", "properties": {"id": 7365557942, "name": "Rite Aid", "category": "pharmacy", "tags": ["pharmacy", "drive-through"], "sources": ["osm"]}, "geometry": {"type": "Point", "coordinates": [-122.2484134, 47.3817876]}}, {"type": "Feature", "properties": {"id": "d976b04f-5c77-461d-8925-3ffda32a2076", "name": "Quality Compounding Solutions", "category": "pharmacy", "tags": ["pharmacy"], "sources": ["overture"], "website": "http://www.qualitycompoundingsolutions.com/", "phone": "+12538540045", "address": "128 Washington Ave N"}, "geometry": {"type": "Point", "coordinates": [-122.2470627, 47.3816681]}}, {"type": "Feature", "properties": {"id": 649041307, "name": "Banner Bank", "category": "bank", "tags": ["bank", "drive-through", "credit", "union"], "sources": ["osm", "overture"], "website": "https://locations.bannerbank.com/wa/kent/1140-w-meeker-st?y_source=1_ODQzOTU5My01NTktbG9jYXRpb24ud2Vic2l0ZQ%3D%3D", "phone": "+12534785200", "address": "1140 W Meeker St", "hours": "Mo-Th 09:00-17:00; Fr 09:00-18:00"}, "geometry": {"type": "Point", "coordinates": [-122.2468196, 47.3810129]}}, {"type": "Feature", "properties": {"id": 3825610210, "name": "South Side Dance Force", "category": "sports_centre", "tags": ["sports-centre"], "sources": ["osm"]}, "geometry": {"type": "Point", "coordinates": [-122.2400728, 47.381078]}}]}