{"type": "FeatureCollection", "features": [{"type": "Feature", "properties": {"id": "7bd8c987-a8b2-4a10-b868-ec4800e7ad50", "name": "Cosentino", "category": "doityourself", "tags": ["doityourself", "building", "supply"], "sources": ["overture"], "website": "https://www.cosentino.com/usa/", "phone": "+12067628221", "address": "19024 62nd Avenue South"}, "geometry": {"type": "Point", "coordinates": [-122.2561111, 47.4299049]}}, {"type": "Feature", "properties": {"id": "b5187fe6-cb6b-43a8-90df-3ee8630e7fbe", "name": "Blackhawk industrial", "category": "hardware", "tags": ["hardware"], "sources": ["overture"], "website": "http://www.blackhawkid.com", "phone": "(206) 607-4840", "address": "6405 S 194th St"}, "geometry": {"type": "Point", "coordinates": [-122.2539597, 47.4280167]}}, {"type": "Feature", "properties": {"id": "0cec87e8-a7d2-4de3-9070-cf10020f7458", "name": "Thompson Tile and Stone", "category": "doityourself", "tags": ["doityourself", "building", "supply"], "sources": ["overture"], "website": "http://www.thompsontileandstone.com/", "phone": "+12069007331", "address": "6030 S 196th St"}, "geometry": {"type": "Point", "coordinates": [-122.2574692, 47.4271088]}}, {"type": "Feature", "properties": {"id": "3e63b9ce-c601-41a1-a02d-49035e2f790c", "name": "Msi Surfaces", "category": "doityourself", "tags": ["doityourself", "building", "supply"], "sources": ["overture"], "website": "http://msisurfaces.com", "phone": "(206) 268-9200", "address": "19624 62nd Ave S"}, "geometry": {"type": "Point", "coordinates": [-122.2590332, 47.4258537]}}, {"type": "Feature", "properties": {"id": "dadd3877-b655-48c2-9b94-06512a1fc374", "name": "Surface Art", "category": "doityourself", "tags": ["doityourself", "building", "supply"], "sources": ["overture"], "website": "http://www.surfaceartinc.com", "phone": "+12063154558", "address": "19901 62nd Ave S"}, "geometry": {"type": "Point", "coordinates": [-122.258049, 47.4239578]}}, {"type": "Feature", "properties": {"id": "2a176256-ac7a-416a-a1be-578fc4a79a88", "name": "Simpson Strong-Tie Company", "category": "doityourself", "tags": ["doityourself", "building", "supply"], "sources": ["overture"], "website": "http://www.strongtie.com/", "phone": "8775642041", "address": "20210 66th Ave S Bldg 3"}, "geometry": {"type": "Point", "coordinates": [-122.2507858, 47.4216385]}}, {"type": "Feature", "properties": {"id": "9b639f29-3d9c-4b7b-9c10-5ac0024b9ab2", "name": "Allied Roofing Installation Services", "category": "doityourself", "tags": ["doityourself", "building", "supply"], "sources": ["overture"], "website": "https://www.alliedroofingwa.com", "phone": "(253) 277-7822", "address": "19428 66th Ave S Ste Q101"}, "geometry": {"type": "Point", "coordinates": [-122.2507477, 47.4276505]}}, {"type": "Feature", "properties": {"id": "88503ad5-a10b-499a-866f-0f18bea2f606", "name": "Allgrain Brew Supply", "category": "alcohol", "tags": ["alcohol"], "sources": ["overture"], "website": "https://www.allgrainbrewsupply.com/", "phone": "+12532344464", "address": "6644 S 196th St"}, "geometry": {"type": "Point", "coordinates": [-122.250351, 47.4273834]}}, {"type": "Feature", "properties": {"id": "94f07081-178b-439e-9442-8db4007a0fba", "name": "Three Tree Roofing", "category": "doityourself", "tags": ["doityourself", "building", "supply"], "sources": ["overture"], "website": "https://www.threetreeroofing.com/projects/seattle-cook-house", "phone": "(206) 854-4204", "address": "6624 S 196th St"}, "geometry": {"type": "Point", "coordinates": [-122.2505569, 47.4270859]}}, {"type": "Feature", "properties": {"id": "e2cf9fb0-b46d-453e-a26f-059a713d7281", "name": "Vima Stylish Privacy Screen Panels", "category": "doityourself", "tags": ["doityourself", "building", "supply"], "sources": ["overture"], "website": "http://vimapvc.com/", "phone": "+12532345256", "address": "19219 68th Ave S"}, "geometry": {"type": "Point", "coordinates": [-122.2500305, 47.4290123]}}, {"type": "Feature", "properties": {"id": 653691690, "name": "Boeing 18-47 - Boeing Tennis Club", "category": "sports_centre", "tags": ["sports-centre", "tennis"], "sources": ["osm"], "address": "6727 South 199th Place"}, "geometry": {"type": "Point", "coordinates": [-122.250535, 47.4226967]}}, {"type": "Feature", "properties": {"id": "300cdb1b-7513-4030-a5ee-0892e71e3b7d", "name": "Core Values Fitness", "category": "fitness_centre", "tags": ["fitness-centre", "gym"], "sources": ["overture"], "website": "https://cvftrainsyou.com/", "phone": "+12064873117", "address": "19441 66th Ave S"}, "geometry": {"type": "Point", "coordinates": [-122.252243, 47.4272995]}}]}