{"type": "FeatureCollection", "features": [{"type": "Feature", "properties": {"id": 5385161521, "name": "Subway", "category": "fast_food", "tags": ["fast-food", "sandwich", "takeaway", "fast", "food", "restaurant"], "sources": ["osm", "overture"], "website": "https://restaurants.subway.com/united-states/wa/seatac/16006-pacific-hwy-s?utm_source=yxt-bing&utm_medium=local&utm_term=acq&utm_content=13560&utm_campaign=evergreen-2020&y_source=1_MTQ5MTQxNzYtNDgzLWxvY2F0aW9uLndlYnNpdGU%3D", "phone": "2064392979", "address": "16006 Pacific Hwy S", "stations": [{"stopCode": 63, "lines": "1", "name": "Tukwila International Blvd Station", "walkingMeters": 840, "walkingSeconds": 607, "band": 10}]}, "geometry": {"type": "Point", "coordinates": [-122.291439, 47.4592218]}}, {"type": "Feature", "properties": {"id": 4320453289, "name": "Ginger Palace", "category": "restaurant", "tags": ["restaurant", "asian", "wifi"], "sources": ["osm"], "phone": "+1-206-957-1001", "address": "16720 International Boulevard", "hours": "Mo-Su 07:00-01:00", "stations": [{"stopCode": 64, "lines": "1", "name": "Airport / SeaTac Station", "walkingMeters": 929, "walkingSeconds": 669, "band": 15}]}, "geometry": {"type": "Point", "coordinates": [-122.2949175, 47.4527401]}}, {"type": "Feature", "properties": {"id": 4358173895, "name": "Chontong", "category": "restaurant", "tags": ["restaurant", "thai"], "sources": ["osm"], "phone": "+1-206-558-0077", "address": "16005 International Boulevard", "stations": [{"stopCode": 63, "lines": "1", "name": "Tukwila International Blvd Station", "walkingMeters": 821, "walkingSeconds": 591, "band": 10}]}, "geometry": {"type": "Point", "coordinates": [-122.292335, 47.4594757]}}, {"type": "Feature", "properties": {"id": 5385161621, "name": "Urban Tapri", "category": "restaurant", "tags": ["restaurant"], "sources": ["osm"], "hours": "09:00-02:00", "stations": [{"stopCode": 63, "lines": "1", "name": "Tukwila International Blvd Station", "walkingMeters": 817, "walkingSeconds": 590, "band": 10}]}, "geometry": {"type": "Point", "coordinates": [-122.291317, 47.459234]}}, {"type": "Feature", "properties": {"id": 11565425169, "name": "San Fernando Fried Chicken", "category": "fast_food", "tags": ["fast-food"], "sources": ["osm"], "stations": [{"stopCode": 64, "lines": "1", "name": "Airport / SeaTac Station", "walkingMeters": 1120, "walkingSeconds": 806, "band": 15}]}, "geometry": {"type": "Point", "coordinates": [-122.2940803, 47.454063]}}, {"type": "Feature", "properties": {"id": 374790722, "name": "Mecca Mediterranean", "category": "restaurant", "tags": ["restaurant"], "sources": ["osm"], "address": "16310 International Boulevard", "stations": [{"stopCode": 63, "lines": "1", "name": "Tukwila International Blvd Station", "walkingMeters": 1159, "walkingSeconds": 834, "band": 15}]}, "geometry": {"type": "Point", "coordinates": [-122.2927536, 47.456656]}}, {"type": "Feature", "properties": {"id": "26868c8b-cdc5-476c-9ada-8d914e869fdf", "name": "Jasper's Coffee", "category": "cafe", "tags": ["cafe", "coffee"], "sources": ["overture"], "phone": "2062445161", "address": "16402 International Blvd", "stations": [{"stopCode": 63, "lines": "1", "name": "Tukwila International Blvd Station", "walkingMeters": 1209, "walkingSeconds": 870, "band": 15}]}, "geometry": {"type": "Point", "coordinates": [-122.292984, 47.4559097]}}, {"type": "Feature", "properties": {"id": 647569641, "name": "Five Star Espresso", "category": "cafe", "tags": ["cafe"], "sources": ["osm"], "address": "16402 International Boulevard", "stations": [{"stopCode": 63, "lines": "1", "name": "Tukwila International Blvd Station", "walkingMeters": 1207, "walkingSeconds": 869, "band": 15}]}, "geometry": {"type": "Point", "coordinates": [-122.2933225, 47.455929]}}, {"type": "Feature", "properties": {"id": 993409798, "name": "Star Coffee", "category": "cafe", "tags": ["cafe"], "sources": ["osm"], "address": "16005 International Boulevard", "stations": [{"stopCode": 63, "lines": "1", "name": "Tukwila International Blvd Station", "walkingMeters": 875, "walkingSeconds": 630, "band": 10}]}, "geometry": {"type": "Point", "coordinates": [-122.2926763, 47.459418]}}, {"type": "Feature", "properties": {"id": "2206a539-432e-4255-a59a-691d8d8ac81c", "name": "Mecca Mediterranean Cuisine", "category": "restaurant", "tags": ["restaurant", "mediterranean"], "sources": ["overture"], "website": "http://www.seattleoliveexpress.com", "phone": "+12062430098", "address": "16324 International Blvd", "stations": [{"stopCode": 63, "lines": "1", "name": "Tukwila International Blvd Station", "walkingMeters": 1140, "walkingSeconds": 820, "band": 15}]}, "geometry": {"type": "Point", "coordinates": [-122.2930222, 47.4563675]}}, {"type": "Feature", "properties": {"id": "d77f915f-9f0c-4bb2-87a8-676cd8ef188a", "name": "Ginger Palace Pan Asian Cuisine", "category": "restaurant", "tags": ["restaurant", "asian", "chinese"], "sources": ["overture"], "website": "http://www.gingerpalace.com", "phone": "+12069571001", "address": "16720 International Blvd", "stations": [{"stopCode": 64, "lines": "1", "name": "Airport / SeaTac Station", "walkingMeters": 938, "walkingSeconds": 675, "band": 15}]}, "geometry": {"type": "Point", "coordinates": [-122.2947311, 47.4526215]}}, {"type": "Feature", "properties": {"id": "31cd2e1d-01b2-4621-b04d-f2f69ab1e44a", "name": "Star Coffee Restaurant", "category": "restaurant", "tags": ["restaurant", "ethiopian", "african"], "sources": ["overture"], "website": "http://Starcoffeeseatac.webs.com/", "phone": "+12066952751", "address": "16005 International Blvd", "stations": [{"stopCode": 63, "lines": "1", "name": "Tukwila International Blvd Station", "walkingMeters": 846, "walkingSeconds": 609, "band": 10}]}, "geometry": {"type": "Point", "coordinates": [-122.2926941, 47.459507]}}, {"type": "Feature", "properties": {"id": "ca78b8bd-8b94-4b72-b6e4-9f2a6a3e6d4f", "name": "Chontong Thai Cuisine", "category": "restaurant", "tags": ["restaurant", "thai", "asian"], "sources": ["overture"], "website": "http://www.chontongthaicuisine.com/", "phone": "+12065880077", "address": "16005 International Blvd", "stations": [{"stopCode": 63, "lines": "1", "name": "Tukwila International Blvd Station", "walkingMeters": 822, "walkingSeconds": 592, "band": 10}]}, "geometry": {"type": "Point", "coordinates": [-122.2922592, 47.4594421]}}, {"type": "Feature", "properties": {"id": "bbe27d47-3741-4fdf-810c-aaa5f8dc8342", "name": "Pizza Station", "category": "cafe", "tags": ["cafe"], "sources": ["overture"], "website": "https://pizzastationwa.com/", "phone": "2066444133", "address": "15300 33rd Ave S Ste 130"}, "geometry": {"type": "Point", "coordinates": [-122.2904053, 47.4577026]}}, {"type": "Feature", "properties": {"id": "b4b0a4f4-dcc7-4853-aa21-9a542d4ea191", "name": "Northern Cascades National Park", "category": "park", "tags": ["park", "national"], "sources": ["overture"], "stations": [{"stopCode": 64, "lines": "1", "name": "Airport / SeaTac Station", "walkingMeters": 952, "walkingSeconds": 685, "band": 15}]}, "geometry": {"type": "Point", "coordinates": [-122.2945404, 47.4526863]}}, {"type": "Feature", "properties": {"id": "e73155df-5aca-48ef-b901-84095fd90117", "name": "Glacier Bay, AK", "category": "park", "tags": ["park", "national"], "sources": ["overture"], "website": "https://www.nps.gov/glba/planyourvisit/gustavus.htm", "stations": [{"stopCode": 64, "lines": "1", "name": "Airport / SeaTac Station", "walkingMeters": 824, "walkingSeconds": 594, "band": 15}]}, "geometry": {"type": "Point", "coordinates": [-122.2947159, 47.4513931]}}, {"type": "Feature", "properties": {"id": 246328444, "name": "Red Roof Inn", "category": "hotel", "tags": ["hotel", "dog-friendly", "wifi"], "sources": ["osm"], "address": "16838 International Boulevard", "stations": [{"stopCode": 64, "lines": "1", "name": "Airport / SeaTac Station", "walkingMeters": 810, "walkingSeconds": 583, "band": 10}]}, "geometry": {"type": "Point", "coordinates": [-122.2950669, 47.4512548]}}, {"type": "Feature", "properties": {"id": "affbb672-0fb8-47b1-b961-691742ccd0a9", "name": "Motel 6", "category": "motel", "tags": ["motel"], "sources": ["overture"], "website": "http://www.motel6.com/", "phone": "+12062464101", "address": "16500 International Blvd"}, "geometry": {"type": "Point", "coordinates": [-122.2934036, 47.4552574]}}, {"type": "Feature", "properties": {"id": 374790721, "name": "Ramada", "category": "hotel", "tags": ["hotel", "wifi"], "sources": ["osm"], "website": "https://www.wyndhamhotels.com/en-uk/ramada/sea-tac-washington/ramada-suites-seatac-airport/overview", "phone": "+1-866-338-6732", "address": "16720 International Boulevard", "stations": [{"stopCode": 64, "lines": "1", "name": "Airport / SeaTac Station", "walkingMeters": 950, "walkingSeconds": 684, "band": 15}]}, "geometry": {"type": "Point", "coordinates": [-122.29457, 47.452631]}}, {"type": "Feature", "properties": {"id": 374790724, "name": "Motel 6 Seattle Airport", "category": "motel", "tags": ["motel", "dog-friendly", "smoking", "wifi"], "sources": ["osm"], "website": "https://www.motel6.com/en/home/motels.wa.seattle.9458.html", "phone": "+1-206-246-4101", "address": "16500 International Boulevard", "stations": [{"stopCode": 63, "lines": "1", "name": "Tukwila International Blvd Station", "walkingMeters": 1336, "walkingSeconds": 961, "band": 15}]}, "geometry": {"type": "Point", "coordinates": [-122.2931612, 47.4554558]}}, {"type": "Feature", "properties": {"id": "55380d83-2802-4205-9e53-60aaecf487b3", "name": "Ramada by Wyndham SeaTac Airport", "category": "hotel", "tags": ["hotel"], "sources": ["overture"], "website": "https://www.wyndhamhotels.com/ramada/sea-tac-washington/ramada-suites-seatac-airport/overview", "phone": "+12062770700", "address": "16720 International Blvd", "stations": [{"stopCode": 64, "lines": "1", "name": "Airport / SeaTac Station", "walkingMeters": 935, "walkingSeconds": 673, "band": 15}]}, "geometry": {"type": "Point", "coordinates": [-122.2947617, 47.4526405]}}, {"type": "Feature", "properties": {"id": "30d4343b-dd6b-4a31-8ce8-dbd1facb4816", "name": "Red Roof Inn Seattle Airport - SeaTac", "category": "hotel", "tags": ["hotel"], "sources": ["overture"], "website": "https://www.redroof.com/property/wa/seattle/RRI304", "phone": "+12062480901", "address": "16838 International Blvd", "stations": [{"stopCode": 64, "lines": "1", "name": "Airport / SeaTac Station", "walkingMeters": 815, "walkingSeconds": 587, "band": 15}]}, "geometry": {"type": "Point", "coordinates": [-122.2950134, 47.4514046]}}, {"type": "Feature", "properties": {"id": "fcb27cbb-97c7-4166-9de1-14a382138cd7", "name": "Ramada Suites SeaTac Airport", "category": "hotel", "tags": ["hotel"], "sources": ["overture"], "website": "http://www.ramadaseatac.com", "phone": "(206) 277-0700", "address": "16720 International Blvd", "stations": [{"stopCode": 64, "lines": "1", "name": "Airport / SeaTac Station", "walkingMeters": 926, "walkingSeconds": 667, "band": 15}]}, "geometry": {"type": "Point", "coordinates": [-122.2948837, 47.4526367]}}, {"type": "Feature", "properties": {"id": "8678cb0d-a7b2-4747-9244-e29b94f9adb3", "name": "Red Lion Hotels", "category": "hotel", "tags": ["hotel"], "sources": ["overture"], "website": "http://redlion.rdln.com", "phone": "+12064396879", "address": "16720 International Blvd", "stations": [{"stopCode": 64, "lines": "1", "name": "Airport / SeaTac Station", "walkingMeters": 951, "walkingSeconds": 685, "band": 15}]}, "geometry": {"type": "Point", "coordinates": [-122.2949219, 47.4528885]}}, {"type": "Feature", "properties": {"id": 4320422000, "name": "Food Mart", "category": "convenience", "tags": ["convenience"], "sources": ["osm"], "address": "17850 International Boulevard", "stations": [{"stopCode": 64, "lines": "1", "name": "Airport / SeaTac Station", "walkingMeters": 745, "walkingSeconds": 536, "band": 10}]}, "geometry": {"type": "Point", "coordinates": [-122.2953913, 47.4509737]}}, {"type": "Feature", "properties": {"id": 4320491909, "name": "SEATAC Coffee & Deli", "category": "convenience", "tags": ["convenience"], "sources": ["osm"], "stations": [{"stopCode": 64, "lines": "1", "name": "Airport / SeaTac Station", "walkingMeters": 959, "walkingSeconds": 691, "band": 15}]}, "geometry": {"type": "Point", "coordinates": [-122.2946882, 47.4529099]}}, {"type": "Feature", "properties": {"id": 4320492599, "name": "SEATAC Airport Grocery", "category": "convenience", "tags": ["convenience"], "sources": ["osm"], "address": "16704 International Boulevard", "stations": [{"stopCode": 64, "lines": "1", "name": "Airport / SeaTac Station", "walkingMeters": 969, "walkingSeconds": 698, "band": 15}]}, "geometry": {"type": "Point", "coordinates": [-122.2947032, 47.4530041]}}, {"type": "Feature", "properties": {"id": 6171272911, "name": "Nur Wireless", "category": "mobile_phone", "tags": ["mobile-phone"], "sources": ["osm"], "stations": [{"stopCode": 64, "lines": "1", "name": "Airport / SeaTac Station", "walkingMeters": 972, "walkingSeconds": 700, "band": 15}]}, "geometry": {"type": "Point", "coordinates": [-122.2946965, 47.4530332]}}, {"type": "Feature", "properties": {"id": "d2edc47d-8183-411d-afd0-c08efb8cff54", "name": "Shell", "category": "convenience", "tags": ["convenience"], "sources": ["overture"], "website": "https://find.shell.com/us/fuel/10005938-17010-international-blvd", "phone": "2062461665", "address": "17010 International Blvd", "stations": [{"stopCode": 64, "lines": "1", "name": "Airport / SeaTac Station", "walkingMeters": 657, "walkingSeconds": 473, "band": 10}]}, "geometry": {"type": "Point", "coordinates": [-122.2958984, 47.450386]}}, {"type": "Feature", "properties": {"id": "20feac00-ecb7-4d75-9d38-999ebdc9e15b", "name": "Bank of America ATM", "category": "bank", "tags": ["bank", "credit", "union"], "sources": ["overture"], "website": "https://locators.bankofamerica.com/wa/seatac/financial-centers-seatac-8789.html", "phone": "8444018500", "address": "16640 International Blvd", "stations": [{"stopCode": 64, "lines": "1", "name": "Airport / SeaTac Station", "walkingMeters": 1021, "walkingSeconds": 735, "band": 15}]}, "geometry": {"type": "Point", "coordinates": [-122.2945099, 47.4535141]}}]}