{"type": "FeatureCollection", "features": [{"type": "Feature", "properties": {"id": "78542d00-f40b-45a9-bd22-73f9bbc07846", "name": "Rhabarber-Bar", "category": "bar", "tags": ["bar", "bar-and-grill"], "sources": ["overture"], "address": "3904 NE 73rd St"}, "geometry": {"type": "Point", "coordinates": [-122.2861557, 47.6813545]}}, {"type": "Feature", "properties": {"id": "16044b07-3d97-4bab-a29b-df804eb11b34", "name": "Wedgewood Estates Apartments", "category": "attraction", "tags": ["attraction", "landmark", "historical", "building"], "sources": ["overture"], "website": "http://www.liveatwedgewoodestates.com", "phone": "+12065271115", "address": "3716 NE 75th St"}, "geometry": {"type": "Point", "coordinates": [-122.2878876, 47.6831245]}}, {"type": "Feature", "properties": {"id": 69708557, "name": "View Ridge Park", "category": "park", "tags": ["park"], "sources": ["osm"], "website": "https://www.seattle.gov/parks/allparks/view-ridge-playfield", "address": "4408 Northeast 70th Street"}, "geometry": {"type": "Point", "coordinates": [-122.2810798, 47.6803596]}}, {"type": "Feature", "properties": {"id": 906052087, "name": "Rose Chavez \"Everybody Plays\" Memorial Playground", "category": "playground", "tags": ["playground"], "sources": ["osm"]}, "geometry": {"type": "Point", "coordinates": [-122.2835038, 47.6860305]}}, {"type": "Feature", "properties": {"id": 136050704, "name": "Safeway", "category": "supermarket", "tags": ["supermarket"], "sources": ["osm", "overture"], "website": "https://local.safeway.com/safeway/wa/seattle/7340-35th-ave-ne.html", "phone": "+12065247064", "address": "7340 35th Ave NE", "hours": "Mo-Su,PH 06:00-23:00"}, "geometry": {"type": "Point", "coordinates": [-122.2893971, 47.6826311]}}, {"type": "Feature", "properties": {"id": 2461871118, "name": "Washington Federal", "category": "bank", "tags": ["bank"], "sources": ["osm"], "address": "7334 35th Avenue Northeast"}, "geometry": {"type": "Point", "coordinates": [-122.2899885, 47.6822449]}}, {"type": "Feature", "properties": {"id": 3247340261, "name": "8 Limbs Yoga", "category": "fitness_centre", "tags": ["fitness-centre", "yoga"], "sources": ["osm"]}, "geometry": {"type": "Point", "coordinates": [-122.2840255, 47.6855765]}}]}