{"type": "FeatureCollection", "features": [{"type": "Feature", "properties": {"id": 4137254690, "name": "Domino's", "category": "fast_food", "tags": ["fast-food", "pizza", "takeaway"], "sources": ["osm"], "website": "https://pizza.dominos.com/washington/kent/24130-pacific-hwy-s-suite-102", "phone": "+1-253-839-4412", "address": "24130 Pacific Highway South", "hours": "Mo-Th 10:00-24:00; Fr-Sa 10:00-01:00; Su 10:00-24:00", "stations": [{"stopCode": 67, "lines": "1", "name": "Star Lake Station", "walkingMeters": 1261, "walkingSeconds": 907, "band": 15}]}, "geometry": {"type": "Point", "coordinates": [-122.2963376, 47.3849227]}}, {"type": "Feature", "properties": {"id": 4137281089, "name": "Starbucks", "category": "cafe", "tags": ["cafe", "coffee-shop", "takeaway", "wifi", "coffee"], "sources": ["osm", "overture"], "website": "https://www.starbucks.com/store-locator/store/18186/", "phone": "+12068243479", "address": "24130 Pacific Hwy S", "stations": [{"stopCode": 67, "lines": "1", "name": "Star Lake Station", "walkingMeters": 1250, "walkingSeconds": 899, "band": 15}]}, "geometry": {"type": "Point", "coordinates": [-122.2963432, 47.3848242]}}, {"type": "Feature", "properties": {"id": 5255005022, "name": "Goatea", "category": "cafe", "tags": ["cafe", "tea"], "sources": ["osm"], "stations": [{"stopCode": 67, "lines": "1", "name": "Star Lake Station", "walkingMeters": 1258, "walkingSeconds": 906, "band": 15}]}, "geometry": {"type": "Point", "coordinates": [-122.2963414, 47.3850197]}}, {"type": "Feature", "properties": {"id": 243125519, "name": "Church's Chicken", "category": "fast_food", "tags": ["fast-food", "chicken", "takeaway"], "sources": ["osm"], "website": "https://locations.churchs.com/wa/des-moines/23839-pacific-highway-s", "phone": "+1-206-824-4212", "address": "23839 Pacific Highway South", "stations": [{"stopCode": 67, "lines": "1", "name": "Star Lake Station", "walkingMeters": 965, "walkingSeconds": 695, "band": 15}]}, "geometry": {"type": "Point", "coordinates": [-122.2968115, 47.3871752]}}, {"type": "Feature", "properties": {"id": 653819078, "name": "JJ's Bar& Grill", "category": "bar", "tags": ["bar"], "sources": ["osm"], "address": "23826 Pacific Highway South", "stations": [{"stopCode": 67, "lines": "1", "name": "Star Lake Station", "walkingMeters": 890, "walkingSeconds": 640, "band": 15}]}, "geometry": {"type": "Point", "coordinates": [-122.2956052, 47.3876534]}}, {"type": "Feature", "properties": {"id": 654632301, "name": "Dick's Drive-In", "category": "fast_food", "tags": ["fast-food", "burger", "restaurant", "american"], "sources": ["osm", "overture"], "website": "http://www.ddir.com", "phone": "+12063045025", "address": "24220 Pacific Hwy S", "hours": "Mo-Su 10:30-02:00", "stations": [{"stopCode": 67, "lines": "1", "name": "Star Lake Station", "walkingMeters": 1258, "walkingSeconds": 906, "band": 15}]}, "geometry": {"type": "Point", "coordinates": [-122.2963079, 47.3843167]}}, {"type": "Feature", "properties": {"id": "bcf2fe1d-fdce-4e31-b8a1-a534f0e3a382", "name": "Church's Texas Chicken", "category": "fast_food", "tags": ["fast-food", "fast", "food", "chicken"], "sources": ["overture"], "website": "https://locations.churchs.com/wa/des-moines/23839-pacific-highway-s.", "phone": "+12068244212", "address": "23839 Pacific Hwy S", "stations": [{"stopCode": 67, "lines": "1", "name": "Star Lake Station", "walkingMeters": 921, "walkingSeconds": 663, "band": 15}]}, "geometry": {"type": "Point", "coordinates": [-122.2967606, 47.3873215]}}, {"type": "Feature", "properties": {"id": "58623b67-cc4c-43c6-92ee-d8b7dc3eaed4", "name": "Bizzy Bean Espresso", "category": "cafe", "tags": ["cafe", "coffee"], "sources": ["overture"], "phone": "(253) 266-3979", "address": "23845 Pacific Hwy S", "stations": [{"stopCode": 67, "lines": "1", "name": "Star Lake Station", "walkingMeters": 982, "walkingSeconds": 707, "band": 15}]}, "geometry": {"type": "Point", "coordinates": [-122.296875, 47.3867645]}}, {"type": "Feature", "properties": {"id": "9cab361b-4676-4581-97a3-af0244994e28", "name": "J.J's Bar And Grill", "category": "bar", "tags": ["bar", "restaurant", "american", "barbecue", "bar-and-grill"], "sources": ["overture"], "website": "http://www.citysearch.com/profile/10747072/kent_wa/j_j_s_bar_grill.html", "phone": "(206) 824-4799", "address": "23826 Pacific Hwy S", "stations": [{"stopCode": 67, "lines": "1", "name": "Star Lake Station", "walkingMeters": 888, "walkingSeconds": 639, "band": 15}]}, "geometry": {"type": "Point", "coordinates": [-122.2955856, 47.3876648]}}, {"type": "Feature", "properties": {"id": "b2236a7c-9a11-4e2b-b59d-2b5f6766012d", "name": "Taqueria La Cocina Mexicana", "category": "restaurant", "tags": ["restaurant", "mexican"], "sources": ["overture"], "website": "http://cocinamexicana.com", "phone": "(206) 824-3135", "address": "23646 Pacific Hwy S", "stations": [{"stopCode": 67, "lines": "1", "name": "Star Lake Station", "walkingMeters": 708, "walkingSeconds": 510, "band": 10}]}, "geometry": {"type": "Point", "coordinates": [-122.2955246, 47.3888474]}}, {"type": "Feature", "properties": {"id": "335e16ab-c0b6-46f0-83e5-eacb567b4e98", "name": "Birchtree Apartments", "category": "attraction", "tags": ["attraction", "landmark", "historical", "building"], "sources": ["overture"], "website": "https://neiders.com/properties/birchtree-apartments/", "phone": "+12532174585", "address": "23653 Pacific Hwy S", "stations": [{"stopCode": 67, "lines": "1", "name": "Star Lake Station", "walkingMeters": 754, "walkingSeconds": 543, "band": 10}]}, "geometry": {"type": "Point", "coordinates": [-122.2963562, 47.3887596]}}, {"type": "Feature", "properties": {"id": 442656507, "name": "Salt Air Vista Park", "category": "park", "tags": ["park"], "sources": ["osm", "overture"], "website": "http://kentwa.gov/parksandrecreation", "phone": "(253) 856-5200", "address": "24615 26th Place S"}, "geometry": {"type": "Point", "coordinates": [-122.2996739, 47.3806876]}}, {"type": "Feature", "properties": {"id": 305368356, "name": "ampm", "category": "convenience", "tags": ["convenience"], "sources": ["osm", "overture"], "website": "https://www.ampm.com/", "phone": "+12068701656", "address": "24001 Pacific Hwy S", "stations": [{"stopCode": 67, "lines": "1", "name": "Star Lake Station", "walkingMeters": 1063, "walkingSeconds": 767, "band": 15}]}, "geometry": {"type": "Point", "coordinates": [-122.2971287, 47.3859863]}}, {"type": "Feature", "properties": {"id": "dcf0ddfa-7bc7-4e47-9a27-13881f91e2cf", "name": "ExtraMile", "category": "convenience", "tags": ["convenience"], "sources": ["overture"], "website": "https://www.chevronextramile.com/station-finder/23845-pacific-hwy-south-des-moines-wa-98198-id308998", "phone": "+12068705195", "address": "23845 Pacific Hwy S", "stations": [{"stopCode": 67, "lines": "1", "name": "Star Lake Station", "walkingMeters": 982, "walkingSeconds": 706, "band": 15}]}, "geometry": {"type": "Point", "coordinates": [-122.2968445, 47.3867531]}}, {"type": "Feature", "properties": {"id": 242674292, "name": "Lowe's", "category": "doityourself", "tags": ["doityourself", "home", "improvement"], "sources": ["osm", "overture"], "website": "http://www.lowes.com", "phone": "+12066519036", "address": "24050 Pacific Hwy S", "hours": "Mo-Sa 06:00-21:00; Su 08:00-21:00", "stations": [{"stopCode": 67, "lines": "1", "name": "Star Lake Station", "walkingMeters": 1107, "walkingSeconds": 797, "band": 15}]}, "geometry": {"type": "Point", "coordinates": [-122.2942816, 47.3855176]}}, {"type": "Feature", "properties": {"id": 305368357, "name": "Midway Tropical Fish & Pet", "category": "pet", "tags": ["pet"], "sources": ["osm"], "address": "24101 Pacific Highway South", "stations": [{"stopCode": 67, "lines": "1", "name": "Star Lake Station", "walkingMeters": 1113, "walkingSeconds": 803, "band": 15}]}, "geometry": {"type": "Point", "coordinates": [-122.2971804, 47.385477]}}, {"type": "Feature", "properties": {"id": "14084c88-508e-40eb-8aca-6a9bf15880bd", "name": "Lowe's Home Improvement", "category": "hardware", "tags": ["hardware"], "sources": ["overture"], "website": "https://www.lowes.com/store/WA-Kent/2561?cm_mmc=lod-_-c-_-lcl-_-awr-_-yxt-_-fb-_-2561-_-na-_-0-_-0&y_source=1_MTE4MjgxNy01NTktbG9jYXRpb24ud2Vic2l0ZQ%3D%3D", "phone": "+12066519036", "address": "24050 Pacific Hwy S", "stations": [{"stopCode": 67, "lines": "1", "name": "Star Lake Station", "walkingMeters": 1116, "walkingSeconds": 804, "band": 15}]}, "geometry": {"type": "Point", "coordinates": [-122.2943268, 47.3854675]}}, {"type": "Feature", "properties": {"id": "daf13bbb-7acd-4233-b0ad-cd8c82c96eed", "name": "Cabinetrends", "category": "furniture", "tags": ["furniture"], "sources": ["overture"], "website": "http://www.cabinetrendswa.com", "phone": "(253) 681-6199", "address": "24619 Pacific Hwy S"}, "geometry": {"type": "Point", "coordinates": [-122.2982712, 47.3806725]}}, {"type": "Feature", "properties": {"id": "22f97863-6765-4ef0-bfe2-ed3af658a2ca", "name": "Midway Tropical Fish and Pets", "category": "pet", "tags": ["pet"], "sources": ["overture"], "website": "http://www.midwaytropicalfishandpet.com", "phone": "+12068242616", "address": "24101 Pacific Hwy S", "stations": [{"stopCode": 67, "lines": "1", "name": "Star Lake Station", "walkingMeters": 1121, "walkingSeconds": 809, "band": 15}]}, "geometry": {"type": "Point", "coordinates": [-122.2972946, 47.3855247]}}, {"type": "Feature", "properties": {"id": "9e044882-baaf-43aa-808f-2809261b0d92", "name": "Tool Town", "category": "hardware", "tags": ["hardware"], "sources": ["overture"], "website": "http://stores.ebay.com/TOOL-TOWN-STORE", "phone": "+12068781148", "address": "23639 Pacific Hwy S", "stations": [{"stopCode": 67, "lines": "1", "name": "Star Lake Station", "walkingMeters": 692, "walkingSeconds": 498, "band": 10}]}, "geometry": {"type": "Point", "coordinates": [-122.2960815, 47.3891716]}}, {"type": "Feature", "properties": {"id": "c270efdd-9a3d-4f73-9a81-fbfca34601a4", "name": "Sea Mar Community Health Center", "category": "clinic", "tags": ["clinic", "medical"], "sources": ["overture"], "website": "https://www.mars.com", "phone": "+12062124520", "address": "24215 Pacific Hwy S", "stations": [{"stopCode": 67, "lines": "1", "name": "Star Lake Station", "walkingMeters": 1254, "walkingSeconds": 905, "band": 15}]}, "geometry": {"type": "Point", "coordinates": [-122.2972565, 47.3840942]}}, {"type": "Feature", "properties": {"id": "ad38cb29-efb1-4d57-ba0e-8a71ea643fb0", "name": "Sea Mar Des Moines Pharmacy", "category": "pharmacy", "tags": ["pharmacy"], "sources": ["overture"], "website": "http://www.seamar.org/king-pharmacy-desmoines.html", "phone": "2062124530", "address": "2781 S 242nd St.", "stations": [{"stopCode": 67, "lines": "1", "name": "Star Lake Station", "walkingMeters": 1226, "walkingSeconds": 884, "band": 15}]}, "geometry": {"type": "Point", "coordinates": [-122.2974548, 47.3846664]}}]}