{"type": "FeatureCollection", "features": [{"type": "Feature", "properties": {"id": 4632359291, "name": "The Local", "category": "pub", "tags": ["pub"], "sources": ["osm"]}, "geometry": {"type": "Point", "coordinates": [-122.1993297, 47.372346]}}, {"type": "Feature", "properties": {"id": "8dad3aa2-d194-451b-9f5e-cbb74b2b9e07", "name": "Lonchera Do\u00f1a Mary", "category": "restaurant", "tags": ["restaurant", "mexican", "latin-american"], "sources": ["overture"], "website": "https://www.loncheradonamary.com/", "phone": "+12535537867", "address": "10610 SE Kent Kangley Rd"}, "geometry": {"type": "Point", "coordinates": [-122.1986465, 47.3717422]}}, {"type": "Feature", "properties": {"id": "73f0b488-98f1-4ebe-9acb-41475b74cdee", "name": "Slice Of Italy", "category": "restaurant", "tags": ["restaurant"], "sources": ["overture"], "website": "http://us.sliceofitaly.com/servlet/indexSoi", "phone": "(253) 852-9999", "address": "26200 116th Ave SE"}, "geometry": {"type": "Point", "coordinates": [-122.1986618, 47.3722229]}}, {"type": "Feature", "properties": {"id": "d8f51102-528a-461a-a546-1b686ef92430", "name": "The New Local Restaurante y Bar", "category": "restaurant", "tags": ["restaurant", "mexican", "latin-american"], "sources": ["overture"], "website": "https://thenewlocalkent.com/", "phone": "+12532779515", "address": "10432 SE Kent Kangley Rd"}, "geometry": {"type": "Point", "coordinates": [-122.1992798, 47.372261]}}, {"type": "Feature", "properties": {"id": "2f03dc20-8082-41eb-903e-087df5c1e47f", "name": "Clubhouse Sports Bar & Grill", "category": "bar", "tags": ["bar", "sports"], "sources": ["overture"], "website": "http://ClubhouseSportsBarKent.com/", "phone": "(253) 277-0500", "address": "10432 SE Kent Kangley Rd"}, "geometry": {"type": "Point", "coordinates": [-122.199234, 47.3723259]}}, {"type": "Feature", "properties": {"id": "61af0da2-3929-4302-9b35-4da95cb1cec7", "name": "Washington Park Apartments", "category": "attraction", "tags": ["attraction", "landmark", "historical", "building"], "sources": ["overture"], "website": "https://www.crossbeaminvestments.com/apartments/washington-park-apartments-kent", "phone": "+12538541400", "address": "11020 SE Kent Kangley Rd"}, "geometry": {"type": "Point", "coordinates": [-122.1929321, 47.3708115]}}, {"type": "Feature", "properties": {"id": "ae75c03a-c92d-4ea8-bee3-cccf4f59dade", "name": "Village Green Apartments", "category": "attraction", "tags": ["attraction", "landmark", "historical", "building"], "sources": ["overture"], "website": "https://www.villagegreen.graninc.com", "phone": "+12538524155", "address": "10433 SE Kent Kangley Rd"}, "geometry": {"type": "Point", "coordinates": [-122.1993637, 47.3711739]}}, {"type": "Feature", "properties": {"id": "24c062da-025f-4308-9c99-85fb7a48338e", "name": "The Lighthouse Apartments", "category": "attraction", "tags": ["attraction", "landmark", "historical", "building"], "sources": ["overture"], "website": "http://www.lighthouseapartmenthomes.com/", "phone": "+12538569873", "address": "10710 SE 256th St"}, "geometry": {"type": "Point", "coordinates": [-122.197876, 47.3729134]}}, {"type": "Feature", "properties": {"id": "729c2ffc-a415-4f88-8fff-938fd44abbd4", "name": "Vibe Apartments", "category": "attraction", "tags": ["attraction", "landmark", "historical", "building"], "sources": ["overture"], "website": "https://www.liveatvibe.com/", "phone": "+18557233141", "address": "25220 109th Pl SE"}, "geometry": {"type": "Point", "coordinates": [-122.1959534, 47.3744049]}}, {"type": "Feature", "properties": {"id": "4326938f-f87f-4839-aee0-ca8989615326", "name": "Easthill Apartments", "category": "attraction", "tags": ["attraction", "landmark", "historical", "building"], "sources": ["overture"], "website": "http://www.thesomersetapts.com", "phone": "+12538541820", "address": "25246 106th Ave SE"}, "geometry": {"type": "Point", "coordinates": [-122.1989136, 47.3746948]}}, {"type": "Feature", "properties": {"id": "dbab685a-f22f-4e67-a2f2-ed354e5409ae", "name": "Waterbrook", "category": "attraction", "tags": ["attraction", "landmark", "historical", "building"], "sources": ["overture"], "website": "http://www.thewaterbrookapts.com/", "phone": "+12538548221", "address": "10615 SE 250th Pl"}, "geometry": {"type": "Point", "coordinates": [-122.1992722, 47.376461]}}, {"type": "Feature", "properties": {"id": "1f78e259-daef-418e-b953-5f1ed4a465d0", "name": "Stratford Arms Apartments", "category": "attraction", "tags": ["attraction", "landmark", "historical", "building"], "sources": ["overture"], "website": "http://www.stratfordarmsapartmenthomes.com/?rcstdid=MTE%3D-aKFOxiSL8lQ%3D", "phone": "+12537852404", "address": "11126 SE 256th St"}, "geometry": {"type": "Point", "coordinates": [-122.1923752, 47.3728256]}}, {"type": "Feature", "properties": {"id": 4632359292, "name": "Dollar Tree", "category": "variety_store", "tags": ["variety-store", "discount"], "sources": ["osm", "overture"], "website": "http://www.dollartree.com/locations/wa/kent/2921/", "phone": "2537966289", "address": "10432 SE Kent Kangley Rd", "hours": "Mo-Sa 08:00-21:00; Su 09:00-21:00"}, "geometry": {"type": "Point", "coordinates": [-122.1993138, 47.37198]}}, {"type": "Feature", "properties": {"id": 6021402444, "name": "IDM Super Market", "category": "convenience", "tags": ["convenience"], "sources": ["osm"], "address": "10610 Southeast Kent Kangley Road"}, "geometry": {"type": "Point", "coordinates": [-122.198569, 47.3716953]}}, {"type": "Feature", "properties": {"id": 638962473, "name": "Circle Food Store", "category": "convenience", "tags": ["convenience"], "sources": ["osm"], "address": "10602 Southeast 256th Street", "hours": "24/7"}, "geometry": {"type": "Point", "coordinates": [-122.1997264, 47.3729506]}}, {"type": "Feature", "properties": {"id": "ea52a3ad-fee7-4681-9e2e-0e5f223c4b8c", "name": "7-Eleven - Closed", "category": "convenience", "tags": ["convenience"], "sources": ["overture"], "website": "https://www.7-eleven.com/locations/wa/kent/10610-kent-kangley-22991", "phone": "2538546339", "address": "10610 SE Kent Kangley Rd"}, "geometry": {"type": "Point", "coordinates": [-122.1986237, 47.3712807]}}, {"type": "Feature", "properties": {"id": "d0a3eab0-c01b-4279-8eae-c3bc3c4af367", "name": "Kent Circle Food Store", "category": "convenience", "tags": ["convenience"], "sources": ["overture"], "website": "http://circlek.com", "phone": "+12538525190", "address": "10602 SE 256th St"}, "geometry": {"type": "Point", "coordinates": [-122.1997757, 47.3728447]}}, {"type": "Feature", "properties": {"id": "0b8c7793-fd17-4dfa-b44f-0760457f5293", "name": "Saffron Cuisine and Spices", "category": "supermarket", "tags": ["supermarket"], "sources": ["overture"], "website": "https://saffroncuisineandspices.com/", "phone": "+12538806913", "address": "10528 SE 250th Pl"}, "geometry": {"type": "Point", "coordinates": [-122.1993942, 47.3770294]}}, {"type": "Feature", "properties": {"id": "47f84b6f-5763-4dc0-bf07-c9ad333f3c84", "name": "Ratanak Mode Jewelry_Seattle", "category": "jewelry", "tags": ["jewelry"], "sources": ["overture"], "website": "http://www.pscshop.com/", "phone": "+12064715359", "address": "25215 113th Ave SE"}, "geometry": {"type": "Point", "coordinates": [-122.1911011, 47.3754539]}}, {"type": "Feature", "properties": {"id": 4760075924, "name": "Kent Medical Clinic", "category": "clinic", "tags": ["clinic"], "sources": ["osm"]}, "geometry": {"type": "Point", "coordinates": [-122.1962689, 47.3705776]}}, {"type": "Feature", "properties": {"id": 638962413, "name": "Wells Fargo", "category": "bank", "tags": ["bank", "drive-through"], "sources": ["osm"], "address": "10625 Southeast Kent Kangley Road"}, "geometry": {"type": "Point", "coordinates": [-122.1978445, 47.3703945]}}, {"type": "Feature", "properties": {"id": 396481066, "name": "Sound Credit Union", "category": "bank", "tags": ["bank", "drive-through"], "sources": ["osm"], "address": "10914 Southeast Kent Kangley Road"}, "geometry": {"type": "Point", "coordinates": [-122.1954656, 47.3706143]}}]}