{"type": "FeatureCollection", "features": [{"type": "Feature", "properties": {"id": 2446641789, "name": "Subway", "category": "fast_food", "tags": ["fast-food", "sandwich", "takeaway", "fast", "food"], "sources": ["osm", "overture"], "website": "https://restaurants.subway.com/united-states/wa/seattle/9305a-rainier-ave-s?utm_source=yxt-bing&utm_medium=local&utm_term=acq&utm_content=49400&utm_campaign=evergreen-2020&y_source=1_MTQ5MDc3ODUtNDgzLWxvY2F0aW9uLndlYnNpdGU%3D", "phone": "2067220686", "address": "9305A Rainier Ave. S.", "hours": "Mo-Sa 09:00-24:00; Su 09:00-22:00"}, "geometry": {"type": "Point", "coordinates": [-122.2671246, 47.5196187]}}, {"type": "Feature", "properties": {"id": 2446638577, "name": "Drae's Lake Route", "category": "restaurant", "tags": ["restaurant", "american", "breakfast-and-brunch"], "sources": ["osm", "overture"], "website": "http://www.draeslakeroute.com", "phone": "+12067229464", "address": "9261 57th Ave S"}, "geometry": {"type": "Point", "coordinates": [-122.2617922, 47.5198013]}}, {"type": "Feature", "properties": {"id": 2446638590, "name": "Redwing Cafe", "category": "cafe", "tags": ["cafe", "sandwich", "indoor-seating", "vegan", "gluten-free"], "sources": ["osm", "overture"], "website": "http://redwingcafe.com", "phone": "(206) 420-1706", "address": "9272 57th Ave S", "hours": "Tu-Fr 07:00-16:00; Sa-Su 08:00-16:00"}, "geometry": {"type": "Point", "coordinates": [-122.2614222, 47.5195304]}}, {"type": "Feature", "properties": {"id": 2446638613, "name": "Creamy Cone Cafe", "category": "ice_cream", "tags": ["ice-cream", "takeaway"], "sources": ["osm"], "address": "9433 Rainier Avenue South", "hours": "We-Sa 14:00-20:00; Su 15:00-19:00; Mo,Tu off"}, "geometry": {"type": "Point", "coordinates": [-122.2636107, 47.5198793]}}, {"type": "Feature", "properties": {"id": 2446638614, "name": "Paranormal Pie", "category": "fast_food", "tags": ["fast-food", "pizza", "takeaway", "vegetarian", "halal", "restaurant"], "sources": ["osm", "overture"], "website": "http://www.paranormalpiemenu.com/", "phone": "+12067217777", "address": "9435 Rainier Ave S"}, "geometry": {"type": "Point", "coordinates": [-122.2635436, 47.5198885]}}, {"type": "Feature", "properties": {"id": 2446638616, "name": "Rainier Crawfish", "category": "restaurant", "tags": ["restaurant", "cajun", "seafood"], "sources": ["osm"], "address": "9447 Rainier Avenue South"}, "geometry": {"type": "Point", "coordinates": [-122.263217, 47.5199213]}}, {"type": "Feature", "properties": {"id": 12535107125, "name": "Taco Bell", "category": "fast_food", "tags": ["fast-food", "tex-mex", "takeaway", "fast", "food", "taco", "mexican"], "sources": ["osm", "overture"], "website": "http://www.tacobell.com/", "phone": "+12067257177", "address": "9401 Rainier Ave S", "hours": "Mo-Su 10:30-22:00"}, "geometry": {"type": "Point", "coordinates": [-122.264687, 47.5197046]}}, {"type": "Feature", "properties": {"id": 12535107127, "name": "KFC", "category": "fast_food", "tags": ["fast-food", "chicken", "takeaway", "delivery", "drive-through", "wheelchair-accessible", "fast", "food"], "sources": ["osm", "overture"], "website": "https://locations.kfc.com/wa/seattle/9401-rainier-ave-s", "phone": "+12067257177", "address": "9401 Rainier Ave S", "hours": "Mo-Su 10:00-23:00"}, "geometry": {"type": "Point", "coordinates": [-122.264687, 47.5195911]}}, {"type": "Feature", "properties": {"id": 12805723801, "name": "Just Like Home Jamaican Kitchen", "category": "restaurant", "tags": ["restaurant", "caribbean", "jamaican"], "sources": ["osm"], "phone": "+1-206-578-7113", "address": "9431 Rainier Avenue South"}, "geometry": {"type": "Point", "coordinates": [-122.2636472, 47.5198667]}}, {"type": "Feature", "properties": {"id": "5e0e0ba0-3c6f-4933-8ffb-cc3772c52244", "name": "Fish Basket", "category": "restaurant", "tags": ["restaurant", "seafood"], "sources": ["overture"], "website": "http://Fishbasketnw.com/", "phone": "+12068989117", "address": "9447 Rainier Ave S"}, "geometry": {"type": "Point", "coordinates": [-122.263237, 47.5198898]}}, {"type": "Feature", "properties": {"id": "0947d0f3-e184-40bf-af93-94683ba169d0", "name": "Crawfish & Hotpot", "category": "restaurant", "tags": ["restaurant", "chinese", "seafood"], "sources": ["overture"], "website": "https://crawfishhotpotsea.com/", "phone": "+12064534319", "address": "9447 Rainier Ave S"}, "geometry": {"type": "Point", "coordinates": [-122.2632599, 47.5199699]}}, {"type": "Feature", "properties": {"id": "e713ae12-90f8-4404-827e-e38b9212d1f0", "name": "Maya's Mexican", "category": "restaurant", "tags": ["restaurant", "mexican"], "sources": ["overture"], "website": "http://www.mayasrestaurant.com", "phone": "(206) 725-5510", "address": "9447 Rainier Ave S"}, "geometry": {"type": "Point", "coordinates": [-122.2632141, 47.5199089]}}, {"type": "Feature", "properties": {"id": "e356ee3c-e80f-4fad-a794-9fd0cc5879bf", "name": "Pho Hanoi", "category": "restaurant", "tags": ["restaurant", "vietnamese"], "sources": ["overture"], "website": "https://phohanoicatering.com", "phone": "(206) 453-4319", "address": "9447 Rainier Ave S"}, "geometry": {"type": "Point", "coordinates": [-122.2631226, 47.519886]}}, {"type": "Feature", "properties": {"id": 5718337790, "name": "Entry Gate", "category": "artwork", "tags": ["artwork"], "sources": ["osm"]}, "geometry": {"type": "Point", "coordinates": [-122.265683, 47.5128068]}}, {"type": "Feature", "properties": {"id": 5718337803, "name": "Overlook", "category": "viewpoint", "tags": ["viewpoint"], "sources": ["osm"]}, "geometry": {"type": "Point", "coordinates": [-122.266212, 47.5128989]}}, {"type": "Feature", "properties": {"id": 5718338232, "name": "Terrace Overlook", "category": "viewpoint", "tags": ["viewpoint"], "sources": ["osm"]}, "geometry": {"type": "Point", "coordinates": [-122.2665979, 47.5122983]}}, {"type": "Feature", "properties": {"id": 5718338235, "name": "Lookout", "category": "viewpoint", "tags": ["viewpoint", "wheelchair-accessible"], "sources": ["osm"]}, "geometry": {"type": "Point", "coordinates": [-122.2680225, 47.5135968]}}, {"type": "Feature", "properties": {"id": 5718338238, "name": "Japanese Garden", "category": "garden", "tags": ["garden"], "sources": ["osm"]}, "geometry": {"type": "Point", "coordinates": [-122.2658687, 47.5137981]}}, {"type": "Feature", "properties": {"id": 5718338233, "name": "Mountainside", "category": "garden", "tags": ["garden"], "sources": ["osm"]}, "geometry": {"type": "Point", "coordinates": [-122.2681783, 47.5138683]}}, {"type": "Feature", "properties": {"id": 5718338236, "name": "Tom Kubota Stroll Garden", "category": "garden", "tags": ["garden"], "sources": ["osm"]}, "geometry": {"type": "Point", "coordinates": [-122.2664206, 47.5140475]}}, {"type": "Feature", "properties": {"id": 5718338237, "name": "Fera Fera Forest", "category": "garden", "tags": ["garden"], "sources": ["osm"]}, "geometry": {"type": "Point", "coordinates": [-122.2666321, 47.5143462]}}, {"type": "Feature", "properties": {"id": 5718338239, "name": "Maple Woods", "category": "garden", "tags": ["garden"], "sources": ["osm"]}, "geometry": {"type": "Point", "coordinates": [-122.2656033, 47.5135838]}}, {"type": "Feature", "properties": {"id": 5718338240, "name": "Stone Garden", "category": "garden", "tags": ["garden"], "sources": ["osm"]}, "geometry": {"type": "Point", "coordinates": [-122.2664187, 47.5131773]}}, {"type": "Feature", "properties": {"id": 42006992, "name": "Kubota Garden", "category": "garden", "tags": ["garden"], "sources": ["osm"], "website": "https://www.kubotagarden.org/", "address": "9817 55th Avenue South", "hours": "Mo-Su 06:00-22:00"}, "geometry": {"type": "Point", "coordinates": [-122.2673621, 47.5129667]}}, {"type": "Feature", "properties": {"id": 419546353, "name": "Fletcher Place", "category": "park", "tags": ["park"], "sources": ["osm"], "website": "https://www.seattle.gov/parks/allparks/fletcher-place"}, "geometry": {"type": "Point", "coordinates": [-122.2615043, 47.5191149]}}, {"type": "Feature", "properties": {"id": "d3d37eff-b360-4562-b4a9-12b131323679", "name": "Kubota bathroom", "category": "park", "tags": ["park"], "sources": ["overture"], "address": "9817 55th Ave S"}, "geometry": {"type": "Point", "coordinates": [-122.2660828, 47.5121231]}}, {"type": "Feature", "properties": {"id": 236667377, "name": "Speed E Mart", "category": "convenience", "tags": ["convenience"], "sources": ["osm", "overture"], "website": "http://www.whitepages.com/business/speed-e-mart-seattle-wa-2", "phone": "+12067236156", "address": "9625 Renton Ave S"}, "geometry": {"type": "Point", "coordinates": [-122.2692112, 47.5162384]}}, {"type": "Feature", "properties": {"id": "83823fec-d01b-44cf-b587-60f04aaa2018", "name": "Just Like Home Caribbean Market", "category": "supermarket", "tags": ["supermarket", "caribbean"], "sources": ["overture"], "phone": "+12065787113", "address": "9431 Rainier Ave S"}, "geometry": {"type": "Point", "coordinates": [-122.2637558, 47.5198364]}}, {"type": "Feature", "properties": {"id": 203776427, "name": "Neighborcare Health", "category": "clinic", "tags": ["clinic"], "sources": ["osm"], "website": "https://neighborcare.org/clinics/neighborcare-health-rainier-beach", "stations": [{"stopCode": 61, "lines": "1", "name": "Rainier Beach Station", "walkingMeters": 1141, "walkingSeconds": 820, "band": 15}]}, "geometry": {"type": "Point", "coordinates": [-122.2692008, 47.5196272]}}, {"type": "Feature", "properties": {"id": 236664682, "name": "KeyBank", "category": "bank", "tags": ["bank", "credit", "union"], "sources": ["osm", "overture"], "website": "https://www.key.com/locations/WA/Seattle/BRCH47310288/9255-Rainier-Ave-S?ppc=cmpyxt", "phone": "+12066746189", "address": "9255 Rainier Ave S", "stations": [{"stopCode": 61, "lines": "1", "name": "Rainier Beach Station", "walkingMeters": 1258, "walkingSeconds": 904, "band": 15}]}, "geometry": {"type": "Point", "coordinates": [-122.2678442, 47.5196194]}}, {"type": "Feature", "properties": {"id": 2156871565, "name": "WaFd Bank", "category": "bank", "tags": ["bank", "drive-through"], "sources": ["osm"], "website": "https://www.washingtonfederal.com/locations/washington/seattle-rainier-beach"}, "geometry": {"type": "Point", "coordinates": [-122.266537, 47.5196392]}}, {"type": "Feature", "properties": {"id": "14d408cd-9ad7-4e4c-a7c3-1ec7bd56e485", "name": "Washington Federal", "category": "bank", "tags": ["bank", "credit", "union"], "sources": ["overture"], "phone": "2067256250", "address": "9325 Rainier Ave S"}, "geometry": {"type": "Point", "coordinates": [-122.2664795, 47.5196457]}}]}