{"type": "FeatureCollection", "features": [{"type": "Feature", "properties": {"id": 656767418, "name": "Viewing Platform", "category": "viewpoint", "tags": ["viewpoint"], "sources": ["osm"], "stations": [{"stopCode": 55, "lines": "2", "name": "Mercer Island Station", "walkingMeters": 1266, "walkingSeconds": 973, "band": 15}]}, "geometry": {"type": "Point", "coordinates": [-122.2276833, 47.5943162]}}, {"type": "Feature", "properties": {"id": 4904852155, "name": "Call of the Wild", "category": "artwork", "tags": ["artwork"], "sources": ["osm"], "stations": [{"stopCode": 55, "lines": "2", "name": "Mercer Island Station", "walkingMeters": 990, "walkingSeconds": 714, "band": 15}]}, "geometry": {"type": "Point", "coordinates": [-122.2254449, 47.5914014]}}, {"type": "Feature", "properties": {"id": 4904852159, "name": "P + B", "category": "artwork", "tags": ["artwork"], "sources": ["osm"], "stations": [{"stopCode": 55, "lines": "2", "name": "Mercer Island Station", "walkingMeters": 1147, "walkingSeconds": 827, "band": 15}]}, "geometry": {"type": "Point", "coordinates": [-122.2262972, 47.5931956]}}, {"type": "Feature", "properties": {"id": 4911666551, "name": "Handsome Bollards", "category": "artwork", "tags": ["artwork"], "sources": ["osm"], "stations": [{"stopCode": 55, "lines": "2", "name": "Mercer Island Station", "walkingMeters": 1099, "walkingSeconds": 792, "band": 15}]}, "geometry": {"type": "Point", "coordinates": [-122.2244154, 47.5908796]}}, {"type": "Feature", "properties": {"id": 4912168254, "name": "Peruvian Paso Colt", "category": "artwork", "tags": ["artwork"], "sources": ["osm"], "stations": [{"stopCode": 55, "lines": "2", "name": "Mercer Island Station", "walkingMeters": 687, "walkingSeconds": 496, "band": 10}]}, "geometry": {"type": "Point", "coordinates": [-122.2281081, 47.5901829]}}, {"type": "Feature", "properties": {"id": 258709927, "name": "Luther Burbank Park", "category": "park", "tags": ["park"], "sources": ["osm"], "stations": [{"stopCode": 55, "lines": "2", "name": "Mercer Island Station", "walkingMeters": 753, "walkingSeconds": 544, "band": 10}]}, "geometry": {"type": "Point", "coordinates": [-122.2271861, 47.5901738]}}, {"type": "Feature", "properties": {"id": "d44b9f1e-4abe-4760-aef0-d64c83486821", "name": "Luther Burbank Park", "category": "park", "tags": ["park"], "sources": ["overture"], "website": "https://www.mercerisland.gov/parksrec/page/luther-burbank-park", "phone": "+12062757609", "address": "2040 84th Ave SE", "stations": [{"stopCode": 55, "lines": "2", "name": "Mercer Island Station", "walkingMeters": 962, "walkingSeconds": 694, "band": 15}]}, "geometry": {"type": "Point", "coordinates": [-122.2257156, 47.5912018]}}, {"type": "Feature", "properties": {"id": "198f3807-3aff-4304-8b58-dff5a4d82348", "name": "Mercer Island City Parks & Recreation", "category": "playground", "tags": ["playground"], "sources": ["overture"], "website": "http://www.mercergov.org/parks", "phone": "(206) 236-7321", "address": "2040 84th Ave SE", "stations": [{"stopCode": 55, "lines": "2", "name": "Mercer Island Station", "walkingMeters": 1006, "walkingSeconds": 726, "band": 15}]}, "geometry": {"type": "Point", "coordinates": [-122.2253876, 47.5915565]}}, {"type": "Feature", "properties": {"id": "4c7cf0ab-dc93-44d5-a08a-a91725636d0d", "name": "Calkins Point Sand Beach", "category": "park", "tags": ["park"], "sources": ["overture"]}, "geometry": {"type": "Point", "coordinates": [-122.2279205, 47.5951653]}}, {"type": "Feature", "properties": {"id": "00c908ae-5175-4654-ba73-84c9b4f0c616", "name": "Mercer Island Dog Park", "category": "park", "tags": ["park", "dog"], "sources": ["overture"], "website": "https://www.bringfido.com/attraction/parks/city/mercer-island-wa-us", "stations": [{"stopCode": 55, "lines": "2", "name": "Mercer Island Station", "walkingMeters": 1202, "walkingSeconds": 866, "band": 15}]}, "geometry": {"type": "Point", "coordinates": [-122.2261047, 47.5936775]}}, {"type": "Feature", "properties": {"id": "015aac7d-1f9b-4851-9d3b-85a370e4658f", "name": "Luther Burbank Dog Park", "category": "park", "tags": ["park", "dog"], "sources": ["overture"], "website": "https://www.mercerisland.gov/parksrec/page/luther-burbank-park", "phone": "(206) 275-7609", "stations": [{"stopCode": 55, "lines": "2", "name": "Mercer Island Station", "walkingMeters": 1234, "walkingSeconds": 890, "band": 15}]}, "geometry": {"type": "Point", "coordinates": [-122.2261047, 47.5940819]}}]}