{"type": "FeatureCollection", "features": [{"type": "Feature", "properties": {"id": 3325968703, "name": "Subway", "category": "fast_food", "tags": ["fast-food", "sandwich", "takeaway", "restaurant"], "sources": ["osm", "overture"], "website": "https://restaurants.subway.com/united-states/wa/kirkland/11613-124th-ave-ne?utm_source=yxt-bing&utm_medium=local&utm_term=acq&utm_content=22148&utm_campaign=evergreen-2020&y_source=1_MTQ4OTgyMjgtNDgzLWxvY2F0aW9uLndlYnNpdGU%3D", "phone": "4258149001", "address": "11613-124th Ave NE, Suite G", "hours": "Mo-Fr 07:30-21:00; Sa 08:00-21:00; Su 09:00-21:00"}, "geometry": {"type": "Point", "coordinates": [-122.176264, 47.7047356]}}, {"type": "Feature", "properties": {"id": "d29f0e2a-2390-4769-a04c-21b8098d493f", "name": "Himitsu Teriyaki", "category": "restaurant", "tags": ["restaurant", "japanese"], "sources": ["overture"], "website": "http://www.himitsuteriyaki.com", "phone": "(425) 821-9991", "address": "12719 NE 124th St"}, "geometry": {"type": "Point", "coordinates": [-122.1708298, 47.7099113]}}, {"type": "Feature", "properties": {"id": 538368401, "name": "The Dub Pub", "category": "pub", "tags": ["pub", "bar", "sports"], "sources": ["osm", "overture"], "phone": "4255760264", "address": "11516 124th Ave NE"}, "geometry": {"type": "Point", "coordinates": [-122.1748205, 47.7033185]}}, {"type": "Feature", "properties": {"id": "cac380a4-930f-4820-890d-7bd3d61cbc78", "name": "urban COFFEE lounge", "category": "cafe", "tags": ["cafe", "coffee", "breakfast-and-brunch"], "sources": ["overture"], "website": "http://uclkirkland.squarespace.com/", "phone": "4252859114", "address": "12348 NE 115th Pl"}, "geometry": {"type": "Point", "coordinates": [-122.1761703, 47.7030525]}}, {"type": "Feature", "properties": {"id": "24ab925b-c18c-46e5-9a1f-2397aea9f462", "name": "I Love Teriyaki", "category": "restaurant", "tags": ["restaurant", "asian", "pan"], "sources": ["overture"], "website": "https://smorefood.com/order-online/i-love-teriyaki-kirkland-98034-rfst8e5r", "phone": "4258258948", "address": "12077 124th Ave NE"}, "geometry": {"type": "Point", "coordinates": [-122.1766357, 47.7070427]}}, {"type": "Feature", "properties": {"id": "7d57cbbc-8527-4c0f-8218-e7a2c91e278b", "name": "Chan's Place", "category": "restaurant", "tags": ["restaurant", "chinese"], "sources": ["overture"], "phone": "(425) 821-1100", "address": "12041 124th Ave NE"}, "geometry": {"type": "Point", "coordinates": [-122.1772003, 47.7061691]}}, {"type": "Feature", "properties": {"id": 3340932221, "name": "Teriyaki Plus", "category": "restaurant", "tags": ["restaurant", "teriyaki"], "sources": ["osm"], "address": "11512 124th Avenue Northeast"}, "geometry": {"type": "Point", "coordinates": [-122.1751935, 47.7032374]}}, {"type": "Feature", "properties": {"id": 3325968701, "name": "Countryside Donut House", "category": "fast_food", "tags": ["fast-food", "donut", "bakery"], "sources": ["osm", "overture"], "website": "http://countrysidedonuthousekirkland.loungezone.website/", "phone": "+14258211752", "address": "11613 124th Ave NE", "hours": "Tu-Fr 05:30-13:00; Sa 06:00-13:00; Su 06:30-13:00"}, "geometry": {"type": "Point", "coordinates": [-122.1762759, 47.7046191]}}, {"type": "Feature", "properties": {"id": 130100517, "name": "Taco Bell", "category": "fast_food", "tags": ["fast-food", "tex-mex", "takeaway", "drive-through", "fast", "food", "taco", "mexican"], "sources": ["osm", "overture"], "website": "http://www.tacobell.com/", "phone": "+14258219333", "address": "11624 124th Ave NE", "hours": "Mo-Fr,Su 07:00-27:00,Sa 07:00-28:00"}, "geometry": {"type": "Point", "coordinates": [-122.1753522, 47.7047499]}}, {"type": "Feature", "properties": {"id": "3b3c29ac-29b4-4b6e-a5f1-c8e05898251c", "name": "KFC", "category": "fast_food", "tags": ["fast-food", "fast", "food", "chicken"], "sources": ["overture"], "website": "http://www.kfc.com/", "phone": "+14258258679", "address": "11747 124th Ave NE"}, "geometry": {"type": "Point", "coordinates": [-122.1757965, 47.7059975]}}, {"type": "Feature", "properties": {"id": 3325968697, "name": "Nicks Grill", "category": "restaurant", "tags": ["restaurant", "burger", "mexican", "sandwich", "texmex", "american", "bar-and-grill"], "sources": ["osm", "overture"], "website": "http://nicksgrillkirkland.com/", "phone": "+14258209870", "address": "11613 124th Ave NE"}, "geometry": {"type": "Point", "coordinates": [-122.176475, 47.7043014]}}, {"type": "Feature", "properties": {"id": 3325968700, "name": "Kami Teriyaki", "category": "restaurant", "tags": ["restaurant", "asian", "korean", "japanese"], "sources": ["osm", "overture"], "website": "http://order.online/store/KamiTeriyaki-1950627", "phone": "+14258205726", "address": "11613 124th Ave NE", "hours": "Mo-Sa 10:30-21:00"}, "geometry": {"type": "Point", "coordinates": [-122.1762752, 47.7045546]}}, {"type": "Feature", "properties": {"id": 3325968702, "name": "Jasmine Kitchen", "category": "restaurant", "tags": ["restaurant", "mediterranean", "european"], "sources": ["osm", "overture"], "website": "http://jasminekitchenwa.com/", "phone": "+14258208002", "address": "11613 124th Ave NE", "hours": "Mo-Su 10:00-21:00"}, "geometry": {"type": "Point", "coordinates": [-122.1762717, 47.7046749]}}, {"type": "Feature", "properties": {"id": 3325968704, "name": "Turmeric Kirkland", "category": "restaurant", "tags": ["restaurant", "indian", "bengali", "vegetarian", "vegan"], "sources": ["osm"], "website": "https://web.archive.org/web/20230429230438/https://turmerickirkland.com/", "phone": "+1-425-821-6163", "address": "11701 124th Avenue Northeast"}, "geometry": {"type": "Point", "coordinates": [-122.176228, 47.7049084]}}, {"type": "Feature", "properties": {"id": 3325968754, "name": "Kebab House", "category": "restaurant", "tags": ["restaurant", "pakistani", "indian", "takeaway", "delivery", "halal"], "sources": ["osm"], "website": "https://kababhousepk.com", "phone": "+1-425-559-3185", "address": "12041 124th Avenue Northeast", "hours": "14:30-22:30"}, "geometry": {"type": "Point", "coordinates": [-122.1771285, 47.7061193]}}, {"type": "Feature", "properties": {"id": 3325975771, "name": "Fang's Noodle House", "category": "restaurant", "tags": ["restaurant", "noodles", "chinese", "takeaway", "delivery", "reservations", "asian"], "sources": ["osm", "overture"], "website": "https://www.fangsnoodlehousewa.com/", "phone": "+14256081258", "address": "12085 124th Ave NE", "hours": "Mo-Th 11:00-20:30; Fr-Sa 11:00-21:00; Su 11:00-20:00"}, "geometry": {"type": "Point", "coordinates": [-122.1766541, 47.7072536]}}, {"type": "Feature", "properties": {"id": 3325975777, "name": "Noon Cafe", "category": "restaurant", "tags": ["restaurant", "persian", "persian-iranian", "iranian", "middle-eastern"], "sources": ["osm", "overture"], "website": "http://www.nooncafewa.com/", "phone": "+14252000037", "address": "12095 124th Ave NE", "hours": "Mo-Fr 11:00-21:00; Sa 09:00-21:00; Su 09:00-20:00"}, "geometry": {"type": "Point", "coordinates": [-122.1762834, 47.7074044]}}, {"type": "Feature", "properties": {"id": 3329431609, "name": "Kitanda", "category": "cafe", "tags": ["cafe", "coffee-shop", "takeaway", "vegetarian"], "sources": ["osm"], "website": "https://kitanda.com/totemlake", "phone": "+1-425-820-4381", "address": "12069 124th Avenue Northeast", "hours": "Mo-Fr 06:30-19:30; Sa 07:00-18:00; Su 08:00-18:00"}, "geometry": {"type": "Point", "coordinates": [-122.1766556, 47.7068162]}}, {"type": "Feature", "properties": {"id": 3329431638, "name": "Santa Fe Mexican Grill", "category": "restaurant", "tags": ["restaurant", "mexican", "latin-american", "texmex"], "sources": ["osm", "overture"], "website": "https://www.santafemexicanrestaurant.com/", "phone": "+14258219405", "address": "12709 NE 124th St", "hours": "Mo-Su 11:00-21:00"}, "geometry": {"type": "Point", "coordinates": [-122.1711175, 47.7099284]}}, {"type": "Feature", "properties": {"id": 3329431639, "name": "Lucky 7 Bar and Grill", "category": "pub", "tags": ["pub", "restaurant", "bar-and-grill", "bar", "grill"], "sources": ["osm", "overture"], "website": "http://www.lucky7kirkland.com/", "phone": "+14258217717", "address": "12715 NE 124th St"}, "geometry": {"type": "Point", "coordinates": [-122.1709503, 47.7099292]}}, {"type": "Feature", "properties": {"id": 3329431640, "name": "KGF Indian", "category": "restaurant", "tags": ["restaurant", "indian"], "sources": ["osm"], "website": "https://kingsgreatfood.com", "phone": "+1-425-298-4125", "address": "12719 Northeast 124th Street", "hours": "We-Mo 11:00-15:00,17:00-22:00"}, "geometry": {"type": "Point", "coordinates": [-122.170807, 47.7099716]}}, {"type": "Feature", "properties": {"id": 3340932220, "name": "Shawarmaniac", "category": "restaurant", "tags": ["restaurant", "mediterranean", "lebanese", "middle-eastern"], "sources": ["osm", "overture"], "website": "http://shawarmaniac.com/", "phone": "+14258030337", "address": "11510 124th Ave NE", "hours": "Mo-Sa 11:00-21:00; Su 11:30-21:00"}, "geometry": {"type": "Point", "coordinates": [-122.1752845, 47.7032353]}}, {"type": "Feature", "properties": {"id": "ee239ee9-be90-432c-8fdd-9504531553b2", "name": "Aceituno's Mexican Food", "category": "restaurant", "tags": ["restaurant", "mexican", "taco", "texmex"], "sources": ["overture"], "website": "http://www.aceitunosmexicanfood.com", "phone": "+14258218120", "address": "11747 124th Ave NE"}, "geometry": {"type": "Point", "coordinates": [-122.176239, 47.7057457]}}, {"type": "Feature", "properties": {"id": "a3b17ed7-bd5d-4e23-be30-b3dab341a9c7", "name": "El Burrito Mojado", "category": "restaurant", "tags": ["restaurant", "mexican", "taco", "texmex"], "sources": ["overture"], "website": "https://www.burritomojadokirkland.com/", "phone": "+14255224547", "address": "12413 NE 124th St"}, "geometry": {"type": "Point", "coordinates": [-122.1749268, 47.7085419]}}, {"type": "Feature", "properties": {"id": "405b938e-bbdc-44d3-8c7a-952e91fb16d6", "name": "Jet City Pizza Co.", "category": "restaurant", "tags": ["restaurant", "pizza"], "sources": ["overture"], "website": "http://www.jetcitypizza.com/", "phone": "(425) 814-4500", "address": "12085 124th Ave NE"}, "geometry": {"type": "Point", "coordinates": [-122.1758041, 47.7068253]}}, {"type": "Feature", "properties": {"id": 5487793670, "name": "The Art of Coffee", "category": "cafe", "tags": ["cafe", "coffee-shop", "outdoor-seating", "takeaway", "wheelchair-accessible", "dog-friendly", "air-conditioned", "wifi", "coffee"], "sources": ["osm", "overture"], "website": "http://www.artofcoffeekirkland.com/", "phone": "+14255322907", "address": "12348 NE 115th Pl", "hours": "Mo-Fr 06:00-18:00; Sa 08:00-18:00; Su 09:00-16:00"}, "geometry": {"type": "Point", "coordinates": [-122.1762157, 47.7030103]}}, {"type": "Feature", "properties": {"id": 11050125689, "name": "Taqueria Mexican Food", "category": "restaurant", "tags": ["restaurant", "mexican"], "sources": ["osm"]}, "geometry": {"type": "Point", "coordinates": [-122.1749225, 47.7085588]}}, {"type": "Feature", "properties": {"id": 12839009226, "name": "Chai House", "category": "restaurant", "tags": ["restaurant", "chai", "tea", "pakistani", "indian", "delivery", "halal"], "sources": ["osm"], "website": "https://thechaihouse.com", "phone": "+1-425-866-3972", "address": "12041 124th Avenue Northeast", "hours": "Mo-Th 17:00-22:00; Fr 17:00-23:00; Sa-Su 11:30-15:00,17:00-23:00"}, "geometry": {"type": "Point", "coordinates": [-122.1771596, 47.7061216]}}, {"type": "Feature", "properties": {"id": 31881379, "name": "Chick-fil-A", "category": "fast_food", "tags": ["fast-food", "chicken", "indoor-seating", "takeaway", "delivery", "drive-through", "wifi", "restaurant"], "sources": ["osm", "overture"], "website": "https://www.chick-fil-a.com/locations/wa/totem-lake?utm_source=yext&utm_medium=link", "phone": "+14258030222", "address": "12026 NE 124th St", "hours": "Mo-Sa 6:30-22:00"}, "geometry": {"type": "Point", "coordinates": [-122.1793323, 47.7096021]}}, {"type": "Feature", "properties": {"id": 130100518, "name": "Jack in the Box", "category": "fast_food", "tags": ["fast-food", "burger", "takeaway", "drive-through", "fast", "food"], "sources": ["osm", "overture"], "website": "https://www.jackinthebox.com", "phone": "+14258228442", "address": "12409 NE 116th St", "hours": "24/7"}, "geometry": {"type": "Point", "coordinates": [-122.1754236, 47.7036405]}}, {"type": "Feature", "properties": {"id": "70540838-9106-4c05-851b-ee3aef3606f2", "name": "Denny's", "category": "restaurant", "tags": ["restaurant", "breakfast-and-brunch", "breakfast", "brunch"], "sources": ["overture"], "website": "http://locations.dennys.com/WA/KIRKLAND/247545/", "phone": "4258230123", "address": "12106 NE 124th St"}, "geometry": {"type": "Point", "coordinates": [-122.1798325, 47.7092819]}}, {"type": "Feature", "properties": {"id": 153305150, "name": "Aceituno's", "category": "fast_food", "tags": ["fast-food", "mexican", "takeaway", "delivery", "drive-through"], "sources": ["osm"], "website": "https://www.aceitunosmexicanfood.com/", "phone": "+1-425-821-8120", "address": "11747 124th Avenue Northeast", "hours": "Mo-Fr 08:00-22:00; Sa 09:00-22:00; Su 09:00-21:30"}, "geometry": {"type": "Point", "coordinates": [-122.1762753, 47.7056905]}}, {"type": "Feature", "properties": {"id": "5e9be61d-b631-43d9-93b4-d9aca0513bfa", "name": "Diedrich Espresso", "category": "cafe", "tags": ["cafe", "coffee"], "sources": ["overture"], "website": "http://www.diedrichespresso.com", "phone": "(425) 576-0644", "address": "12235 NE 116th St"}, "geometry": {"type": "Point", "coordinates": [-122.1769333, 47.7035217]}}, {"type": "Feature", "properties": {"id": "aaf54b1f-2767-4fb2-80a2-bf03156bb576", "name": "Thai Kitchen", "category": "restaurant", "tags": ["restaurant", "thai"], "sources": ["overture"], "website": "http://thethaikitchen.com/", "phone": "(425) 820-5630", "address": "11701 124th Ave NE"}, "geometry": {"type": "Point", "coordinates": [-122.1762695, 47.7050476]}}, {"type": "Feature", "properties": {"id": "0205b47f-cae0-49f4-8d2a-db6d7f00d5e8", "name": "Kabab House", "category": "restaurant", "tags": ["restaurant", "pakistani", "middle-eastern"], "sources": ["overture"], "website": "https://www.kababhousepk.com/", "phone": "+14255593185", "address": "12041 124th Ave NE"}, "geometry": {"type": "Point", "coordinates": [-122.1770096, 47.7061272]}}, {"type": "Feature", "properties": {"id": "2667f54a-f919-4ad1-a287-27dca72cb19c", "name": "Brown Bag Cafe", "category": "restaurant", "tags": ["restaurant", "breakfast-and-brunch", "breakfast", "brunch"], "sources": ["overture"], "website": "http://www.brownbagcafes.com", "phone": "(425) 822-9462", "address": "12217 NE 116th St"}, "geometry": {"type": "Point", "coordinates": [-122.177681, 47.7037277]}}, {"type": "Feature", "properties": {"id": "0a358307-477a-454e-ac63-258dfa839a1e", "name": "The Turmeric Kitchen", "category": "restaurant", "tags": ["restaurant", "indian"], "sources": ["overture"], "website": "http://turmerickirkland.com", "phone": "(425) 821-6163", "address": "11701 124th Ave NE"}, "geometry": {"type": "Point", "coordinates": [-122.1763, 47.7048988]}}, {"type": "Feature", "properties": {"id": "34ac3c4b-4d85-4dd7-a589-cb161736bcea", "name": "The Turmeric Kitchen", "category": "restaurant", "tags": ["restaurant", "indian"], "sources": ["overture"], "website": "https://kirklandturmeric.com/", "phone": "+14258216163", "address": "11701 124th Ave NE"}, "geometry": {"type": "Point", "coordinates": [-122.1737595, 47.7068558]}}, {"type": "Feature", "properties": {"id": "d7b470c1-942f-4e30-b5c4-8ff58bc489d2", "name": "Bahaar Indian Cuisine", "category": "restaurant", "tags": ["restaurant", "asian", "pan"], "sources": ["overture"], "website": "https://bahaarindiancuisine.com/", "phone": "4258238223", "address": "11701 124th Ave NE"}, "geometry": {"type": "Point", "coordinates": [-122.1758575, 47.7048378]}}, {"type": "Feature", "properties": {"id": "b43982b5-7dda-4ffa-b8d4-12cb63507ca4", "name": "Dub Pub", "category": "bar", "tags": ["bar"], "sources": ["overture"], "website": "http://dubpub.net", "phone": "(425) 576-0264", "address": "11516 124th Ave NE"}, "geometry": {"type": "Point", "coordinates": [-122.1753845, 47.7036819]}}, {"type": "Feature", "properties": {"id": "20888b91-0d39-40d3-932f-054ff8e286f0", "name": "Teriyaki Plus Kirkland", "category": "restaurant", "tags": ["restaurant", "japanese", "asian"], "sources": ["overture"], "website": "http://teriyakiplus.com", "phone": "+14258275679", "address": "11512 124th Ave NE"}, "geometry": {"type": "Point", "coordinates": [-122.1751328, 47.7033615]}}, {"type": "Feature", "properties": {"id": "b9ec2bef-c786-4ace-b12b-0382f3aeb645", "name": "Smoke And Shine", "category": "restaurant", "tags": ["restaurant", "barbecue"], "sources": ["overture"], "website": "http://www.smokeandshine.com", "phone": "(425) 968-8206", "address": "11516 124th Ave NE"}, "geometry": {"type": "Point", "coordinates": [-122.1750031, 47.7033386]}}, {"type": "Feature", "properties": {"id": "d9825e62-7b98-4c63-a202-bc1ee030f271", "name": "Tavolino's A Chicago Tradition", "category": "restaurant", "tags": ["restaurant", "hot-dog", "hot", "dog", "pizza"], "sources": ["overture"], "phone": "4258251600", "address": "12085 124th Ave NE"}, "geometry": {"type": "Point", "coordinates": [-122.175705, 47.7074356]}}, {"type": "Feature", "properties": {"id": "6d969fd7-ada6-406c-8441-c951c2784f80", "name": "Hibiscus Mediterranean & Egyptian Cuisine", "category": "restaurant", "tags": ["restaurant", "egyptian", "mediterranean", "middle-eastern"], "sources": ["overture"], "website": "https://www.hibiscusegyptiancuisine.com/", "phone": "4254399017", "address": "12095 124th Ave NE"}, "geometry": {"type": "Point", "coordinates": [-122.1763611, 47.7073898]}}, {"type": "Feature", "properties": {"id": "3c72577a-3d72-4d69-8e89-2606cf088c77", "name": "Hibiscus Egyptian Cuisine", "category": "restaurant", "tags": ["restaurant", "egyptian"], "sources": ["overture"], "website": "https://www.hibiscusegyptiancuisine.com", "phone": "(425) 439-9017", "address": "12095 124th Ave NE"}, "geometry": {"type": "Point", "coordinates": [-122.1764069, 47.7073746]}}, {"type": "Feature", "properties": {"id": "45228a99-8da8-4dcd-b6c8-1cbcaf15107c", "name": "Northwest Cellars", "category": "bar", "tags": ["bar", "wine"], "sources": ["overture"], "phone": "4258259463", "address": "11909 124th Ave NE"}, "geometry": {"type": "Point", "coordinates": [-122.175972, 47.7057495]}}, {"type": "Feature", "properties": {"id": "913cfb1b-c4d1-41e1-9fde-00bb37a1dc02", "name": "Liquid Lime", "category": "bar", "tags": ["bar"], "sources": ["overture"], "website": "http://www.theliquidlime.com", "phone": "(425) 825-9658", "address": "12015 124th Ave NE"}, "geometry": {"type": "Point", "coordinates": [-122.1762543, 47.7064629]}}, {"type": "Feature", "properties": {"id": "f6a821ea-86b2-4663-8787-3dbecbd4f7a8", "name": "Aria Food and Bakery", "category": "bakery", "tags": ["bakery", "persian-iranian", "middle-eastern"], "sources": ["overture"], "website": "http://ariafoodbakery.com/", "phone": "+14254416044", "address": "12033 124th Ave NE"}, "geometry": {"type": "Point", "coordinates": [-122.1765976, 47.7065125]}}, {"type": "Feature", "properties": {"id": "077e6e1b-fe2a-4ffb-a5d0-84301cb9e7bb", "name": "Chef Shalimar", "category": "restaurant", "tags": ["restaurant", "burger"], "sources": ["overture"], "website": "https://www.chefshalimar.com", "phone": "(425) 821-4888", "address": "12041 124th Ave NE"}, "geometry": {"type": "Point", "coordinates": [-122.1772614, 47.7060699]}}, {"type": "Feature", "properties": {"id": "bdc13ced-f83f-456a-9f61-ef06ffa448db", "name": "Royal Palace", "category": "restaurant", "tags": ["restaurant"], "sources": ["overture"], "phone": "4258211100", "address": "12041 124th Ave NE"}, "geometry": {"type": "Point", "coordinates": [-122.1771545, 47.7062035]}}, {"type": "Feature", "properties": {"id": "fd5f5737-9c2a-495d-8cac-940c8a853dee", "name": "Rumi Restaurant", "category": "restaurant", "tags": ["restaurant", "mediterranean"], "sources": ["overture"], "phone": "(425) 820-8080", "address": "11729 124th Ave NE"}, "geometry": {"type": "Point", "coordinates": [-122.1769257, 47.7056313]}}, {"type": "Feature", "properties": {"id": "526eb146-8355-431a-a78a-3d4467bb5fac", "name": "Kavkaz Kebab House", "category": "restaurant", "tags": ["restaurant", "afghan", "fast-food", "middle-eastern"], "sources": ["overture"], "website": "http://kavkazkebabhouse.vpweb.com/default.html", "phone": "+14258208080", "address": "11729 124th Ave NE"}, "geometry": {"type": "Point", "coordinates": [-122.1769257, 47.7056313]}}, {"type": "Feature", "properties": {"id": "73094ffb-d81a-4394-8285-b7a9ff5530c9", "name": "Phoenix Land Spicy \u706b\u51e4\u51f0", "category": "restaurant", "tags": ["restaurant", "noodles"], "sources": ["overture"], "website": "https://qmenu.us/#/phoenix-land-spicy-kirkland", "phone": "4258206933", "address": "12067 124th Ave NE"}, "geometry": {"type": "Point", "coordinates": [-122.1766968, 47.7067604]}}, {"type": "Feature", "properties": {"id": "be292fca-6d16-459f-b0d1-b89fd615d1b0", "name": "OButekim", "category": "restaurant", "tags": ["restaurant", "brazilian", "latin-american"], "sources": ["overture"], "website": "http://www.Bottecobrazil.com/", "phone": "+12064662445", "address": "12093 124th Ave NE"}, "geometry": {"type": "Point", "coordinates": [-122.1764832, 47.7073441]}}, {"type": "Feature", "properties": {"id": "f9c76bea-0d8c-4166-a9f3-806ffc23c469", "name": "VIP's Lounge", "category": "restaurant", "tags": ["restaurant"], "sources": ["overture"], "phone": "+14258230123", "address": "12106 NE 124th St"}, "geometry": {"type": "Point", "coordinates": [-122.1792221, 47.7095299]}}, {"type": "Feature", "properties": {"id": "b2d51e2d-954e-49fe-8a3a-9f55ddd9d997", "name": "HB Beverage Co", "category": "restaurant", "tags": ["restaurant", "vegan"], "sources": ["overture"], "website": "http://hbbev.co", "phone": "(425) 499-5436", "address": "12409 NE 124th St"}, "geometry": {"type": "Point", "coordinates": [-122.175209, 47.7085381]}}, {"type": "Feature", "properties": {"id": "703d249b-47bc-4a52-bc18-d191c0143a14", "name": "Ken Zaburo", "category": "restaurant", "tags": ["restaurant", "sushi"], "sources": ["overture"], "website": "http://kenzaburosushi.com/", "phone": "(425) 823-2888", "address": "12413 NE 124th St"}, "geometry": {"type": "Point", "coordinates": [-122.1750488, 47.7084923]}}, {"type": "Feature", "properties": {"id": "6895c872-94d6-4d68-9eac-cb5d14f04bc8", "name": "Ryan James Fine Arts", "category": "gallery", "tags": ["gallery", "art"], "sources": ["overture"], "website": "http://www.ryanjamesfinearts.com", "phone": "(425) 814-9500", "address": "11905 124th Ave NE"}, "geometry": {"type": "Point", "coordinates": [-122.1782455, 47.7062187]}}, {"type": "Feature", "properties": {"id": "0711b9b6-7bca-4e58-9c5b-352e7e14f19a", "name": "Elements Art Gallery", "category": "gallery", "tags": ["gallery", "art"], "sources": ["overture"], "website": "https://www.elementsbynatty.com", "phone": "(425) 243-3940", "address": "11901 124th Ave NE"}, "geometry": {"type": "Point", "coordinates": [-122.1783066, 47.706131]}}, {"type": "Feature", "properties": {"id": 31883571, "name": "Quality Inn", "category": "hotel", "tags": ["hotel"], "sources": ["osm"], "website": "https://www.choicehotels.com/washington/tukwila/woodspring-hotels", "phone": "+1-425-380-8495", "address": "12204 Northeast 124th Street"}, "geometry": {"type": "Point", "coordinates": [-122.1779399, 47.7095707]}}, {"type": "Feature", "properties": {"id": 325988168, "name": "Motel 6", "category": "motel", "tags": ["motel"], "sources": ["osm", "overture"], "website": "http://www.motel6.com/", "phone": "+14258215618", "address": "12010 120th Pl NE"}, "geometry": {"type": "Point", "coordinates": [-122.1795768, 47.7079698]}}, {"type": "Feature", "properties": {"id": 327347083, "name": "Baymont Seattle/Kirkland WA", "category": "hotel", "tags": ["hotel"], "sources": ["osm"], "website": "https://www.wyndhamhotels.com/baymont/kirkland-washington/baymont-inn-and-suites-seattle-kirkland-wa/overview", "phone": "+1-425-947-1030", "address": "12223 Northeast 116th Street"}, "geometry": {"type": "Point", "coordinates": [-122.1782318, 47.7027526]}}, {"type": "Feature", "properties": {"id": "e9dc2ba7-3994-4822-889a-a075ba286259", "name": "Comfort Inn", "category": "hotel", "tags": ["hotel"], "sources": ["overture"], "website": "https://www.choicehotels.com/washington/kirkland/comfort-inn-hotels/wa160?pmf=yext&mc=llyxyxpx", "phone": "+14258141792", "address": "12204 NE 124th St"}, "geometry": {"type": "Point", "coordinates": [-122.1779404, 47.7095833]}}, {"type": "Feature", "properties": {"id": "d6ec2461-ad25-428b-bb21-e22dee59eeba", "name": "Baymont by Wyndham Seattle/Kirkland WA", "category": "hotel", "tags": ["hotel", "resort"], "sources": ["overture"], "website": "https://www.wyndhamhotels.com/baymont/kirkland-washington/baymont-inn-and-suites-seattle-kirkland-wa/overview?CID=LC:w1ep4ap58ea2s4j:17835&iata=00093796", "phone": "4259471030", "address": "12223 NE 116th St"}, "geometry": {"type": "Point", "coordinates": [-122.178299, 47.7027779]}}, {"type": "Feature", "properties": {"id": "62cba144-e349-459b-9a1a-1fe43f048a1a", "name": "Baymont Inn & Suites", "category": "hotel", "tags": ["hotel"], "sources": ["overture"], "website": "https://www.wyndhamhotels.com/baymont/kirkland-washington/baymont-inn-and-suites-seattle-kirkland-wa/overview", "phone": "+14259471030", "address": "12223 NE 116th St"}, "geometry": {"type": "Point", "coordinates": [-122.1781769, 47.7028656]}}, {"type": "Feature", "properties": {"id": 1659755394, "name": "Food Mart", "category": "convenience", "tags": ["convenience"], "sources": ["osm"], "address": "12235 Northeast 116th Street"}, "geometry": {"type": "Point", "coordinates": [-122.1770226, 47.7035763]}}, {"type": "Feature", "properties": {"id": 1659755405, "name": "Dania", "category": "furniture", "tags": ["furniture"], "sources": ["osm"], "website": "https://daniafurniture.com/pages/dania-furniture-kirkland-wa"}, "geometry": {"type": "Point", "coordinates": [-122.1777135, 47.7050889]}}, {"type": "Feature", "properties": {"id": "62873005-a6cf-48c8-a778-3953c841e667", "name": "ampm", "category": "convenience", "tags": ["convenience"], "sources": ["overture"], "website": "https://www.ampm.com/", "phone": "+14252962251", "address": "11600 124th Ave NE"}, "geometry": {"type": "Point", "coordinates": [-122.1752243, 47.7043343]}}, {"type": "Feature", "properties": {"id": 3325968758, "name": "Arbat European Market", "category": "deli", "tags": ["deli"], "sources": ["osm"], "phone": "+1-425-825-5830", "address": "12053 124th Avenue Northeast", "hours": "Mo-Fr 10:00-18:00; Sa 10:00-18:00"}, "geometry": {"type": "Point", "coordinates": [-122.177143, 47.706407]}}, {"type": "Feature", "properties": {"id": 3329431627, "name": "The Kitchen Studio", "category": "furniture", "tags": ["furniture"], "sources": ["osm"], "address": "12703 Northeast 124th Street"}, "geometry": {"type": "Point", "coordinates": [-122.1713395, 47.7098705]}}, {"type": "Feature", "properties": {"id": 5697384242, "name": "NanaWall", "category": "hardware", "tags": ["hardware"], "sources": ["osm"], "website": "https://www.nanawall.com/locations/kirkland-wa"}, "geometry": {"type": "Point", "coordinates": [-122.1743202, 47.7048766]}}, {"type": "Feature", "properties": {"id": 325988169, "name": "Jacksons", "category": "convenience", "tags": ["convenience"], "sources": ["osm"], "phone": "+1-425-821-3064", "address": "12221 Northeast 124th Street"}, "geometry": {"type": "Point", "coordinates": [-122.1777599, 47.7084167]}}, {"type": "Feature", "properties": {"id": "af495cc4-8574-4ad9-b4e8-1bca6c30a8af", "name": "Dania Home & Office Interiors", "category": "furniture", "tags": ["furniture"], "sources": ["overture"], "website": "https://stores.daniafurniture.com/dania-furniture-8bcb225abd1a", "phone": "(425) 823-9160", "address": "12230 NE 116th St"}, "geometry": {"type": "Point", "coordinates": [-122.1777496, 47.7050667]}}, {"type": "Feature", "properties": {"id": "62ea3892-ba45-4df2-9b82-9846b9ccabd2", "name": "Jacksons Food Stores", "category": "convenience", "tags": ["convenience"], "sources": ["overture"], "website": "http://www.jacksonsfoodstores.com/", "phone": "4258213064", "address": "12221 NE 124th St"}, "geometry": {"type": "Point", "coordinates": [-122.1777725, 47.7084045]}}, {"type": "Feature", "properties": {"id": "5f2f4043-1854-4f31-9a36-39ea6854470a", "name": "Dania Furniture", "category": "furniture", "tags": ["furniture"], "sources": ["overture"], "website": "https://daniafurniture.com/", "phone": "+14258239160", "address": "12230 NE 116th St"}, "geometry": {"type": "Point", "coordinates": [-122.177742, 47.7050705]}}, {"type": "Feature", "properties": {"id": "a95bd3b1-1932-48f3-ad02-2a5bfce19cf3", "name": "Nana Wall Systems Inc", "category": "doityourself", "tags": ["doityourself", "building", "supply"], "sources": ["overture"], "website": "http://www.nanawall.com/", "phone": "4258257900", "address": "11630 Slater Ave NE Ste 1"}, "geometry": {"type": "Point", "coordinates": [-122.1737671, 47.7048798]}}, {"type": "Feature", "properties": {"id": "bbea650a-5c8f-46eb-ba7c-8f30632d3189", "name": "Northwest Cellars", "category": "alcohol", "tags": ["alcohol"], "sources": ["overture"], "website": "http://www.northwestcellars.com/", "phone": "+14258259463", "address": "11909 124th Ave NE"}, "geometry": {"type": "Point", "coordinates": [-122.1778564, 47.7062454]}}, {"type": "Feature", "properties": {"id": "9ed2edef-e7aa-418c-8991-1526a38bef85", "name": "Sahand Persian Grocery", "category": "supermarket", "tags": ["supermarket"], "sources": ["overture"], "website": "http://sahandgrocery.com/", "phone": "+14258233194", "address": "12047 124th Ave NE"}, "geometry": {"type": "Point", "coordinates": [-122.1770172, 47.7062531]}}, {"type": "Feature", "properties": {"id": "457dd940-25fd-4ac4-8abd-67c2dab9c740", "name": "Arbat Natural Foods", "category": "supermarket", "tags": ["supermarket"], "sources": ["overture"], "phone": "+14258255830", "address": "12053 124th Ave NE"}, "geometry": {"type": "Point", "coordinates": [-122.1770096, 47.7064514]}}, {"type": "Feature", "properties": {"id": "7e296dd7-a02a-41ff-af60-48f227defb0f", "name": "Waving Tree", "category": "wine", "tags": ["wine", "winery"], "sources": ["overture"], "website": "http://www.wavingtreewine.com", "phone": "(425) 820-0102", "address": "11901 124th Ave NE"}, "geometry": {"type": "Point", "coordinates": [-122.1782303, 47.7060509]}}, {"type": "Feature", "properties": {"id": "99f6756b-0bb3-4564-8354-5a10dce45dba", "name": "Busby Junk Removal", "category": "doityourself", "tags": ["doityourself", "home", "improvement"], "sources": ["overture"], "website": "https://www.busbyjunkremoval.com/", "phone": "8774045865", "address": "11821 124th Ave NE"}, "geometry": {"type": "Point", "coordinates": [-122.1792831, 47.7062721]}}, {"type": "Feature", "properties": {"id": "e3d3ca80-423c-472b-9839-3977ca593f09", "name": "Kirkland Sports Cards", "category": "gift", "tags": ["gift"], "sources": ["overture"], "website": "https://www.facebook.com/Kirkland-Sports-Cards-207735585955460/", "phone": "+14258218252", "address": "12091 124th Ave NE"}, "geometry": {"type": "Point", "coordinates": [-122.1765289, 47.707283]}}, {"type": "Feature", "properties": {"id": "11214453-37a7-44e9-a50e-17aa3411b8ed", "name": "Redmond Rare Coins", "category": "gift", "tags": ["gift"], "sources": ["overture"], "website": "http://www.redmondrarecoins.com/", "phone": "+14258232646", "address": "12411 NE 124th St"}, "geometry": {"type": "Point", "coordinates": [-122.175087, 47.7086487]}}, {"type": "Feature", "properties": {"id": "5e02516e-10d7-4fbe-9bfd-5afa9097b09a", "name": "Lakewood Jewelers Inc", "category": "jewelry", "tags": ["jewelry"], "sources": ["overture"], "phone": "4255765114", "address": "12091 124th Ave NE"}, "geometry": {"type": "Point", "coordinates": [-122.174469, 47.7078781]}}, {"type": "Feature", "properties": {"id": "baa13dc0-31c2-48d7-b697-07018b058079", "name": "United Wholesale Supply", "category": "hardware", "tags": ["hardware"], "sources": ["overture"], "website": "http://www.unitedwholesale.com/", "phone": "+14258959595", "address": "12703 NE 124th St"}, "geometry": {"type": "Point", "coordinates": [-122.1708298, 47.7099113]}}, {"type": "Feature", "properties": {"id": "24bc6ace-aeab-4a44-ba64-2d816e957a09", "name": "Rite Aid", "category": "pharmacy", "tags": ["pharmacy"], "sources": ["overture"], "phone": "4258211500", "address": "12421 Totem Lake Blvd NE"}, "geometry": {"type": "Point", "coordinates": [-122.1768265, 47.7096519]}}, {"type": "Feature", "properties": {"id": 5266167621, "name": "Indigo Urgent Care", "category": "clinic", "tags": ["clinic"], "sources": ["osm"], "website": "https://www.indigourgentcare.com/location/urgent-care-kirkland", "phone": "+1-425-406-5458", "address": "12423 Totem Lake Boulevard Northeast", "hours": "Mo-Su 08:00-20:00"}, "geometry": {"type": "Point", "coordinates": [-122.1792159, 47.7099116]}}, {"type": "Feature", "properties": {"id": "031e44df-bbbd-4f0a-9af6-681251b0f9f8", "name": "MultiCare Indigo Urgent Care", "category": "clinic", "tags": ["clinic", "walk", "in"], "sources": ["overture"], "website": "https://www.indigourgentcare.com/locations/urgent-care-kirkland?utm_source=bing&utm_medium=organic&utm_campaign=local", "phone": "4254065458", "address": "12423 Totem Lake Blvd NE"}, "geometry": {"type": "Point", "coordinates": [-122.1771011, 47.7093887]}}, {"type": "Feature", "properties": {"id": "be91f580-51f3-4407-b333-df18e7b5452d", "name": "Rapid Care Center", "category": "clinic", "tags": ["clinic", "medical"], "sources": ["overture"], "website": "https://www.rapidcarekirkland.com/", "phone": "+14252090909", "address": "11415 Slater Ave NE"}, "geometry": {"type": "Point", "coordinates": [-122.1775818, 47.7025604]}}, {"type": "Feature", "properties": {"id": "d7bf80de-22ff-4847-979d-5ae0b45abcb9", "name": "Indigo Urgent Care - Kirkland", "category": "hospital", "tags": ["hospital"], "sources": ["overture"], "website": "https://www.indigohealth.com/locations/urgent-care-kirkland/", "phone": "+14254065458", "address": "12423 Totem Lake Blvd NE"}, "geometry": {"type": "Point", "coordinates": [-122.1792374, 47.7099915]}}, {"type": "Feature", "properties": {"id": "c3ce44dd-5d38-4f75-b29b-0d7065fd13de", "name": "MultiCare Indigo Urgent Care - Kirkland", "category": "clinic", "tags": ["clinic", "walk", "in"], "sources": ["overture"], "website": "https://www.indigohealth.com/locations/urgent-care-kirkland/", "phone": "4254065458", "address": "12423 Totem Lake Blvd NE"}, "geometry": {"type": "Point", "coordinates": [-122.1793289, 47.7098846]}}, {"type": "Feature", "properties": {"id": 114625846, "name": "LA Fitness", "category": "fitness_centre", "tags": ["fitness-centre", "gym"], "sources": ["osm", "overture"], "website": "https://www.lafitness.com/Pages/Default.aspx", "phone": "+14252981331", "address": "12321 120th Pl NE"}, "geometry": {"type": "Point", "coordinates": [-122.1796919, 47.7087662]}}, {"type": "Feature", "properties": {"id": "72336979-960f-4886-9fb0-6ea74f063999", "name": "Omni Fight Club", "category": "fitness_centre", "tags": ["fitness-centre", "gym"], "sources": ["overture"], "website": "http://kirkland.omnifightclub.com/", "phone": "+18336664523", "address": "12321 120th Pl NE"}, "geometry": {"type": "Point", "coordinates": [-122.1793594, 47.708683]}}, {"type": "Feature", "properties": {"id": "9bf5388b-a865-44bc-ae0c-c60ac75b8380", "name": "Orion Sports Club", "category": "sports_centre", "tags": ["sports-centre", "sports", "club", "league"], "sources": ["overture"], "website": "http://Orionsportsclub.com/", "phone": "+12064567650", "address": "12015 124th Ave NE"}, "geometry": {"type": "Point", "coordinates": [-122.1762772, 47.7064476]}}, {"type": "Feature", "properties": {"id": "695480bc-2b04-4aad-bc09-c3d9969c4fb3", "name": "Lake Washington CrossFit", "category": "fitness_centre", "tags": ["fitness-centre", "gym"], "sources": ["overture"], "website": "http://lakewashingtoncrossfit.com/", "phone": "+14256918506", "address": "11853 124th Ave NE"}, "geometry": {"type": "Point", "coordinates": [-122.1789169, 47.7061996]}}, {"type": "Feature", "properties": {"id": "69134041-433d-48ee-a3eb-c1f28faf11ec", "name": "DOP Strength Gym", "category": "fitness_centre", "tags": ["fitness-centre", "gym"], "sources": ["overture"], "website": "http://www.dopstrength.com/", "address": "11831 124th Ave NE"}, "geometry": {"type": "Point", "coordinates": [-122.1791229, 47.7063179]}}, {"type": "Feature", "properties": {"id": "bffa5300-a9c0-4589-91fe-a8bc3a510eef", "name": "Firehouse Hot Yoga", "category": "fitness_centre", "tags": ["fitness-centre", "yoga", "studio"], "sources": ["overture"], "website": "http://www.firehousehotyoga.com", "phone": "(425) 814-0200", "address": "12089 124th Ave NE"}, "geometry": {"type": "Point", "coordinates": [-122.1767044, 47.7072296]}}]}