{"type": "FeatureCollection", "features": [{"type": "Feature", "properties": {"id": 3178065830, "name": "Subway", "category": "fast_food", "tags": ["fast-food", "sandwich", "takeaway", "restaurant"], "sources": ["osm", "overture"], "website": "http://www.subway.com/en-us", "phone": "+14255726738", "address": "1222 Bronson Way N", "hours": "Mo-Tu 07:00-20:00; We-Fr 07:00-22:00; Sa 10:00-21:00; Su 10:00-20:00"}, "geometry": {"type": "Point", "coordinates": [-122.2013365, 47.4838652]}}, {"type": "Feature", "properties": {"id": "2eb696ee-1d22-458d-8c6d-63f5893a98a5", "name": "A Pizza Mart", "category": "restaurant", "tags": ["restaurant", "pizza"], "sources": ["overture"], "website": "http://www.apizzamart.org", "phone": "(253) 941-1200", "address": "1222 Bronson Way N"}, "geometry": {"type": "Point", "coordinates": [-122.2014236, 47.4836617]}}, {"type": "Feature", "properties": {"id": 3178065827, "name": "Enjoy Teriyaki 7", "category": "restaurant", "tags": ["restaurant", "asian"], "sources": ["osm"], "address": "1222 Bronson Way North"}, "geometry": {"type": "Point", "coordinates": [-122.2013342, 47.4837562]}}, {"type": "Feature", "properties": {"id": 3178065829, "name": "Pizza Dudes", "category": "restaurant", "tags": ["restaurant", "pizza", "italian"], "sources": ["osm", "overture"], "website": "http://Www.mypizzadudes.com/", "phone": "+14252824899", "address": "1222 Bronson Way N", "hours": "Mo-Fr 10:00-21:00; Sa 12:00-21:00; Su 12:00-20:00"}, "geometry": {"type": "Point", "coordinates": [-122.2013553, 47.4839853]}}, {"type": "Feature", "properties": {"id": 4238431395, "name": "The Rose Gifts & Coffee", "category": "cafe", "tags": ["cafe"], "sources": ["osm"], "address": "226 Main Avenue South", "hours": "Mo-Fr 07:00-17:00; Sa,Su 08:00-16:00"}, "geometry": {"type": "Point", "coordinates": [-122.2040652, 47.480244]}}, {"type": "Feature", "properties": {"id": 4238478096, "name": "Espresso & Hot Dog", "category": "cafe", "tags": ["cafe", "coffee-shop"], "sources": ["osm"]}, "geometry": {"type": "Point", "coordinates": [-122.20821, 47.480529]}}, {"type": "Feature", "properties": {"id": "eecf4f6b-5fa3-4ed0-a9fe-41cb204b5212", "name": "Taqueria El Kiosko", "category": "restaurant", "tags": ["restaurant", "mexican"], "sources": ["overture"], "website": "http://taqueriaelkiosko.dinehere.us", "phone": "(425) 271-2341", "address": "526 S 2nd St"}, "geometry": {"type": "Point", "coordinates": [-122.2093735, 47.4814034]}}, {"type": "Feature", "properties": {"id": 8019658086, "name": "Dubtown Brewing Company", "category": "pub", "tags": ["pub", "outdoor-seating", "indoor-seating", "microbrew", "brewery", "wifi", "bar"], "sources": ["osm", "overture"], "website": "http://www.dubtownbrewingcompany.com/", "phone": "+14252078707", "address": "201 Main Ave S", "hours": "Mo-Th 15:00-21:00; Fr 15:00-22:00; Sa 12:00-22:00; Su 12:00-21:00"}, "geometry": {"type": "Point", "coordinates": [-122.2043683, 47.4810492]}}, {"type": "Feature", "properties": {"id": 11082091305, "name": "Crawfish House", "category": "restaurant", "tags": ["restaurant", "cajun", "seafood", "reservations", "cajun-and-creole", "southern"], "sources": ["osm", "overture"], "website": "http://CRAWFISHHOUSE206.COM/", "phone": "+14255726013", "address": "247 Park Ave N", "hours": "Mon-Sun 2:00PM - 11:00PM"}, "geometry": {"type": "Point", "coordinates": [-122.2025601, 47.4863928]}}, {"type": "Feature", "properties": {"id": 229476624, "name": "JP's Barroom", "category": "pub", "tags": ["pub", "bar-and-grill"], "sources": ["osm", "overture"], "website": "http://Www.jpsbars.com/", "phone": "+14252772766", "address": "214 Williams Ave S"}, "geometry": {"type": "Point", "coordinates": [-122.2063455, 47.4806669]}}, {"type": "Feature", "properties": {"id": 410971723, "name": "Sub Shop #8", "category": "restaurant", "tags": ["restaurant", "sandwich", "wheelchair-accessible"], "sources": ["osm"], "website": "https://www.subshop8.com/", "phone": "+1-425-226-5238", "address": "30 Logan Avenue South", "hours": "Mo-Sa 09:30-17:00; Su off"}, "geometry": {"type": "Point", "coordinates": [-122.2088356, 47.4850981]}}, {"type": "Feature", "properties": {"id": 424401643, "name": "Berliner Pub", "category": "pub", "tags": ["pub", "german", "restaurant", "bar-and-grill"], "sources": ["osm", "overture"], "website": "http://www.berlinerpub.com", "phone": "+14252771111", "address": "221 Main Ave S", "hours": "Mo-Th 15:00-11:30; Fr-Su 11:00-01:30"}, "geometry": {"type": "Point", "coordinates": [-122.2045183, 47.4803732]}}, {"type": "Feature", "properties": {"id": 654879849, "name": "El Kiosko", "category": "restaurant", "tags": ["restaurant", "mexican", "indoor-seating", "wheelchair-accessible", "vegetarian", "latin-american"], "sources": ["osm", "overture"], "website": "http://taqueriaelkiosko.dinehere.us", "phone": "+14252712341", "address": "526 S 2nd St", "hours": "Mo-Su 09:00-22:00"}, "geometry": {"type": "Point", "coordinates": [-122.2093804, 47.4814235]}}, {"type": "Feature", "properties": {"id": "8d61157e-76c3-4297-a3a2-c76a2c1bbc61", "name": "Pike Place Bakery", "category": "bakery", "tags": ["bakery"], "sources": ["overture"], "website": "http://www.pikeplacebakery.com", "phone": "+14252262340", "address": "1222 Bronson Way N"}, "geometry": {"type": "Point", "coordinates": [-122.2012939, 47.4838371]}}, {"type": "Feature", "properties": {"id": "60b6abea-4dc1-4528-904a-471643b27333", "name": "Enjoy Teriyaki", "category": "restaurant", "tags": ["restaurant", "japanese", "asian"], "sources": ["overture"], "website": "http://www.menupix.com/seattle/restaurants/178559/Enjoy-Teriyaki-Renton-WA", "phone": "+14257937333", "address": "1222 Bronson Way N"}, "geometry": {"type": "Point", "coordinates": [-122.2012939, 47.4836426]}}, {"type": "Feature", "properties": {"id": "bf00cc6f-0da1-4822-8cae-334e9ada9cff", "name": "Cowgirls espresso stand", "category": "cafe", "tags": ["cafe", "coffee"], "sources": ["overture"], "website": "http://www.cowgirlsespressonw.com", "phone": "(425) 228-0418", "address": "314 Park Ave N"}, "geometry": {"type": "Point", "coordinates": [-122.201973, 47.4870338]}}, {"type": "Feature", "properties": {"id": "206acecf-aefb-4d5c-8027-7534e094c560", "name": "Dog & Pony Alehouse and Grill", "category": "pub", "tags": ["pub"], "sources": ["overture"], "website": "http://www.thedogandpony.com/", "phone": "(425) 254-8080", "address": "351 Park Ave N"}, "geometry": {"type": "Point", "coordinates": [-122.2023544, 47.4883728]}}, {"type": "Feature", "properties": {"id": "830cb4cf-bf3a-4fb6-9db9-4fcf1e0f79e1", "name": "Crown & Thistle Pub", "category": "restaurant", "tags": ["restaurant"], "sources": ["overture"], "website": "http://stlukesrenton.org/", "phone": "+14252553323", "address": "99 Wells Ave S"}, "geometry": {"type": "Point", "coordinates": [-122.2057648, 47.4830589]}}, {"type": "Feature", "properties": {"id": "9eb86f86-4141-44fa-85b6-ad5d273df108", "name": "Sub Shop", "category": "restaurant", "tags": ["restaurant", "sandwich"], "sources": ["overture"], "website": "http://www.subshop8.com", "phone": "+14252265238", "address": "30 Logan Ave S"}, "geometry": {"type": "Point", "coordinates": [-122.2090454, 47.4851341]}}, {"type": "Feature", "properties": {"id": "34fce6b0-ed71-4593-b1f9-797c99041218", "name": "The Met Coffee and Wine Bar", "category": "bar", "tags": ["bar", "wine"], "sources": ["overture"], "website": "http://www.themetwinebar.com", "phone": "(425) 687-7989", "address": "232 Burnett Ave S Ste C"}, "geometry": {"type": "Point", "coordinates": [-122.207756, 47.4810753]}}, {"type": "Feature", "properties": {"id": "cbf27615-128a-41bc-b4f1-731c3f0339ea", "name": "Cheers Bar & Grill Renton", "category": "bar", "tags": ["bar", "sports"], "sources": ["overture"], "website": "http://www.cheersdowntown.com", "phone": "(425) 572-0248", "address": "201 Williams Ave S"}, "geometry": {"type": "Point", "coordinates": [-122.2068787, 47.4810562]}}, {"type": "Feature", "properties": {"id": "195bb316-b05f-404a-92d7-61c5451f5e9a", "name": "Williams Ave Sports Bar", "category": "bar", "tags": ["bar", "sports"], "sources": ["overture"], "website": "https://www.jpsbars.com/location/jps-williams-ave-pub", "phone": "(425) 277-2766", "address": "214 Williams Ave S"}, "geometry": {"type": "Point", "coordinates": [-122.2064514, 47.4806595]}}, {"type": "Feature", "properties": {"id": "7ad5e679-0253-453a-8f90-73fc7439310d", "name": "Four Generals Brewing", "category": "bar", "tags": ["bar", "brewery"], "sources": ["overture"], "website": "http://www.fourgenerals.com/", "phone": "+14252824360", "address": "229 Wells Ave S"}, "geometry": {"type": "Point", "coordinates": [-122.2055664, 47.4801521]}}, {"type": "Feature", "properties": {"id": "cebfa2de-b382-4e56-af1e-2b2115ffbf53", "name": "Thai Gold Triangle Rstrnt Llc", "category": "restaurant", "tags": ["restaurant", "thai"], "sources": ["overture"], "phone": "4252710380", "address": "916 S 2nd St"}, "geometry": {"type": "Point", "coordinates": [-122.2051468, 47.4812202]}}, {"type": "Feature", "properties": {"id": "9b05118c-d322-4d17-a5ae-261116d0877a", "name": "The Berliner Pub", "category": "restaurant", "tags": ["restaurant", "german"], "sources": ["overture"], "website": "http://berlinerpub.com", "phone": "(425) 277-1111", "address": "221 Main Ave S"}, "geometry": {"type": "Point", "coordinates": [-122.2044525, 47.4803925]}}, {"type": "Feature", "properties": {"id": "1c316610-8111-4520-ac9c-8ff486e5612c", "name": "The Rose Gift House and Coffee", "category": "cafe", "tags": ["cafe", "coffee"], "sources": ["overture"], "website": "https://therosegifthouseandcoffee.shopsettings.com/", "phone": "+14255283607", "address": "226 Main Ave S"}, "geometry": {"type": "Point", "coordinates": [-122.2041397, 47.4802399]}}, {"type": "Feature", "properties": {"id": 4238440596, "name": "Chief Seattle Fountain", "category": "artwork", "tags": ["artwork"], "sources": ["osm"], "website": "https://www.flickr.com/photos/sounderbruce/19333574304/in/photostream/"}, "geometry": {"type": "Point", "coordinates": [-122.2031703, 47.4802643]}}, {"type": "Feature", "properties": {"id": 4386152289, "name": "Homework Comes First", "category": "artwork", "tags": ["artwork"], "sources": ["osm"]}, "geometry": {"type": "Point", "coordinates": [-122.2021591, 47.4814625]}}, {"type": "Feature", "properties": {"id": 4386156189, "name": "Stiltwalker", "category": "artwork", "tags": ["artwork"], "sources": ["osm"]}, "geometry": {"type": "Point", "coordinates": [-122.2016008, 47.4820594]}}, {"type": "Feature", "properties": {"id": 5476859727, "name": "We Are All In This Boat Together", "category": "artwork", "tags": ["artwork"], "sources": ["osm"]}, "geometry": {"type": "Point", "coordinates": [-122.2085258, 47.4857153]}}, {"type": "Feature", "properties": {"id": 5635512141, "name": "Wolves at Indian Baskets", "category": "artwork", "tags": ["artwork"], "sources": ["osm"]}, "geometry": {"type": "Point", "coordinates": [-122.2077261, 47.4847521]}}, {"type": "Feature", "properties": {"id": 12964749125, "name": "River", "category": "artwork", "tags": ["artwork"], "sources": ["osm"]}, "geometry": {"type": "Point", "coordinates": [-122.2089491, 47.4807677]}}, {"type": "Feature", "properties": {"id": 12964749126, "name": "Our Adopted Community", "category": "artwork", "tags": ["artwork"], "sources": ["osm"]}, "geometry": {"type": "Point", "coordinates": [-122.208573, 47.4807609]}}, {"type": "Feature", "properties": {"id": 160037608, "name": "Renton History Museum", "category": "museum", "tags": ["museum", "history"], "sources": ["osm", "overture"], "website": "https://rentonwa.gov/cms/one.aspx?pageId=8564740", "phone": "+14254306600", "address": "235 Mill Ave S", "hours": "Tu-Sa 10:00-16:00"}, "geometry": {"type": "Point", "coordinates": [-122.2033784, 47.4801301]}}, {"type": "Feature", "properties": {"id": "27d0c832-01d5-4919-bcba-dfb84898f8fe", "name": "Cedar River Court Apartments", "category": "attraction", "tags": ["attraction", "landmark", "historical", "building"], "sources": ["overture"], "website": "http://www.shagcedarrivercourt.com", "phone": "+14252552222", "address": "130 Main Ave S"}, "geometry": {"type": "Point", "coordinates": [-122.2036133, 47.4820518]}}, {"type": "Feature", "properties": {"id": "ab927709-a075-43b6-98ea-e483483fe6da", "name": "Cedar River Terrace", "category": "attraction", "tags": ["attraction", "landmark", "historical", "building"], "sources": ["overture"], "phone": "+14259703188", "address": "51 Burnett Ave S"}, "geometry": {"type": "Point", "coordinates": [-122.2080002, 47.4841805]}}, {"type": "Feature", "properties": {"id": "ca8be21d-d8a1-4f39-ab80-205bcc7ef6c8", "name": "95 Burnett Apartment Homes", "category": "attraction", "tags": ["attraction", "landmark", "historical", "building"], "sources": ["overture"], "website": "https://www.95burnett.com", "phone": "+14252555710", "address": "95 Burnett Ave S"}, "geometry": {"type": "Point", "coordinates": [-122.2079391, 47.4830742]}}, {"type": "Feature", "properties": {"id": "9ac99c0e-21ab-443d-a195-7c299d9e242c", "name": "Second and Main", "category": "attraction", "tags": ["attraction", "landmark", "historical", "building"], "sources": ["overture"], "website": "https://www.livesecondandmain.com/", "phone": "+14253645729", "address": "207 Main Ave S"}, "geometry": {"type": "Point", "coordinates": [-122.2043304, 47.480732]}}, {"type": "Feature", "properties": {"id": "dd015635-2f97-4472-bd9b-9189bb915191", "name": "Uptown Glassworks", "category": "gallery", "tags": ["gallery", "art"], "sources": ["overture"], "website": "http://www.rainierglassstudio.com", "phone": "(425) 228-1849", "address": "230 Main Ave S"}, "geometry": {"type": "Point", "coordinates": [-122.2039413, 47.4800835]}}, {"type": "Feature", "properties": {"id": 68667016, "name": "Liberty Park", "category": "park", "tags": ["park"], "sources": ["osm", "overture"], "website": "http://rentonwa.gov/living/default.aspx?id=79", "phone": "+14254306600", "address": "1101 Bronson Way N", "hours": "sunrise-sunset"}, "geometry": {"type": "Point", "coordinates": [-122.2003517, 47.4825649]}}, {"type": "Feature", "properties": {"id": 160044311, "name": "Jones Park", "category": "park", "tags": ["park"], "sources": ["osm", "overture"], "website": "https://rentonwa.gov/city_hall/parks_and_recreation/parks_and_trails/find_a_park_or_trail/jones_park", "phone": "+14254306400", "address": "98 Wells Ave S"}, "geometry": {"type": "Point", "coordinates": [-122.2046457, 47.4829831]}}, {"type": "Feature", "properties": {"id": 473914269, "name": "Burnett Linear Park", "category": "park", "tags": ["park"], "sources": ["osm"]}, "geometry": {"type": "Point", "coordinates": [-122.2087102, 47.4839446]}}, {"type": "Feature", "properties": {"id": 569403105, "name": "Cedar River Trail Park", "category": "park", "tags": ["park"], "sources": ["osm"]}, "geometry": {"type": "Point", "coordinates": [-122.2077441, 47.4848326]}}, {"type": "Feature", "properties": {"id": "3bbf38ea-c721-4237-909e-0fea9752158d", "name": "Renton Skate Park", "category": "park", "tags": ["park"], "sources": ["overture"], "address": "Liberty Park, 1055 S Grady Way"}, "geometry": {"type": "Point", "coordinates": [-122.2001648, 47.4819679]}}, {"type": "Feature", "properties": {"id": "17c344d5-74fd-437c-b6a7-db4efdc03c2d", "name": "Piazza Park", "category": "park", "tags": ["park"], "sources": ["overture"], "website": "http://www.piazzarenton.org/", "phone": "+14254306600", "address": "233 Burnett Ave S"}, "geometry": {"type": "Point", "coordinates": [-122.2087173, 47.4801025]}}, {"type": "Feature", "properties": {"id": 654870797, "name": "Food Mart", "category": "convenience", "tags": ["convenience"], "sources": ["osm"], "address": "401 Park Avenue North", "hours": "24/7"}, "geometry": {"type": "Point", "coordinates": [-122.2026498, 47.4887921]}}, {"type": "Feature", "properties": {"id": 2319215159, "name": "Dollar Tree", "category": "variety_store", "tags": ["variety-store", "wheelchair-accessible", "convenience", "discount"], "sources": ["osm", "overture"], "website": "http://www.dollartree.com/locations/wa/renton/4600/", "phone": "4259811994", "address": "1222 Bronson Way N Unit 200", "hours": "Mo-Sa 08:00-22:00; Su 09:00-22:00"}, "geometry": {"type": "Point", "coordinates": [-122.2007454, 47.4842704]}}, {"type": "Feature", "properties": {"id": 2380701859, "name": "Pinto's Gun Shop", "category": "gift", "tags": ["gift"], "sources": ["osm"], "address": "224 Wells Avenue South", "hours": "10:00-18:00"}, "geometry": {"type": "Point", "coordinates": [-122.2052681, 47.4802751]}}, {"type": "Feature", "properties": {"id": 4556361790, "name": "Smoke Plus", "category": "tobacco", "tags": ["tobacco"], "sources": ["osm"], "address": "1222 Bronson Way North"}, "geometry": {"type": "Point", "coordinates": [-122.2013217, 47.4834636]}}, {"type": "Feature", "properties": {"id": 4556359090, "name": "Black Jack's Metal Detectors", "category": "electronics", "tags": ["electronics"], "sources": ["osm"]}, "geometry": {"type": "Point", "coordinates": [-122.2023538, 47.4832747]}}, {"type": "Feature", "properties": {"id": "8e56d0b7-b507-4ea5-8656-02c25090d56e", "name": "Neighborhood Market", "category": "convenience", "tags": ["convenience"], "sources": ["overture"], "phone": "+14252824795", "address": "231 Main Ave S"}, "geometry": {"type": "Point", "coordinates": [-122.2045822, 47.4800911]}}, {"type": "Feature", "properties": {"id": 9657136317, "name": "Junkyard Bones", "category": "pet", "tags": ["pet"], "sources": ["osm", "overture"], "website": "http://www.junkyardbone.com/", "phone": "+14252645349", "address": "210 Wells Ave S", "hours": "Mo-Sa 10:00-18:00; Su 10:00-17:00"}, "geometry": {"type": "Point", "coordinates": [-122.2052758, 47.4808298]}}, {"type": "Feature", "properties": {"id": 9657136617, "name": "TJ Mart", "category": "convenience", "tags": ["convenience"], "sources": ["osm"], "address": "231 Main Avenue South", "hours": "10:00-23:00"}, "geometry": {"type": "Point", "coordinates": [-122.2043838, 47.4801401]}}, {"type": "Feature", "properties": {"id": 424401645, "name": "St. Charles Place Antiques", "category": "furniture", "tags": ["furniture", "wheelchair-accessible"], "sources": ["osm"], "address": "230;930 Wells Avenue South", "hours": "Mo-Sa 09:30-18:00"}, "geometry": {"type": "Point", "coordinates": [-122.2051261, 47.4801052]}}, {"type": "Feature", "properties": {"id": 424470668, "name": "G.H.Y. Bikes", "category": "bicycle", "tags": ["bicycle"], "sources": ["osm"], "website": "https://www.ghybikes.com", "address": "230 Main Avenue South", "hours": "Mo-Fr 11:00-19:00; Sa 10:00-18:00; Su 12:00-17:00"}, "geometry": {"type": "Point", "coordinates": [-122.2038714, 47.4800712]}}, {"type": "Feature", "properties": {"id": "3ee87f28-0092-4254-90bc-df55058aabc5", "name": "Sherwin-Williams", "category": "doityourself", "tags": ["doityourself", "building", "supply"], "sources": ["overture"], "website": "https://www.sherwin-williams.com/store-locator/paint-store/renton/wa/703553", "phone": "+14252556262", "address": "206 Wells Ave S"}, "geometry": {"type": "Point", "coordinates": [-122.2052536, 47.4809456]}}, {"type": "Feature", "properties": {"id": "47d36d75-11db-4358-a190-be63ce4f4dc4", "name": "AT&T Store", "category": "mobile_phone", "tags": ["mobile-phone", "mobile"], "sources": ["overture"], "website": "https://www.att.com/stores/washington/renton/178290", "phone": "2065759999", "address": "1222 Bronson Way N Ste 100"}, "geometry": {"type": "Point", "coordinates": [-122.2013626, 47.4835739]}}, {"type": "Feature", "properties": {"id": "a0175427-783a-4635-810a-22d7a738811a", "name": "Renton Coin Shop", "category": "gift", "tags": ["gift"], "sources": ["overture"], "website": "http://www.rentoncoinshop.com/", "phone": "+14252263890", "address": "101 Park Ave N"}, "geometry": {"type": "Point", "coordinates": [-122.2023392, 47.4831619]}}, {"type": "Feature", "properties": {"id": "9e387dfa-ef83-4c85-b08b-54cf33dadfe7", "name": "Northwest Window Coverings", "category": "furniture", "tags": ["furniture"], "sources": ["overture"], "website": "http://www.northwestwindowcoverings.com", "phone": "(425) 291-7668", "address": "145 Park Ave N"}, "geometry": {"type": "Point", "coordinates": [-122.2025681, 47.484169]}}, {"type": "Feature", "properties": {"id": "2f84e16a-07dc-400b-9abd-b35587d5670b", "name": "Los Primos", "category": "supermarket", "tags": ["supermarket", "mexican"], "sources": ["overture"], "address": "314 Park Ave N, Unit B"}, "geometry": {"type": "Point", "coordinates": [-122.201889, 47.4870796]}}, {"type": "Feature", "properties": {"id": "a4a98ae7-acb4-43ea-bec0-d038997e66cb", "name": "Palacio de Muchos Gatos", "category": "pet", "tags": ["pet"], "sources": ["overture"], "phone": "+14255551262", "address": "400 Pelly Ave N"}, "geometry": {"type": "Point", "coordinates": [-122.203186, 47.4899216]}}, {"type": "Feature", "properties": {"id": "5c0b9299-8a7b-4b16-9872-e6c0f2a15f93", "name": "DPad Retro Gaming and Collectibles", "category": "gift", "tags": ["gift"], "sources": ["overture"], "website": "http://www.dpadretrogaming.com/", "phone": "+14252645975", "address": "227 Wells Ave S"}, "geometry": {"type": "Point", "coordinates": [-122.2056198, 47.4801102]}}, {"type": "Feature", "properties": {"id": "6144f4f0-4b49-4933-b810-37e0474106dd", "name": "Mart at Main Convenient Store", "category": "supermarket", "tags": ["supermarket"], "sources": ["overture"], "website": "https://mart-at-main.business.site/?utm_source=gmb&utm_medium=referral", "phone": "+14255726078", "address": "231 Main Ave S"}, "geometry": {"type": "Point", "coordinates": [-122.2045822, 47.4800835]}}, {"type": "Feature", "properties": {"id": 4556359114, "name": "Allcare Medical Clinic", "category": "clinic", "tags": ["clinic"], "sources": ["osm"], "hours": "Mo-Fr 09:00-18:00; Sa 10:00-14:00"}, "geometry": {"type": "Point", "coordinates": [-122.2018896, 47.4845638]}}, {"type": "Feature", "properties": {"id": 203330308, "name": "U.S. Bank", "category": "bank", "tags": ["bank", "drive-through", "credit", "union"], "sources": ["osm", "overture"], "website": "https://www.usbank.com/locations/washington/renton/858-s-2nd-st-bank-atm/?utm_source=facebook&utm_medium=organic&utm_campaign=facebook_listing", "phone": "+14252274710", "address": "858 S 2nd St", "hours": "Mo-Th 09:00-17:00; Fr 09:00-18:00; Sa 10:00-13:00"}, "geometry": {"type": "Point", "coordinates": [-122.2060365, 47.4814619]}}, {"type": "Feature", "properties": {"id": 203330314, "name": "Chase", "category": "bank", "tags": ["bank", "wheelchair-accessible"], "sources": ["osm"], "address": "150 Logan Avenue South", "hours": "Mo-Fr 09:00-17:00; Sa 09:00-13:00"}, "geometry": {"type": "Point", "coordinates": [-122.2088093, 47.4815653]}}, {"type": "Feature", "properties": {"id": 2318498279, "name": "First Financial Northwest Bank", "category": "bank", "tags": ["bank", "drive-through"], "sources": ["osm"], "address": "208 Williams Ave S", "hours": "Mo-Th 09:00-17:00; Fr 09:00-18:00"}, "geometry": {"type": "Point", "coordinates": [-122.2064641, 47.4810965]}}, {"type": "Feature", "properties": {"id": 34895479, "name": "Renton Library", "category": "library", "tags": ["library"], "sources": ["osm", "overture"], "website": "http://kcls.org/locations/1556", "phone": "+14252266043", "address": "100 Mill Ave S", "hours": "Mo 10:00-18:00; Tu-We 12:00-20:00; Th-Fr 10:00-18:00; Sa-Su 11:00-18:00"}, "geometry": {"type": "Point", "coordinates": [-122.2020632, 47.4818635]}}, {"type": "Feature", "properties": {"id": "dead6812-4e12-4b0e-b4f3-81925bfa5969", "name": "Chase Bank", "category": "bank", "tags": ["bank", "credit", "union"], "sources": ["overture"], "website": "https://www.chase.com/locator/banking/us/wa/renton/150-logan-ave-s?jp_cmp=rb%2FLocalListings%2Faff%2Fbranch%2Fna&y_source=1_MjAzOTkyMy00ODMtbG9jYXRpb24ud2Vic2l0ZQ%3D%3D", "phone": "4252276212", "address": "150 Logan Ave S"}, "geometry": {"type": "Point", "coordinates": [-122.2087784, 47.481514]}}, {"type": "Feature", "properties": {"id": "3a473baa-b9e7-47f1-9ab1-7d719f8bb143", "name": "U.S. Bank ATM", "category": "bank", "tags": ["bank", "credit", "union"], "sources": ["overture"], "website": "http://www.usbank.com/locations", "phone": "8008722657", "address": "858 S 2nd St"}, "geometry": {"type": "Point", "coordinates": [-122.2061462, 47.4812241]}}, {"type": "Feature", "properties": {"id": "874fc118-36cb-46bb-a48d-327e44cb80e3", "name": "KCLS Renton Library", "category": "library", "tags": ["library"], "sources": ["overture"], "website": "http://kcls.org/locations/1556", "phone": "(425) 226-6043", "address": "100 Mill Ave S"}, "geometry": {"type": "Point", "coordinates": [-122.2020798, 47.4818726]}}, {"type": "Feature", "properties": {"id": "650eb811-c243-46b2-8605-ba3be9f7341d", "name": "First Financial Northwest Bank - Main", "category": "bank", "tags": ["bank", "credit", "union"], "sources": ["overture"], "website": "https://www.ffnwb.com/", "phone": "4252554400", "address": "201 Wells Ave S"}, "geometry": {"type": "Point", "coordinates": [-122.2062073, 47.4810257]}}, {"type": "Feature", "properties": {"id": 4238376591, "name": "Hot Yoga Renton", "category": "fitness_centre", "tags": ["fitness-centre", "yoga", "studio"], "sources": ["osm", "overture"], "website": "http://www.hotyogarenton.com/", "phone": "+14252045083", "address": "222 Williams Ave S"}, "geometry": {"type": "Point", "coordinates": [-122.2064238, 47.4802154]}}, {"type": "Feature", "properties": {"id": 5850718866, "name": "Fortified Fitness", "category": "fitness_centre", "tags": ["fitness-centre", "gym"], "sources": ["osm", "overture"], "website": "http://www.fortifiedfitness.net/", "phone": "+14255184547", "address": "921 S 2nd St"}, "geometry": {"type": "Point", "coordinates": [-122.2044354, 47.4811077]}}, {"type": "Feature", "properties": {"id": "8018088c-2496-4cce-8c38-b86ad4f210b4", "name": "Hocevar Performance Gym", "category": "fitness_centre", "tags": ["fitness-centre", "gym"], "sources": ["overture"], "website": "http://www.youtube.com/user/HocevarPerformance", "phone": "+14252765721", "address": "1222 Bronson Way N"}, "geometry": {"type": "Point", "coordinates": [-122.2007523, 47.4842644]}}, {"type": "Feature", "properties": {"id": "6fb96041-1a4a-4ee3-ac63-65f3309c60c2", "name": "Vigor Ground Fitness and Performance", "category": "fitness_centre", "tags": ["fitness-centre", "gym"], "sources": ["overture"], "website": "http://www.vigorgroundfitness.com", "phone": "(425) 276-5721", "address": "1222 Bronson Way N #250"}, "geometry": {"type": "Point", "coordinates": [-122.2013168, 47.4842224]}}, {"type": "Feature", "properties": {"id": "35d96b5a-55d0-4746-84ed-cd3bdf316de6", "name": "Bikram Yoga", "category": "fitness_centre", "tags": ["fitness-centre", "yoga", "studio"], "sources": ["overture"], "website": "http://www.hotyogarenton.com", "phone": "(425) 204-5083", "address": "222 Williams Ave S"}, "geometry": {"type": "Point", "coordinates": [-122.2064285, 47.4803085]}}]}