{"type": "FeatureCollection", "features": [{"type": "Feature", "properties": {"id": 426156711, "name": "The Maltby Cafe", "category": "restaurant", "tags": ["restaurant", "american", "breakfast-and-brunch", "breakfast", "brunch"], "sources": ["osm", "overture"], "website": "http://maltbycafe.com/", "phone": "(425) 483-3123", "address": "8809 Maltby Rd", "hours": "Mo-Su 07:00-15:00"}, "geometry": {"type": "Point", "coordinates": [-122.1143727, 47.8052372]}}, {"type": "Feature", "properties": {"id": 1387761614, "name": "Maltby Pizza & Pasta", "category": "restaurant", "tags": ["restaurant", "italian", "pizza"], "sources": ["osm", "overture"], "website": "http://www.maltbypizza.com/", "phone": "+13606685757", "address": "8813 Maltby Rd"}, "geometry": {"type": "Point", "coordinates": [-122.1136512, 47.8053203]}}, {"type": "Feature", "properties": {"id": 3855654322, "name": "Snoqualmie Ice Cream Scoop Shop", "category": "ice_cream", "tags": ["ice-cream"], "sources": ["osm"], "website": "https://www.snoqualmieicecream.com", "address": "21106 86th Avenue Southeast"}, "geometry": {"type": "Point", "coordinates": [-122.1168036, 47.8054752]}}, {"type": "Feature", "properties": {"id": "14584a34-58ef-464d-aa5e-12fdf3881eb7", "name": "Maltby Cafe", "category": "cafe", "tags": ["cafe", "breakfast-and-brunch", "american"], "sources": ["overture"], "website": "http://maltbycafe.com/", "phone": "+14254833123", "address": "8809 Maltby Rd"}, "geometry": {"type": "Point", "coordinates": [-122.1144562, 47.8052254]}}, {"type": "Feature", "properties": {"id": "b53ed033-457d-4cf0-8ebe-08143c5e9587", "name": "Artis Photogrphy", "category": "gallery", "tags": ["gallery", "art"], "sources": ["overture"], "website": "http://www.artisphotography.com", "phone": "(360) 217-7293", "address": "8731 Maltby Rd"}, "geometry": {"type": "Point", "coordinates": [-122.1148148, 47.8052673]}}, {"type": "Feature", "properties": {"id": "47cdd586-6727-4bda-b06e-3a255362379d", "name": "Mutual Materials", "category": "doityourself", "tags": ["doityourself", "building", "supply"], "sources": ["overture"], "website": "https://www.mutualmaterials.com/", "phone": "4258188556", "address": "8523 216th St SE"}, "geometry": {"type": "Point", "coordinates": [-122.1181335, 47.8018875]}}, {"type": "Feature", "properties": {"id": "35513325-7181-4109-a26b-93d15cbeb833", "name": "Foundation Building Materials", "category": "doityourself", "tags": ["doityourself", "building", "supply"], "sources": ["overture"], "website": "https://www.fbmsales.com/location/logan-ut/", "phone": "4254153981", "address": "21415 87th Ave SE"}, "geometry": {"type": "Point", "coordinates": [-122.1151733, 47.802597]}}]}