{"type": "FeatureCollection", "features": [{"type": "Feature", "properties": {"id": 4107754291, "name": "A Pizza Mart", "category": "restaurant", "tags": ["restaurant", "pizza"], "sources": ["osm", "overture"], "website": "http://www.apizzamart.org/", "phone": "2539459030", "address": "24618 36th Ave S", "hours": "Th-Su 11:00-12:00; Mo-We 14:00-12:00"}, "geometry": {"type": "Point", "coordinates": [-122.285521, 47.3806123]}}, {"type": "Feature", "properties": {"id": "df38fe42-a0f2-4e3c-8c7b-e7a26e92f615", "name": "Tortas Locas", "category": "restaurant", "tags": ["restaurant", "taco"], "sources": ["overture"], "website": "https://maurosmexicanrestaurant.netwaiter.com/kent/about", "phone": "(253) 529-2540", "address": "24608 36th Ave S"}, "geometry": {"type": "Point", "coordinates": [-122.2860413, 47.381031]}}, {"type": "Feature", "properties": {"id": "932e61cf-a8f8-4a05-8796-e365bbc9792c", "name": "Tacos La Cuadra", "category": "restaurant", "tags": ["restaurant", "taco"], "sources": ["overture"], "website": "https://lacuadratacos.com", "address": "24602 36th Ave S"}, "geometry": {"type": "Point", "coordinates": [-122.2857513, 47.3813248]}}, {"type": "Feature", "properties": {"id": 624565763, "name": "Tacos M\u00e9xico", "category": "restaurant", "tags": ["restaurant", "mexican", "taco", "latin-american"], "sources": ["osm", "overture"], "phone": "+12535292540", "address": "24608 36th Ave S"}, "geometry": {"type": "Point", "coordinates": [-122.2860455, 47.3810448]}}, {"type": "Feature", "properties": {"id": 633678590, "name": "Tropic Fresh", "category": "restaurant", "tags": ["restaurant"], "sources": ["osm"]}, "geometry": {"type": "Point", "coordinates": [-122.285812, 47.381242]}}, {"type": "Feature", "properties": {"id": "3525890a-4d68-4b87-a058-e6708ef46ea9", "name": "Giovanni's Gourmet Pizza", "category": "restaurant", "tags": ["restaurant", "pizza"], "sources": ["overture"], "website": "http://www.giovannipizza.net", "phone": "(206) 933-5664", "address": "24618 36th Ave S"}, "geometry": {"type": "Point", "coordinates": [-122.2854538, 47.3804665]}}, {"type": "Feature", "properties": {"id": "75d346a5-b64e-44cb-a261-beffa9bdd94b", "name": "PNW Espresso", "category": "cafe", "tags": ["cafe", "coffee"], "sources": ["overture"], "website": "https://www.doordash.com/store/pnw-espresso-kent-1249901/", "phone": "2064292647", "address": "24700 36th Ave S"}, "geometry": {"type": "Point", "coordinates": [-122.2853622, 47.3804092]}}, {"type": "Feature", "properties": {"id": "d422c7fb-ed7e-4439-b952-2236e4038559", "name": "Pizza Mart Kent", "category": "restaurant", "tags": ["restaurant", "pizza"], "sources": ["overture"], "website": "http://apizzamart.org", "phone": "+12539459030", "address": "24618 36th Ave S"}, "geometry": {"type": "Point", "coordinates": [-122.285675, 47.3806267]}}, {"type": "Feature", "properties": {"id": "77ead7a6-9379-4d4e-9409-e3ceb9e330e8", "name": "Asadero Sinaloa", "category": "restaurant", "tags": ["restaurant", "taco"], "sources": ["overture"], "website": "http://asaderoseattle.com", "phone": "(206) 592-2587", "address": "24602"}, "geometry": {"type": "Point", "coordinates": [-122.2859879, 47.3812485]}}, {"type": "Feature", "properties": {"id": "eba9d643-0430-4e42-931f-9e9b48b9bbaa", "name": "West Hill Park", "category": "park", "tags": ["park"], "sources": ["overture"], "address": "Military Rd S"}, "geometry": {"type": "Point", "coordinates": [-122.2866516, 47.3825264]}}, {"type": "Feature", "properties": {"id": 4107754290, "name": "Abraham Hernandez Furniture", "category": "furniture", "tags": ["furniture"], "sources": ["osm"], "hours": "Mo-Su 10:00-20:00"}, "geometry": {"type": "Point", "coordinates": [-122.2855577, 47.3804902]}}, {"type": "Feature", "properties": {"id": 4107754492, "name": "Bombay-Fuji Bazaar", "category": "supermarket", "tags": ["supermarket"], "sources": ["osm"], "hours": "Tu-Sa 10:00-19:00; Su 10:30-18:00; Mo 11:00-19:00"}, "geometry": {"type": "Point", "coordinates": [-122.2855196, 47.3803225]}}, {"type": "Feature", "properties": {"id": 624566627, "name": "West Hill Market", "category": "convenience", "tags": ["convenience", "supermarket"], "sources": ["osm", "overture"], "website": "http://www.agr.wa.gov/", "phone": "+12538396002", "address": "24526 36th Ave S", "hours": "Mo-Fr 07:00-23:00; Sa 08:00-23:00; Su 09:00-22:00"}, "geometry": {"type": "Point", "coordinates": [-122.2859689, 47.3814074]}}, {"type": "Feature", "properties": {"id": "f700aa60-d2c9-4efb-ace6-517291838047", "name": "Bombay Fiji Bazaar", "category": "supermarket", "tags": ["supermarket"], "sources": ["overture"], "website": "https://m.facebook.com/pages/bombay-fiji-bazaar/102494259812252", "phone": "+12538390252", "address": "24700 36th Ave S"}, "geometry": {"type": "Point", "coordinates": [-122.2854996, 47.3802681]}}, {"type": "Feature", "properties": {"id": "3082f52a-426b-4407-adc2-6d94bcc6be14", "name": "Balkh Halal Supermarket", "category": "supermarket", "tags": ["supermarket"], "sources": ["overture"], "phone": "+12066517068", "address": "23700 Military Rd S", "stations": [{"stopCode": 67, "lines": "1", "name": "Star Lake Station", "walkingMeters": 941, "walkingSeconds": 676, "band": 10}]}, "geometry": {"type": "Point", "coordinates": [-122.2861786, 47.3892555]}}, {"type": "Feature", "properties": {"id": "06d2f18f-6579-4808-a93d-cd1434dca15d", "name": "Evergreen Halal Store", "category": "convenience", "tags": ["convenience"], "sources": ["overture"], "phone": "+12066517068", "address": "23700 Military Rd S", "stations": [{"stopCode": 67, "lines": "1", "name": "Star Lake Station", "walkingMeters": 925, "walkingSeconds": 665, "band": 10}]}, "geometry": {"type": "Point", "coordinates": [-122.2863388, 47.3892593]}}]}