{"type": "FeatureCollection", "features": [{"type": "Feature", "properties": {"id": 2462338560, "name": "Starbucks", "category": "cafe", "tags": ["cafe", "coffee-shop", "outdoor-seating", "takeaway", "drive-through", "coffee"], "sources": ["osm", "overture"], "website": "https://www.starbucks.com/store-locator/store/8204/", "phone": "+12064403366", "address": "14330 Lake City Way NE", "hours": "Mo-Fr 04:30-20:00; Sa,Su 05:30-19:00"}, "geometry": {"type": "Point", "coordinates": [-122.2919209, 47.7329136]}}, {"type": "Feature", "properties": {"id": 309955636, "name": "McDonald's", "category": "fast_food", "tags": ["fast-food", "burger", "takeaway", "drive-through", "wifi", "fast", "food"], "sources": ["osm", "overture"], "website": "https://www.mcdonalds.com/us/en-us/location/wa/shoreline/14507-bothell-way-ne/12046.html?cid=RF%3AYXT%3ARoN%3A%3AClicks%3Fcid%3DRF%3AYXT%3AFB%3A%3AClicks", "phone": "+12063659020", "address": "14507 Bothell Way NE", "hours": "07:00-21:00"}, "geometry": {"type": "Point", "coordinates": [-122.292975, 47.7341836]}}, {"type": "Feature", "properties": {"id": 2462453341, "name": "Nasai Teriyaki", "category": "fast_food", "tags": ["fast-food", "restaurant", "japanese", "asian"], "sources": ["osm", "overture"], "website": "http://www.nasaiteriyaki.com", "phone": "+12063680080", "address": "3221 NE 145th St"}, "geometry": {"type": "Point", "coordinates": [-122.2930971, 47.7333866]}}, {"type": "Feature", "properties": {"id": 309955635, "name": "Taco Bell", "category": "fast_food", "tags": ["fast-food", "tex-mex", "takeaway", "fast", "food", "taco", "mexican"], "sources": ["osm", "overture"], "website": "http://www.tacobell.com/", "phone": "+12063674248", "address": "14506 Bothell Way NE"}, "geometry": {"type": "Point", "coordinates": [-122.2920901, 47.7340711]}}, {"type": "Feature", "properties": {"id": "99eeb121-1561-4210-92cc-22bf70b23b57", "name": "The Everest Kitchen", "category": "restaurant", "tags": ["restaurant", "indian"], "sources": ["overture"], "website": "http://www.theeverestkitchen.com", "phone": "(206) 440-0321", "address": "14561 Bothell Way NE"}, "geometry": {"type": "Point", "coordinates": [-122.2928619, 47.7355118]}}, {"type": "Feature", "properties": {"id": 10235960538, "name": "Taqueria Chirris", "category": "fast_food", "tags": ["fast-food", "mexican", "takeaway"], "sources": ["osm"], "phone": "+1-206-676-2502", "address": "14040 Lake City Way Northeast", "hours": "Mo-Sa 11:00-21:30"}, "geometry": {"type": "Point", "coordinates": [-122.2921629, 47.7313451]}}, {"type": "Feature", "properties": {"id": 804717269, "name": "Rooster\u2019s Espresso", "category": "cafe", "tags": ["cafe", "coffee-shop", "takeaway"], "sources": ["osm"], "address": "15032 Bothell Way Northeast"}, "geometry": {"type": "Point", "coordinates": [-122.2901102, 47.73867]}}, {"type": "Feature", "properties": {"id": 403708921, "name": "Flo-Anna's Diner", "category": "restaurant", "tags": ["restaurant", "diner", "american", "greek"], "sources": ["osm", "overture"], "website": "http://www.floannadiner.com/", "phone": "+12063675562", "address": "14707 Bothell Way NE"}, "geometry": {"type": "Point", "coordinates": [-122.2927667, 47.7356944]}}, {"type": "Feature", "properties": {"id": 403710139, "name": "Botteco Brazil Restaurant", "category": "restaurant", "tags": ["restaurant", "brazilian"], "sources": ["osm"], "address": "14561 Bothell Way Northeast"}, "geometry": {"type": "Point", "coordinates": [-122.2928996, 47.7354473]}}, {"type": "Feature", "properties": {"id": 456112304, "name": "Indian Spice Bistro", "category": "restaurant", "tags": ["restaurant", "indian", "chaat", "takeaway", "delivery", "vegetarian"], "sources": ["osm", "overture"], "website": "https://www.indianspicebistro.com/", "phone": "+12068298945", "address": "14553 Bothell Way NE", "hours": "Mo-Su 11:00-22:00"}, "geometry": {"type": "Point", "coordinates": [-122.2928184, 47.7352112]}}, {"type": "Feature", "properties": {"id": "8a24efb3-67ea-4f36-958e-f63663b1d928", "name": "Breadwares by Kaffeeklatsch", "category": "bakery", "tags": ["bakery"], "sources": ["overture"], "website": "http://www.breadwaresnorthwest.com", "phone": "+12068873328", "address": "3217 NE 145th St"}, "geometry": {"type": "Point", "coordinates": [-122.2931137, 47.7333984]}}, {"type": "Feature", "properties": {"id": "0b8ecc31-12fb-4683-a48d-b4a0144d4ab8", "name": "Heaven Sent Chicken", "category": "restaurant", "tags": ["restaurant", "chicken"], "sources": ["overture"], "website": "http://www.ezellschicken.com", "phone": "(206) 363-1167", "address": "14330 Lake City Way NE"}, "geometry": {"type": "Point", "coordinates": [-122.2920609, 47.7327995]}}, {"type": "Feature", "properties": {"id": "fa7b2cfd-223b-40df-8dce-d5634d819dc3", "name": "Brileys BBQ & Grill", "category": "restaurant", "tags": ["restaurant", "barbecue", "bar-and-grill", "american"], "sources": ["overture"], "website": "http://www.brileysbbq.com/", "phone": "+12064661589", "address": "15030 Bothell Way NE"}, "geometry": {"type": "Point", "coordinates": [-122.2901459, 47.7385864]}}, {"type": "Feature", "properties": {"id": "192c9ff5-cc5b-4a41-a451-3ffb5052981a", "name": "New Delhi Restaurant", "category": "restaurant", "tags": ["restaurant", "indian"], "sources": ["overture"], "website": "http://www.newdelhipalacebellevue.com", "phone": "(206) 440-0321", "address": "14561 Bothell Way NE # NE-7605"}, "geometry": {"type": "Point", "coordinates": [-122.2927399, 47.7347336]}}, {"type": "Feature", "properties": {"id": "8111809e-8f3e-4a0c-84ad-c687a439b32c", "name": "Yu Shan", "category": "restaurant", "tags": ["restaurant", "chinese"], "sources": ["overture"], "website": "http://www.yushanchinese.com/", "phone": "(206) 363-5481", "address": "14553 Bothell Way NE"}, "geometry": {"type": "Point", "coordinates": [-122.2928467, 47.7352791]}}, {"type": "Feature", "properties": {"id": "54ca7fd3-0ee2-4a16-9d41-3f05732ddebc", "name": "Boteco Brazil", "category": "restaurant", "tags": ["restaurant", "brazilian"], "sources": ["overture"], "website": "http://www.bottecobrazil.com", "phone": "(206) 466-2445", "address": "14561 Bothell Way NE"}, "geometry": {"type": "Point", "coordinates": [-122.2928619, 47.7355118]}}, {"type": "Feature", "properties": {"id": "e56fb6af-97ac-4ffd-abe1-b042534d5037", "name": "Larb Thai", "category": "restaurant", "tags": ["restaurant", "thai", "asian"], "sources": ["overture"], "website": "http://larbthaiseattle.com/", "phone": "+12066448350", "address": "14561 Bothell Way NE"}, "geometry": {"type": "Point", "coordinates": [-122.2929001, 47.7354355]}}, {"type": "Feature", "properties": {"id": 10200125449, "name": "The Undaunted Spirit", "category": "artwork", "tags": ["artwork"], "sources": ["osm"]}, "geometry": {"type": "Point", "coordinates": [-122.2921973, 47.7320822]}}, {"type": "Feature", "properties": {"id": 1002100847, "name": "Tlinget Street Mural", "category": "artwork", "tags": ["artwork"], "sources": ["osm"]}, "geometry": {"type": "Point", "coordinates": [-122.2937917, 47.7301018]}}, {"type": "Feature", "properties": {"id": "3103fcf7-b85a-407b-8d33-942522ecd098", "name": "Promenade at the Park Apartment Homes", "category": "attraction", "tags": ["attraction", "landmark", "historical", "building"], "sources": ["overture"], "website": "https://www.promenadeatthepark.com/", "phone": "+12063686882", "address": "3215 NE 143rd St"}, "geometry": {"type": "Point", "coordinates": [-122.2932739, 47.731739]}}, {"type": "Feature", "properties": {"id": "e0c3241e-2c0b-4e68-b8b2-3a2e9b606b45", "name": "Tuscany Condominiums", "category": "attraction", "tags": ["attraction", "landmark", "historical", "building"], "sources": ["overture"], "phone": "+12063632277", "address": "14300 32nd Ave NE"}, "geometry": {"type": "Point", "coordinates": [-122.2936401, 47.732132]}}, {"type": "Feature", "properties": {"id": "436e8d10-c508-46ec-b19d-171dad196407", "name": "Array Apartments", "category": "attraction", "tags": ["attraction", "landmark", "historical", "building"], "sources": ["overture"], "website": "https://www.arrayapts.com", "phone": "+12063627729", "address": "14027 Lake City Way NE"}, "geometry": {"type": "Point", "coordinates": [-122.2926636, 47.7316017]}}, {"type": "Feature", "properties": {"id": "b6de1614-05e4-4c0e-9539-139a6a74a41d", "name": "Watercrest", "category": "attraction", "tags": ["attraction", "landmark", "historical", "building"], "sources": ["overture"], "website": "https://washington.weidner.com/apartments/wa/lake-forest-park/watercrest-1/index.aspx?rcstdid=MTE%3D-aKFOxiSL8lQ%3D", "phone": "+12067095456", "address": "14812 Bothell Way NE"}, "geometry": {"type": "Point", "coordinates": [-122.2912292, 47.7371178]}}, {"type": "Feature", "properties": {"id": "6ce2da25-5823-41c3-8284-0493f851b1cb", "name": "3030 Lake City Apartments", "category": "attraction", "tags": ["attraction", "landmark", "historical", "building"], "sources": ["overture"], "website": "http://www.3030lakecity.com/", "phone": "+18338068799", "address": "3030 NE 143rd St"}, "geometry": {"type": "Point", "coordinates": [-122.2948685, 47.7322235]}}, {"type": "Feature", "properties": {"id": "84c7b852-ab97-4793-9c0c-46154de0a7e3", "name": "Hillcourt Apartments", "category": "attraction", "tags": ["attraction", "landmark", "historical", "building"], "sources": ["overture"], "website": "http://www.dlorentals.com", "phone": "+12069477700", "address": "3022 NE 140th St"}, "geometry": {"type": "Point", "coordinates": [-122.2954865, 47.7307205]}}, {"type": "Feature", "properties": {"id": 56393779, "name": "Little Brook Park", "category": "park", "tags": ["park", "playground"], "sources": ["osm", "overture"], "website": "http://seattle.gov/parks/park_detail.asp?ID=297", "phone": "+12066844075", "address": "14043 32nd Ave NE"}, "geometry": {"type": "Point", "coordinates": [-122.294564, 47.7313822]}}, {"type": "Feature", "properties": {"id": "b0e35db6-84ae-424f-bdbc-ea1e77f0cf92", "name": "Gasworks Park", "category": "park", "tags": ["park"], "sources": ["overture"], "address": "90 N Th St"}, "geometry": {"type": "Point", "coordinates": [-122.2927017, 47.7312088]}}, {"type": "Feature", "properties": {"id": "2af00215-4d13-410f-acd1-f0dba5794374", "name": "7-Eleven", "category": "convenience", "tags": ["convenience"], "sources": ["overture"], "website": "https://www.7-eleven.com/locations/wa/seattle/3227-ne-145th-street-26842", "phone": "2063622871", "address": "3227 NE 145th St"}, "geometry": {"type": "Point", "coordinates": [-122.2927704, 47.7333298]}}, {"type": "Feature", "properties": {"id": "edaf312c-e541-49a9-8124-980383a07b1b", "name": "Have a Heart", "category": "cannabis", "tags": ["cannabis", "clinic"], "sources": ["overture"], "website": "https://haveaheartcc.com/dispensaries/wa/lake-forest-park/", "phone": "+12065821010", "address": "15029 Bothell Way NE"}, "geometry": {"type": "Point", "coordinates": [-122.2906647, 47.7389832]}}, {"type": "Feature", "properties": {"id": 2462453342, "name": "Mary's Smoke Shop", "category": "tobacco", "tags": ["tobacco"], "sources": ["osm"], "address": "3223 Northeast 145th Street"}, "geometry": {"type": "Point", "coordinates": [-122.292963, 47.733374]}}, {"type": "Feature", "properties": {"id": 8407068233, "name": "Zakk's Smoke and Vape", "category": "tobacco", "tags": ["tobacco"], "sources": ["osm", "overture"], "website": "https://www.lakeforestparksmokeshop.com/", "phone": "2065390262", "address": "15009 Bothell Way NE"}, "geometry": {"type": "Point", "coordinates": [-122.2909545, 47.7385894]}}, {"type": "Feature", "properties": {"id": 905285658, "name": "Mr Green's Cannabis", "category": "cannabis", "tags": ["cannabis", "clinic"], "sources": ["osm", "overture"], "website": "http://www.mrgreens.com/", "phone": "+12065821010", "address": "15029 Bothell Way NE"}, "geometry": {"type": "Point", "coordinates": [-122.2906913, 47.7389948]}}, {"type": "Feature", "properties": {"id": "fe366b71-bc06-4f95-a760-4da5255d80c4", "name": "Tienda Mexicana Los Plebes de Rancho", "category": "supermarket", "tags": ["supermarket"], "sources": ["overture"], "phone": "+12064836011", "address": "3227 NE 145th St"}, "geometry": {"type": "Point", "coordinates": [-122.2927856, 47.7334557]}}, {"type": "Feature", "properties": {"id": "46c69a12-cb56-4e84-b51c-9c49dc6dc0bd", "name": "Zakk's Smoke and Beverages", "category": "tobacco", "tags": ["tobacco"], "sources": ["overture"], "website": "https://smokeshoplakeforestpark.com/", "phone": "+12069007936", "address": "15009 Bothell Way NE"}, "geometry": {"type": "Point", "coordinates": [-122.2907715, 47.7385712]}}, {"type": "Feature", "properties": {"id": "83614252-b1ed-4295-9e1d-873c68cc4562", "name": "Walgreens", "category": "pharmacy", "tags": ["pharmacy"], "sources": ["overture"], "website": "https://www.walgreens.com/locator/walgreens-14352+lake+city+way+ne-seattle-wa-98125/id=3582", "phone": "(206) 361-9753", "address": "14352 Lake City Way NE"}, "geometry": {"type": "Point", "coordinates": [-122.2920914, 47.733532]}}, {"type": "Feature", "properties": {"id": 309955633, "name": "Northwest Kidney Center", "category": "clinic", "tags": ["clinic"], "sources": ["osm"], "website": "https://www.nwkidney.org/", "address": "14524 Bothell Way Northeast"}, "geometry": {"type": "Point", "coordinates": [-122.2919706, 47.7345992]}}, {"type": "Feature", "properties": {"id": "b2e82953-b84c-4262-aeb2-5db06a83196c", "name": "Swedish Express Care at Walgreens - Lake Forest Park", "category": "hospital", "tags": ["hospital"], "sources": ["overture"], "website": "https://www.swedish.org/locations/swedish-express-care-at-walgreens-lake-forest-park#ylaid=7079", "phone": "(888) 227-3312", "address": "14352 Lake City Way NE"}, "geometry": {"type": "Point", "coordinates": [-122.2920914, 47.733532]}}, {"type": "Feature", "properties": {"id": "5aee3552-0cb3-439f-893a-5a537f6e206f", "name": "Out of Bounds CrossFit", "category": "fitness_centre", "tags": ["fitness-centre", "gym"], "sources": ["overture"], "phone": "(206) 427-2899", "address": "14712 Bothell Way NE"}, "geometry": {"type": "Point", "coordinates": [-122.2920151, 47.7359657]}}]}