{"type": "FeatureCollection", "features": [{"type": "Feature", "properties": {"id": 506152612, "name": "Taco Bell", "category": "fast_food", "tags": ["fast-food", "tex-mex", "takeaway", "drive-through", "fast", "food", "taco", "mexican"], "sources": ["osm", "overture"], "website": "http://www.tacobell.com/", "phone": "+14257120311", "address": "4919 196th St SW", "hours": "Mo-Su 19:00-03:00", "stations": [{"stopCode": 40, "lines": "1,2", "name": "Lynnwood City Center Station", "walkingMeters": 1082, "walkingSeconds": 780, "band": 15}]}, "geometry": {"type": "Point", "coordinates": [-122.3001027, 47.8214546]}}, {"type": "Feature", "properties": {"id": 351763802, "name": "Wendy's", "category": "fast_food", "tags": ["fast-food", "burger", "takeaway", "drive-through", "wifi", "fast", "food", "american"], "sources": ["osm", "overture"], "website": "https://locations.wendys.com/united-states/wa/lynnwood/5117-196th-sw", "phone": "+14257750044", "address": "5117 196th St SW", "hours": "Mo-Fr 06:00-10:30; Sa 06:00-10:30; Su 06:00-10:30", "stations": [{"stopCode": 40, "lines": "1,2", "name": "Lynnwood City Center Station", "walkingMeters": 1303, "walkingSeconds": 939, "band": 15}]}, "geometry": {"type": "Point", "coordinates": [-122.3028018, 47.8214755]}}, {"type": "Feature", "properties": {"id": 11149179559, "name": "Fuji Japanese Steakhouse", "category": "restaurant", "tags": ["restaurant", "japanese", "wheelchair-accessible"], "sources": ["osm"], "phone": "+1-425-361-7574", "address": "5621 196th Street Southwest"}, "geometry": {"type": "Point", "coordinates": [-122.3097734, 47.8215296]}}, {"type": "Feature", "properties": {"id": "6f9cdb4e-a235-4494-9987-7f2dd7193a2e", "name": "Todo Mexico", "category": "restaurant", "tags": ["restaurant", "mexican", "latin-american", "texmex"], "sources": ["overture"], "website": "http://todomexicorestaurants.com/", "phone": "+14257782180", "address": "4926 196th St SW", "stations": [{"stopCode": 40, "lines": "1,2", "name": "Lynnwood City Center Station", "walkingMeters": 1028, "walkingSeconds": 739, "band": 15}]}, "geometry": {"type": "Point", "coordinates": [-122.3002243, 47.8206558]}}, {"type": "Feature", "properties": {"id": "a06385a3-bdaa-4821-a656-93c67c938d6f", "name": "Fuji Teppanyaki & Sushi", "category": "restaurant", "tags": ["restaurant", "japanese", "sushi"], "sources": ["overture"], "website": "http://www.FujiSteakHouseLynnwood.com/", "phone": "+14253617574", "address": "5621 196th St SW"}, "geometry": {"type": "Point", "coordinates": [-122.3096695, 47.8215904]}}, {"type": "Feature", "properties": {"id": "6cdda6b8-399e-4385-b8f0-502e6256d3ae", "name": "Susumu Japanese Steakhouse", "category": "restaurant", "tags": ["restaurant", "steakhouse"], "sources": ["overture"], "website": "http://www.susumu-steakhouse.com", "phone": "(425) 670-0176", "address": "5621 196th St SW"}, "geometry": {"type": "Point", "coordinates": [-122.3097305, 47.8216553]}}, {"type": "Feature", "properties": {"id": "b8be4417-b855-44db-a17e-f4bb14f8bced", "name": "Espresso Buono", "category": "cafe", "tags": ["cafe", "coffee"], "sources": ["overture"], "website": "http://espressobuono.com/", "phone": "(425) 774-1338", "address": "5106 196th St SW", "stations": [{"stopCode": 40, "lines": "1,2", "name": "Lynnwood City Center Station", "walkingMeters": 1161, "walkingSeconds": 834, "band": 15}]}, "geometry": {"type": "Point", "coordinates": [-122.3022156, 47.8207703]}}, {"type": "Feature", "properties": {"id": "d3db2ef2-85bb-4750-b9b4-bffcbbaffbce", "name": "Zulu's - Lynnwood", "category": "cafe", "tags": ["cafe"], "sources": ["overture"], "website": "https://www.zuluslynnwood.com/", "phone": "+14259216932", "address": "5116 196th St SW", "stations": [{"stopCode": 40, "lines": "1,2", "name": "Lynnwood City Center Station", "walkingMeters": 1208, "walkingSeconds": 868, "band": 15}]}, "geometry": {"type": "Point", "coordinates": [-122.3025742, 47.8207054]}}, {"type": "Feature", "properties": {"id": 231156814, "name": "Scriber Lake Park", "category": "park", "tags": ["park"], "sources": ["osm"]}, "geometry": {"type": "Point", "coordinates": [-122.3065962, 47.8201787]}}, {"type": "Feature", "properties": {"id": 231156815, "name": "Wilcox Park", "category": "park", "tags": ["park"], "sources": ["osm"]}, "geometry": {"type": "Point", "coordinates": [-122.3055312, 47.8227642]}}, {"type": "Feature", "properties": {"id": "3157877e-0b8e-40cd-8241-1403fa975a82", "name": "Wilcox Park", "category": "park", "tags": ["park"], "sources": ["overture"], "website": "https://www.lynnwoodwa.gov/Community/Play-Lynnwood/Parks-Trails-and-Open-Space/Wilcox-Park", "phone": "+14256705000", "address": "5215 196th St SW"}, "geometry": {"type": "Point", "coordinates": [-122.3045807, 47.822216]}}, {"type": "Feature", "properties": {"id": "2d2cc221-eadc-4112-afd7-881710863bdf", "name": "Brookwood Park South, Lynnwood, Washington", "category": "park", "tags": ["park"], "sources": ["overture"]}, "geometry": {"type": "Point", "coordinates": [-122.3044205, 47.8232346]}}, {"type": "Feature", "properties": {"id": "f08d8c42-0e69-4051-b27e-6c61b100301d", "name": "Scriber Lake", "category": "park", "tags": ["park"], "sources": ["overture"], "website": "http://www.lynnwoodwa.gov/PlayLynnwood/Parks/Scriber-Lake-Park.htm"}, "geometry": {"type": "Point", "coordinates": [-122.3077316, 47.8205032]}}, {"type": "Feature", "properties": {"id": 1203418478, "name": "Hotel International", "category": "hotel", "tags": ["hotel", "wheelchair-accessible"], "sources": ["osm", "overture"], "website": "http://www.lynnwoodhotelinternational.com", "phone": "+14257711777", "address": "5621 196th St SW"}, "geometry": {"type": "Point", "coordinates": [-122.3096772, 47.8217997]}}, {"type": "Feature", "properties": {"id": 351005944, "name": "7-Eleven", "category": "convenience", "tags": ["convenience"], "sources": ["osm", "overture"], "website": "https://www.7-eleven.com/locations/wa/lynnwood/18733-highway-99-16991", "phone": "4256975771", "address": "18733 Highway 99"}, "geometry": {"type": "Point", "coordinates": [-122.3080281, 47.8286441]}}, {"type": "Feature", "properties": {"id": "7dfdc255-8d64-4883-9efe-539d51246027", "name": "Uni Wireless", "category": "mobile_phone", "tags": ["mobile-phone", "mobile"], "sources": ["overture"], "website": "http://intercomws.com/", "phone": "+14256974886", "address": "19505 52nd Ave W", "stations": [{"stopCode": 40, "lines": "1,2", "name": "Lynnwood City Center Station", "walkingMeters": 1294, "walkingSeconds": 932, "band": 15}]}, "geometry": {"type": "Point", "coordinates": [-122.3026276, 47.8219032]}}, {"type": "Feature", "properties": {"id": "708f8d83-ce16-44d3-ab7a-52ec3bd62421", "name": "Goodwill", "category": "variety_store", "tags": ["variety-store", "discount"], "sources": ["overture"], "website": "https://www.goodwill.org/", "phone": "+14257746157", "address": "19505 52nd Ave W", "stations": [{"stopCode": 40, "lines": "1,2", "name": "Lynnwood City Center Station", "walkingMeters": 1309, "walkingSeconds": 943, "band": 15}]}, "geometry": {"type": "Point", "coordinates": [-122.3028412, 47.8218498]}}, {"type": "Feature", "properties": {"id": "6ce46ec7-2b8b-4a34-83c3-e72f68f0167e", "name": "Biringer's Berry Barn", "category": "supermarket", "tags": ["supermarket"], "sources": ["overture"], "address": "19600 50th Ave W", "stations": [{"stopCode": 40, "lines": "1,2", "name": "Lynnwood City Center Station", "walkingMeters": 1058, "walkingSeconds": 760, "band": 15}]}, "geometry": {"type": "Point", "coordinates": [-122.300621, 47.8208466]}}, {"type": "Feature", "properties": {"id": "9b6744e6-9e9d-4970-adbc-5e84c271950f", "name": "Animal Hospital of Lynnwood", "category": "clinic", "tags": ["clinic", "medical"], "sources": ["overture"], "website": "http://www.holistic-pet-care.com/", "phone": "4257716300", "address": "19503 56th Ave W"}, "geometry": {"type": "Point", "coordinates": [-122.307991, 47.8219376]}}, {"type": "Feature", "properties": {"id": "2069905e-18ce-47c5-b8a1-7aa1944d8102", "name": "Animal Hospital", "category": "clinic", "tags": ["clinic", "medical"], "sources": ["overture"], "phone": "4259548861", "address": "19503 56th Ave W"}, "geometry": {"type": "Point", "coordinates": [-122.3082962, 47.8221054]}}, {"type": "Feature", "properties": {"id": "3824a27a-d4c5-4644-9e63-115f4c778469", "name": "Resolute Fitness", "category": "fitness_centre", "tags": ["fitness-centre", "gym"], "sources": ["overture"], "website": "http://www.lynnwoodresolute.com", "phone": "(425) 224-5494", "address": "18933 Highway 99"}, "geometry": {"type": "Point", "coordinates": [-122.3099976, 47.8266258]}}]}