{"type": "FeatureCollection", "features": [{"type": "Feature", "properties": {"id": 10690035300, "name": "Copperleaf Restaurant", "category": "restaurant", "tags": ["restaurant"], "sources": ["osm"], "phone": "+1-206-901-9268", "address": "18525 36th Avenue South"}, "geometry": {"type": "Point", "coordinates": [-122.2877014, 47.437472]}}, {"type": "Feature", "properties": {"id": "91b57f6f-b39e-4d5f-b5ea-ca9d46de99b6", "name": "Copperleaf Restaurant and Bar", "category": "restaurant", "tags": ["restaurant", "american"], "sources": ["overture"], "website": "http://www.cedarbrooklodge.com", "phone": "+12062144282", "address": "18525 36th Ave S"}, "geometry": {"type": "Point", "coordinates": [-122.2875214, 47.4371758]}}, {"type": "Feature", "properties": {"id": "e645acbb-7358-4777-a1ab-aa03fa6f6e31", "name": "Pacific Ocean", "category": "attraction", "tags": ["attraction", "landmark", "historical", "building"], "sources": ["overture"]}, "geometry": {"type": "Point", "coordinates": [-122.2878952, 47.4369926]}}, {"type": "Feature", "properties": {"id": 647214562, "name": "Cedarbrook Lodge", "category": "hotel", "tags": ["hotel"], "sources": ["osm"], "website": "https://www.cedarbrooklodge.com/en-us/", "phone": "+1-206-901-9268;+1-877-515-2176", "address": "18525 36th Avenue South"}, "geometry": {"type": "Point", "coordinates": [-122.2876565, 47.4373967]}}, {"type": "Feature", "properties": {"id": "40807688-c094-495d-9445-1dd6b32861bd", "name": "Total Wine & More", "category": "alcohol", "tags": ["alcohol"], "sources": ["overture"], "website": "https://www.totalwine.com", "phone": "(206) 575-6280", "address": "2701 S 184TH St"}, "geometry": {"type": "Point", "coordinates": [-122.2892532, 47.4381599]}}, {"type": "Feature", "properties": {"id": "9dcaca43-954d-42cd-8cd5-bdb56c2fe114", "name": "HealthPoint SeaTac Pharmacy", "category": "pharmacy", "tags": ["pharmacy", "health-food"], "sources": ["overture"], "website": "http://www.healthpointchc.org", "phone": "+18772330246", "address": "4040 S 188th St"}, "geometry": {"type": "Point", "coordinates": [-122.282486, 47.4347649]}}, {"type": "Feature", "properties": {"id": "8056e1ee-d965-46d4-a669-104e2f46d983", "name": "YMCA", "category": "fitness_centre", "tags": ["fitness-centre", "gym"], "sources": ["overture"], "website": "http://www.ymca.net", "phone": "(206) 244-5880", "address": "3595 S 188th St"}, "geometry": {"type": "Point", "coordinates": [-122.2882233, 47.433754]}}, {"type": "Feature", "properties": {"id": 647239368, "name": "Matt Griffin YMCA", "category": "sports_centre", "tags": ["sports-centre"], "sources": ["osm"], "address": "3595 South 188th Street"}, "geometry": {"type": "Point", "coordinates": [-122.2882835, 47.4337355]}}]}