{"type": "FeatureCollection", "features": [{"type": "Feature", "properties": {"id": 331261305, "name": "Queen Bee", "category": "cafe", "tags": ["cafe", "coffee-shop", "vegetarian"], "sources": ["osm"], "address": "8805 Points Drive Northeast"}, "geometry": {"type": "Point", "coordinates": [-122.2221892, 47.6357492]}}, {"type": "Feature", "properties": {"id": "3866ad75-cb00-45ed-a45e-5015389bd91f", "name": "Tully's Coffee", "category": "cafe", "tags": ["cafe", "coffee"], "sources": ["overture"], "website": "http://tullyscoffeeshops.com", "phone": "(425) 456-0724", "address": "8805 Points Dr NE"}, "geometry": {"type": "Point", "coordinates": [-122.2223587, 47.6358871]}}, {"type": "Feature", "properties": {"id": "7f59cf35-2e8d-4511-876a-615e888c3933", "name": "Queen Bee Cafe", "category": "cafe", "tags": ["cafe"], "sources": ["overture"], "website": "https://www.queenbeecafe.com", "phone": "+14253626178", "address": "8805 Points Dr NE"}, "geometry": {"type": "Point", "coordinates": [-122.2224197, 47.6357651]}}, {"type": "Feature", "properties": {"id": "f2312c9c-a894-465f-87df-9f39a33c67fc", "name": "Town of Hunts Point", "category": "attraction", "tags": ["attraction", "landmark", "historical", "building"], "sources": ["overture"], "website": "http://www.huntspoint-wa.gov", "phone": "+14254551834", "address": "3000 Hunts Point Rd"}, "geometry": {"type": "Point", "coordinates": [-122.227211, 47.6373024]}}, {"type": "Feature", "properties": {"id": 419546349, "name": "Hunts Point Playfield", "category": "park", "tags": ["park"], "sources": ["osm"]}, "geometry": {"type": "Point", "coordinates": [-122.2257643, 47.63709]}}, {"type": "Feature", "properties": {"id": 422278032, "name": "D. K. McDonald Park", "category": "park", "tags": ["park"], "sources": ["osm"]}, "geometry": {"type": "Point", "coordinates": [-122.2271769, 47.6370823]}}, {"type": "Feature", "properties": {"id": "9488bb45-600d-46df-93c6-9cfb34bc9be5", "name": "Circle K", "category": "convenience", "tags": ["convenience"], "sources": ["overture"], "website": "http://www.circlek.com", "phone": "(425) 454-3749", "address": "2724 84th Ave NE"}, "geometry": {"type": "Point", "coordinates": [-122.2276154, 47.6353035]}}, {"type": "Feature", "properties": {"id": "ae722b3b-263d-4c1c-873f-adabb7966ae1", "name": "Rocket", "category": "convenience", "tags": ["convenience"], "sources": ["overture"], "website": "https://rocketstores.com/", "phone": "+14254543749", "address": "2724 84th Ave NE"}, "geometry": {"type": "Point", "coordinates": [-122.2276611, 47.6352463]}}]}