{"type": "FeatureCollection", "features": [{"type": "Feature", "properties": {"id": 4907698350, "name": "Subway", "category": "fast_food", "tags": ["fast-food", "sandwich", "takeaway", "restaurant"], "sources": ["osm", "overture"], "website": "http://www.subway.com/en-us", "phone": "+12068484847", "address": "18613 International Blvd", "hours": "09:00-01:30", "stations": [{"stopCode": 64, "lines": "1", "name": "Airport / SeaTac Station", "walkingMeters": 1142, "walkingSeconds": 828, "band": 15}]}, "geometry": {"type": "Point", "coordinates": [-122.2959788, 47.4368552]}}, {"type": "Feature", "properties": {"id": 1636375814, "name": "Starbucks", "category": "cafe", "tags": ["cafe", "coffee-shop", "takeaway", "coffee"], "sources": ["osm", "overture"], "website": "http://www.starbucks.com", "address": "18740 International Blvd"}, "geometry": {"type": "Point", "coordinates": [-122.2941474, 47.4356152]}}, {"type": "Feature", "properties": {"id": 1636375816, "name": "SeaPort Restaurant", "category": "restaurant", "tags": ["restaurant"], "sources": ["osm"]}, "geometry": {"type": "Point", "coordinates": [-122.2940777, 47.4355771]}}, {"type": "Feature", "properties": {"id": 1636375830, "name": "SeaPort Lounge", "category": "bar", "tags": ["bar"], "sources": ["osm"]}, "geometry": {"type": "Point", "coordinates": [-122.2939891, 47.4355989]}}, {"type": "Feature", "properties": {"id": 276667063, "name": "Taco Bell", "category": "fast_food", "tags": ["fast-food", "tex-mex", "takeaway", "fast", "food", "taco", "mexican"], "sources": ["osm", "overture"], "website": "http://www.tacobell.com/", "phone": "+12062438171", "address": "18812 International Blvd", "hours": "We-Mo 07:00-03:00, Tu 07:00-23:00"}, "geometry": {"type": "Point", "coordinates": [-122.29506, 47.43422]}}, {"type": "Feature", "properties": {"id": 3209330684, "name": "Mango Thai", "category": "restaurant", "tags": ["restaurant", "thai"], "sources": ["osm"], "website": "https://www.mangoseattle.com/", "phone": "+1-206-243-1888", "address": "18613 International Boulevard", "stations": [{"stopCode": 64, "lines": "1", "name": "Airport / SeaTac Station", "walkingMeters": 1204, "walkingSeconds": 873, "band": 15}]}, "geometry": {"type": "Point", "coordinates": [-122.295961, 47.4362917]}}, {"type": "Feature", "properties": {"id": 3643223206, "name": "Mountain Room Bar", "category": "pub", "tags": ["pub", "bar", "american"], "sources": ["osm", "overture"], "website": "http://www.seatacshops.com/merchants/concourse-a/mountain-room-bar/", "phone": "+12064445545", "address": "17801 International Blvd"}, "geometry": {"type": "Point", "coordinates": [-122.2975199, 47.4387744]}}, {"type": "Feature", "properties": {"id": 8008332116, "name": "L&L Hawaiian Barbecue", "category": "fast_food", "tags": ["fast-food", "hawaiian", "takeaway", "restaurant", "barbecue"], "sources": ["osm", "overture"], "website": "https://www.hawaiianbarbecue.com/locations/seatac/", "phone": "+12064329646", "address": "18613 International Blvd", "stations": [{"stopCode": 64, "lines": "1", "name": "Airport / SeaTac Station", "walkingMeters": 1160, "walkingSeconds": 841, "band": 15}]}, "geometry": {"type": "Point", "coordinates": [-122.295993, 47.436692]}}, {"type": "Feature", "properties": {"id": 3781524976, "name": "Masae's Teriyaki", "category": "restaurant", "tags": ["restaurant", "asian", "japanese"], "sources": ["osm", "overture"], "website": "https://masae-s-teriyaki.hub.biz", "phone": "+12062416231", "address": "19021 International Blvd", "stations": [{"stopCode": 65, "lines": "1", "name": "Angle Lake Station", "walkingMeters": 1169, "walkingSeconds": 844, "band": 15}]}, "geometry": {"type": "Point", "coordinates": [-122.295858, 47.4324006]}}, {"type": "Feature", "properties": {"id": 5164278022, "name": "The Club at SEA", "category": "bar", "tags": ["bar", "american", "wifi"], "sources": ["osm"], "hours": "05:00-24:00"}, "geometry": {"type": "Point", "coordinates": [-122.2975053, 47.4390585]}}, {"type": "Feature", "properties": {"id": 10690035299, "name": "Aloft XYZ Bar", "category": "bar", "tags": ["bar"], "sources": ["osm"], "phone": "+1-206-241-0260", "address": "19030 International Boulevard", "hours": "05:00-22:00", "stations": [{"stopCode": 65, "lines": "1", "name": "Angle Lake Station", "walkingMeters": 1096, "walkingSeconds": 792, "band": 15}]}, "geometry": {"type": "Point", "coordinates": [-122.2975528, 47.4321597]}}, {"type": "Feature", "properties": {"id": 276667048, "name": "Jack in the Box", "category": "fast_food", "tags": ["fast-food", "burger", "indoor-seating", "takeaway", "drive-through", "wheelchair-accessible", "air-conditioned", "fast", "food"], "sources": ["osm", "overture"], "website": "https://www.jackinthebox.com", "phone": "+12062446293", "address": "2840 S 188th St", "hours": "24/7"}, "geometry": {"type": "Point", "coordinates": [-122.2962014, 47.4349674]}}, {"type": "Feature", "properties": {"id": 314940623, "name": "Denny's", "category": "restaurant", "tags": ["restaurant", "american", "indoor-seating", "wheelchair-accessible", "vegetarian"], "sources": ["osm"], "phone": "+1-206-248-1558", "address": "18623 International Boulevard", "hours": "24/7"}, "geometry": {"type": "Point", "coordinates": [-122.296301, 47.4356828]}}, {"type": "Feature", "properties": {"id": 150750085, "name": "Sharps Roasthouse", "category": "restaurant", "tags": ["restaurant", "barbecue", "outdoor-seating", "wifi", "american"], "sources": ["osm", "overture"], "website": "https://www.sharpsroasthouse.com/", "phone": "+12062415744", "address": "18427 International Blvd", "hours": "Mo-Fr 11:00-00:00, Sa-Su 11:00-00:00", "stations": [{"stopCode": 64, "lines": "1", "name": "Airport / SeaTac Station", "walkingMeters": 1107, "walkingSeconds": 799, "band": 15}]}, "geometry": {"type": "Point", "coordinates": [-122.2961254, 47.4371937]}}, {"type": "Feature", "properties": {"id": "2a0851ab-2945-44cb-babf-fe08feafede1", "name": "Krispy Krunchy Chicken", "category": "restaurant", "tags": ["restaurant", "chicken"], "sources": ["overture"], "website": "https://locations.krispykrunchy.com/wa/seatac/2841-s-188th-st", "phone": "2062448610", "address": "2841 S 188th St"}, "geometry": {"type": "Point", "coordinates": [-122.296196, 47.4344749]}}, {"type": "Feature", "properties": {"id": "5396447b-cc2e-4f20-89b0-c521b50a502d", "name": "Banda Burrito", "category": "restaurant", "tags": ["restaurant", "mexican"], "sources": ["overture"], "website": "https://www.bandaburrito.com/", "phone": "+12062481558", "address": "18623 Pacific Hwy South"}, "geometry": {"type": "Point", "coordinates": [-122.2963791, 47.4356995]}}, {"type": "Feature", "properties": {"id": "321b5cab-258f-4770-b333-38231d2e6967", "name": "Denny's Restaurant", "category": "restaurant", "tags": ["restaurant"], "sources": ["overture"], "website": "https://www.dennys.com/", "phone": "+12062481558", "address": "18623 Pacific Hwy South"}, "geometry": {"type": "Point", "coordinates": [-122.2963791, 47.4356995]}}, {"type": "Feature", "properties": {"id": "6fe790f9-6674-481a-8364-e71b981f18d6", "name": "The Meltdown", "category": "restaurant", "tags": ["restaurant"], "sources": ["overture"], "website": "https://themeltdown.com/", "phone": "+12062481558", "address": "18623 Pacific Hwy South"}, "geometry": {"type": "Point", "coordinates": [-122.2963486, 47.4356766]}}, {"type": "Feature", "properties": {"id": "e7912ee5-6faa-4a8e-b445-dc951fff3b21", "name": "Wakey Wakey Coffee", "category": "cafe", "tags": ["cafe", "coffee"], "sources": ["overture"], "address": "3223 S 182nd St", "stations": [{"stopCode": 64, "lines": "1", "name": "Airport / SeaTac Station", "walkingMeters": 936, "walkingSeconds": 675, "band": 15}]}, "geometry": {"type": "Point", "coordinates": [-122.2909851, 47.4397697]}}, {"type": "Feature", "properties": {"id": "7d08110c-58a4-4cd6-acef-18ea0cdf4073", "name": "New Trend Marketing Group LLC", "category": "cafe", "tags": ["cafe", "coffee"], "sources": ["overture"], "website": "http://www.vinacafeusa.com/", "phone": "2064408288", "address": "19019 International Blvd", "stations": [{"stopCode": 65, "lines": "1", "name": "Angle Lake Station", "walkingMeters": 1176, "walkingSeconds": 849, "band": 15}]}, "geometry": {"type": "Point", "coordinates": [-122.2958374, 47.4324989]}}, {"type": "Feature", "properties": {"id": "72b97854-db89-4400-943d-ed69b46affe9", "name": "Mango Thai Cuisine & Bar", "category": "restaurant", "tags": ["restaurant", "thai", "asian"], "sources": ["overture"], "website": "http://www.mangoseattle.com/", "phone": "+12062431888", "address": "18613 International Blvd", "stations": [{"stopCode": 64, "lines": "1", "name": "Airport / SeaTac Station", "walkingMeters": 1208, "walkingSeconds": 876, "band": 15}]}, "geometry": {"type": "Point", "coordinates": [-122.2958908, 47.436264]}}, {"type": "Feature", "properties": {"id": "29e97cd1-7c6a-4d56-a0fb-e5bc4f6b7c7b", "name": "Coffee Garden", "category": "restaurant", "tags": ["restaurant", "chinese", "fast-food"], "sources": ["overture"], "phone": "+12062468600", "address": "18740 International Blvd"}, "geometry": {"type": "Point", "coordinates": [-122.2944031, 47.4357452]}}, {"type": "Feature", "properties": {"id": "b05fa834-dbd5-4834-aa77-beaa7cad83be", "name": "Dave's Diner and Brew", "category": "restaurant", "tags": ["restaurant", "diner"], "sources": ["overture"], "website": "http://www.davesdiner.us", "phone": "(206) 277-7196", "address": "2825 S 188th St"}, "geometry": {"type": "Point", "coordinates": [-122.2964478, 47.4343987]}}, {"type": "Feature", "properties": {"id": "643a7c22-842e-4df3-a28b-9cb156090276", "name": "Tully's", "category": "cafe", "tags": ["cafe", "coffee"], "sources": ["overture"], "website": "http://www.tullys.com", "phone": "(206) 248-8185", "address": "18220 International Blvd", "stations": [{"stopCode": 64, "lines": "1", "name": "Airport / SeaTac Station", "walkingMeters": 871, "walkingSeconds": 627, "band": 10}]}, "geometry": {"type": "Point", "coordinates": [-122.2955246, 47.4396935]}}, {"type": "Feature", "properties": {"id": "a7547b68-86c2-492c-b63a-9752110f9e0d", "name": "Gregory's Bar & Grill", "category": "restaurant", "tags": ["restaurant", "american"], "sources": ["overture"], "phone": "(206) 246-5535", "address": "18220 International Blvd", "stations": [{"stopCode": 64, "lines": "1", "name": "Airport / SeaTac Station", "walkingMeters": 869, "walkingSeconds": 626, "band": 15}]}, "geometry": {"type": "Point", "coordinates": [-122.2952652, 47.4396782]}}, {"type": "Feature", "properties": {"id": 3643290937, "name": "cloudsandclunkers", "category": "artwork", "tags": ["artwork"], "sources": ["osm"], "stations": [{"stopCode": 64, "lines": "1", "name": "Airport / SeaTac Station", "walkingMeters": 1020, "walkingSeconds": 734, "band": 15}]}, "geometry": {"type": "Point", "coordinates": [-122.2978078, 47.4398759]}}, {"type": "Feature", "properties": {"id": 5164278023, "name": "Pantopol V", "category": "artwork", "tags": ["artwork"], "sources": ["osm"]}, "geometry": {"type": "Point", "coordinates": [-122.2977174, 47.4388513]}}, {"type": "Feature", "properties": {"id": "8da084e3-18b5-4a52-990d-c516dcc16e22", "name": "Wally Park", "category": "park", "tags": ["park"], "sources": ["overture"], "website": "https://www.wallypark.com/seattle", "phone": "+12064559611", "address": "18613 International Blvd", "stations": [{"stopCode": 64, "lines": "1", "name": "Airport / SeaTac Station", "walkingMeters": 1232, "walkingSeconds": 893, "band": 15}]}, "geometry": {"type": "Point", "coordinates": [-122.2959976, 47.4360428]}}, {"type": "Feature", "properties": {"id": "38de4050-4ff7-4dcc-9fc0-251500f92fee", "name": "Aloft", "category": "hotel", "tags": ["hotel"], "sources": ["overture"], "website": "https://www.marriott.com/hotels/travel/seaal-aloft-seattle-sea-tac-airport/", "phone": "+12062410260", "address": "19030 28th Ave S", "stations": [{"stopCode": 65, "lines": "1", "name": "Angle Lake Station", "walkingMeters": 1162, "walkingSeconds": 839, "band": 15}]}, "geometry": {"type": "Point", "coordinates": [-122.2972183, 47.4322243]}}, {"type": "Feature", "properties": {"id": 348004783, "name": "Coast Gateway Hotel", "category": "hotel", "tags": ["hotel", "dog-friendly", "wifi"], "sources": ["osm", "overture"], "website": "https://www.coasthotels.com", "phone": "+12062488200", "address": "18415 International Blvd", "stations": [{"stopCode": 64, "lines": "1", "name": "Airport / SeaTac Station", "walkingMeters": 1104, "walkingSeconds": 797, "band": 15}]}, "geometry": {"type": "Point", "coordinates": [-122.2964925, 47.4376685]}}, {"type": "Feature", "properties": {"id": 364221560, "name": "Red Lion Inn", "category": "hotel", "tags": ["hotel", "wifi"], "sources": ["osm"], "website": "https://www.redlion.com/red-lion-hotels/wa/seattle/red-lion-hotel-seattle-airport-sea-tac", "phone": "+1-206-246-5535", "address": "18220 International Boulevard", "stations": [{"stopCode": 64, "lines": "1", "name": "Airport / SeaTac Station", "walkingMeters": 891, "walkingSeconds": 642, "band": 15}]}, "geometry": {"type": "Point", "coordinates": [-122.2949045, 47.4393429]}}, {"type": "Feature", "properties": {"id": 374778140, "name": "Days Inn by Wyndham Seatac Airport", "category": "hotel", "tags": ["hotel", "wifi"], "sources": ["osm", "overture"], "website": "https://www.wyndhamhotels.com/days-inn/seattle-washington/days-inn-seatac-airport/overview", "phone": "+12069625339", "address": "19015 International Blvd", "stations": [{"stopCode": 65, "lines": "1", "name": "Angle Lake Station", "walkingMeters": 1240, "walkingSeconds": 895, "band": 15}]}, "geometry": {"type": "Point", "coordinates": [-122.2960996, 47.4326712]}}, {"type": "Feature", "properties": {"id": 374778142, "name": "Crest Motor Inn - Sea-Tac", "category": "motel", "tags": ["motel"], "sources": ["osm"], "website": "http://www.seataccrest.com/", "phone": "+1-206-433-0999;+1-800-554-0300", "address": "18845 International Boulevard", "stations": [{"stopCode": 65, "lines": "1", "name": "Angle Lake Station", "walkingMeters": 1250, "walkingSeconds": 903, "band": 15}]}, "geometry": {"type": "Point", "coordinates": [-122.2958953, 47.4331269]}}, {"type": "Feature", "properties": {"id": 374778152, "name": "Hampton Inn & Suites - Seattle-Airport/28th Ave", "category": "hotel", "tags": ["hotel", "dog-friendly", "wifi"], "sources": ["osm"], "website": "https://www.hilton.com/en/hotels/seaiahx-hampton-suites-seattle-airport-28th-ave/hotel-info/", "phone": "+1-206-244-5044", "address": "18850 28th Avenue South", "stations": [{"stopCode": 65, "lines": "1", "name": "Angle Lake Station", "walkingMeters": 1290, "walkingSeconds": 931, "band": 15}]}, "geometry": {"type": "Point", "coordinates": [-122.2973993, 47.432963]}}, {"type": "Feature", "properties": {"id": 647216787, "name": "Hilton Garden Inn Seattle Airport", "category": "hotel", "tags": ["hotel", "dog-friendly"], "sources": ["osm", "overture"], "website": "https://www.hilton.com/en/hotels/seaargi-hilton-garden-inn-seattle-airport/", "phone": "+12067344500", "address": "3056 S 188th St"}, "geometry": {"type": "Point", "coordinates": [-122.2928161, 47.4349441]}}, {"type": "Feature", "properties": {"id": 647217514, "name": "La Quinta Inn", "category": "hotel", "tags": ["hotel", "wifi"], "sources": ["osm"], "website": "https://www.wyndhamhotels.com/laquinta/seattle-washington/la-quinta-seattle-sea-tac-airport/overview", "phone": "+1-206-241-5211;+1-888-312-2399", "address": "2824 South 188th Street"}, "geometry": {"type": "Point", "coordinates": [-122.2970364, 47.4352306]}}, {"type": "Feature", "properties": {"id": 647239286, "name": "Aloft Seattle Sea-Tac Airport", "category": "hotel", "tags": ["hotel", "dog-friendly"], "sources": ["osm"], "website": "https://www.marriott.com/en-us/hotels/seaal-aloft-seattle-sea-tac-airport/overview/", "phone": "+1-206-241-0260;+1-877-508-0187", "address": "19030 28th Avenue South", "stations": [{"stopCode": 65, "lines": "1", "name": "Angle Lake Station", "walkingMeters": 1099, "walkingSeconds": 794, "band": 15}]}, "geometry": {"type": "Point", "coordinates": [-122.2974928, 47.4322155]}}, {"type": "Feature", "properties": {"id": 647240570, "name": "Country Inn & Suites", "category": "hotel", "tags": ["hotel"], "sources": ["osm"], "website": "https://www.radissonhotels.com/en-us/hotels/country-inn-seattle-tacoma-airport-wa", "phone": "+1-206-433-8188", "address": "3100 South 192nd Street", "stations": [{"stopCode": 65, "lines": "1", "name": "Angle Lake Station", "walkingMeters": 1127, "walkingSeconds": 816, "band": 15}]}, "geometry": {"type": "Point", "coordinates": [-122.2943274, 47.431505]}}, {"type": "Feature", "properties": {"id": 647240593, "name": "Quality Inn Sea-Tac Airport", "category": "hotel", "tags": ["hotel"], "sources": ["osm", "overture"], "website": "https://www.choicehotels.com/washington/seattle/quality-inn-hotels/wa153?pmf=yext&mc=llyxyxpx", "phone": "+12068449787", "address": "2900 S 192nd St", "stations": [{"stopCode": 65, "lines": "1", "name": "Angle Lake Station", "walkingMeters": 1081, "walkingSeconds": 779, "band": 15}]}, "geometry": {"type": "Point", "coordinates": [-122.2964886, 47.4312982]}}, {"type": "Feature", "properties": {"id": 735386409, "name": "Wingate by Wyndham SeaTac Airport", "category": "hotel", "tags": ["hotel"], "sources": ["osm", "overture"], "website": "https://www.wyndhamhotels.com/wingate/seatac-washington/wingate-seatac-airport/overview", "phone": "+12062428686", "address": "19031 International Blvd", "stations": [{"stopCode": 65, "lines": "1", "name": "Angle Lake Station", "walkingMeters": 1186, "walkingSeconds": 856, "band": 15}]}, "geometry": {"type": "Point", "coordinates": [-122.2964613, 47.4321458]}}, {"type": "Feature", "properties": {"id": "3ae57685-3008-490b-93b1-de4df1958e2b", "name": "La Quinta Inn and Suites", "category": "hotel", "tags": ["hotel"], "sources": ["overture"], "website": "http://www.laquintaseattleseatacairport.com/?cid=local_675", "phone": "+12062415211", "address": "2824 S 188th St"}, "geometry": {"type": "Point", "coordinates": [-122.2970123, 47.4354134]}}, {"type": "Feature", "properties": {"id": "cac506c1-c83c-44ba-a13b-360118a1b5b9", "name": "Hampton Inn and Suites Seattle Airport, 28th Avenue", "category": "hotel", "tags": ["hotel"], "sources": ["overture"], "website": "https://www.hilton.com/en/hotels/seaiahx-hampton-suites-seattle-airport-28th-ave/?SEO_id=GMB-HP-SEAIAHX", "phone": "+12062445044", "address": "18850 28th Ave S", "stations": [{"stopCode": 65, "lines": "1", "name": "Angle Lake Station", "walkingMeters": 1174, "walkingSeconds": 847, "band": 15}]}, "geometry": {"type": "Point", "coordinates": [-122.2974854, 47.4328346]}}, {"type": "Feature", "properties": {"id": "414b5c49-d602-4e60-a97d-4b8e2c696013", "name": "Econo Lodge SeaTac Airport South", "category": "motel", "tags": ["motel"], "sources": ["overture"], "website": "http://www.econolodge.com", "phone": "(206) 824-1350", "address": "19225 International Blvd", "stations": [{"stopCode": 65, "lines": "1", "name": "Angle Lake Station", "walkingMeters": 967, "walkingSeconds": 698, "band": 15}]}, "geometry": {"type": "Point", "coordinates": [-122.2963333, 47.4302597]}}, {"type": "Feature", "properties": {"id": "03675991-891e-431c-8d5a-0e9f080dc6ad", "name": "Courtyard by Marriott Seattle SeaTac Airport", "category": "hotel", "tags": ["hotel"], "sources": ["overture"], "website": "https://www.marriott.com/en-us/hotels/seaca-courtyard-seattle-seatac-airport/overview/", "phone": "+12062428686", "address": "19031 International Blvd", "stations": [{"stopCode": 65, "lines": "1", "name": "Angle Lake Station", "walkingMeters": 1174, "walkingSeconds": 847, "band": 15}]}, "geometry": {"type": "Point", "coordinates": [-122.2965393, 47.4320679]}}, {"type": "Feature", "properties": {"id": "663d37a2-d4a7-48e4-86ca-ec207132dcf7", "name": "Days Inn SeaTac", "category": "hotel", "tags": ["hotel"], "sources": ["overture"], "website": "http://www.daysinn.com", "phone": "(206) 244-3600", "address": "19015 International Blvd", "stations": [{"stopCode": 65, "lines": "1", "name": "Angle Lake Station", "walkingMeters": 1233, "walkingSeconds": 890, "band": 15}]}, "geometry": {"type": "Point", "coordinates": [-122.2960129, 47.4326363]}}, {"type": "Feature", "properties": {"id": "f942caf2-6fb6-49cc-b69e-7c2e48de3ae9", "name": "Super 8", "category": "motel", "tags": ["motel"], "sources": ["overture"], "website": "http://www.super8.com/hotels/washington/seattle/super-8-seatac/hotel-overview", "phone": "(206) 433-8188", "address": "3100 S 192nd St", "stations": [{"stopCode": 65, "lines": "1", "name": "Angle Lake Station", "walkingMeters": 1113, "walkingSeconds": 805, "band": 15}]}, "geometry": {"type": "Point", "coordinates": [-122.294342, 47.4313736]}}, {"type": "Feature", "properties": {"id": "6a5daf92-cb8b-4b90-97d8-9cc4f70be342", "name": "Super 8 SeaTac", "category": "hotel", "tags": ["hotel"], "sources": ["overture"], "website": "http://www.super8.com/hotels/washington/seattle/super-8-seatac/hotel-overview?WID=LC:SE:20150901:Rio:Local", "phone": "2064338188", "address": "3100 S 192nd St", "stations": [{"stopCode": 65, "lines": "1", "name": "Angle Lake Station", "walkingMeters": 1129, "walkingSeconds": 817, "band": 15}]}, "geometry": {"type": "Point", "coordinates": [-122.2942429, 47.4315147]}}, {"type": "Feature", "properties": {"id": "17ad4fab-823d-49e9-8cd6-8327cf364bee", "name": "Country Inn and Suites", "category": "hotel", "tags": ["hotel"], "sources": ["overture"], "website": "https://www.choicehotels.com/washington/seattle/country-inn-suites-hotels/wa424?mc=llgoxxpx", "phone": "+12067521286", "address": "3100 S 192nd St", "stations": [{"stopCode": 65, "lines": "1", "name": "Angle Lake Station", "walkingMeters": 1125, "walkingSeconds": 814, "band": 15}]}, "geometry": {"type": "Point", "coordinates": [-122.2942963, 47.4314842]}}, {"type": "Feature", "properties": {"id": "0601a5e2-cbda-4ead-b2db-b38606aa692d", "name": "Country Inn & Suites by Radisson, Seattle-Tacoma International Airport, WA", "category": "hotel", "tags": ["hotel", "resort"], "sources": ["overture"], "website": "https://www.radissonhotelsamericas.com/en-us/hotels/country-inn-seattle-tacoma-airport-wa?cid=a:rf+b:yex+c:amer+i:local+e:cis+d:us+f:en-US+h:USASTAC", "phone": "2067521286", "address": "3100 S 192nd St", "stations": [{"stopCode": 65, "lines": "1", "name": "Angle Lake Station", "walkingMeters": 1126, "walkingSeconds": 815, "band": 15}]}, "geometry": {"type": "Point", "coordinates": [-122.294281, 47.4314919]}}, {"type": "Feature", "properties": {"id": "bd5003ed-087b-46ab-b49e-3e8e5b07d4e7", "name": "Double Tree Airport Parking", "category": "hotel", "tags": ["hotel"], "sources": ["overture"], "website": "http://doubletree1.hilton.com/en_US/dt/hotel/BWICHDT-DoubleTree-by-Hilton-Hotel-Columbia-Maryland/index.do", "phone": "+12062468600", "address": "18740 International Blvd"}, "geometry": {"type": "Point", "coordinates": [-122.2939377, 47.4355965]}}, {"type": "Feature", "properties": {"id": "134af056-2dba-4cde-8aa1-9c92cee5fec8", "name": "DoubleTree by Hilton Hotel Seattle Airport", "category": "hotel", "tags": ["hotel", "resort"], "sources": ["overture"], "website": "http://www.seattleairport.doubletree.com/", "phone": "+12062468600", "address": "18740 International Blvd"}, "geometry": {"type": "Point", "coordinates": [-122.2945328, 47.4355621]}}, {"type": "Feature", "properties": {"id": "378c0d79-800c-452c-a2b5-ab441867c0dd", "name": "Sea-Tac Crest Motor Inn", "category": "motel", "tags": ["motel"], "sources": ["overture"], "website": "http://www.seataccrest.com", "phone": "+12064330999", "address": "18845 International Blvd", "stations": [{"stopCode": 65, "lines": "1", "name": "Angle Lake Station", "walkingMeters": 1242, "walkingSeconds": 897, "band": 15}]}, "geometry": {"type": "Point", "coordinates": [-122.295784, 47.4330597]}}, {"type": "Feature", "properties": {"id": "0e5f36f9-5569-4470-af5b-c7fea98ee87f", "name": "La Quinta Inn & Suites by Wyndham Seattle Sea-Tac Airport", "category": "hotel", "tags": ["hotel", "resort"], "sources": ["overture"], "website": "https://www.wyndhamhotels.com/laquinta/seattle-washington/la-quinta-seattle-sea-tac-airport/overview?CID=LC:LQ::BING:RIO:National:53367&iata=00093796", "phone": "2062415211", "address": "2824 S 188th St"}, "geometry": {"type": "Point", "coordinates": [-122.2971954, 47.4353485]}}, {"type": "Feature", "properties": {"id": "b2d2771d-e78f-4183-9555-ddf650fba070", "name": "Red Lion Hotel Seattle Airport", "category": "hotel", "tags": ["hotel"], "sources": ["overture"], "website": "https://www.redlion.com", "phone": "(206) 246-5535", "address": "18220 International Blvd", "stations": [{"stopCode": 64, "lines": "1", "name": "Airport / SeaTac Station", "walkingMeters": 885, "walkingSeconds": 637, "band": 15}]}, "geometry": {"type": "Point", "coordinates": [-122.2949905, 47.4393387]}}, {"type": "Feature", "properties": {"id": 3643223205, "name": "Hudson", "category": "convenience", "tags": ["convenience"], "sources": ["osm"]}, "geometry": {"type": "Point", "coordinates": [-122.29751, 47.4389664]}}, {"type": "Feature", "properties": {"id": 3781524931, "name": "7-Eleven", "category": "convenience", "tags": ["convenience"], "sources": ["osm", "overture"], "website": "https://www.7-eleven.com/", "phone": "+12062438854", "address": "19023 International Blvd", "stations": [{"stopCode": 65, "lines": "1", "name": "Angle Lake Station", "walkingMeters": 1158, "walkingSeconds": 836, "band": 15}]}, "geometry": {"type": "Point", "coordinates": [-122.2958497, 47.4323041]}}, {"type": "Feature", "properties": {"id": 5777099555, "name": "Metro by T-Mobile", "category": "mobile_phone", "tags": ["mobile-phone"], "sources": ["osm"], "stations": [{"stopCode": 65, "lines": "1", "name": "Angle Lake Station", "walkingMeters": 1107, "walkingSeconds": 799, "band": 15}]}, "geometry": {"type": "Point", "coordinates": [-122.295816, 47.4315742]}}, {"type": "Feature", "properties": {"id": "e4a7f6f5-8a44-48de-acbc-71cec6cc2ffd", "name": "Boost Mobile", "category": "mobile_phone", "tags": ["mobile-phone", "mobile"], "sources": ["overture"], "website": "https://www.boostmobile.com/locations/bd/boost-mobile-wa-seatac-19045-international-blvd-a-98188?ll=1&utm_source=facebook&utm_medium=lastmile&utm_campaign=0015e00000jB7bhAAC", "phone": "+12064291221", "address": "19045 International Blvd", "stations": [{"stopCode": 65, "lines": "1", "name": "Angle Lake Station", "walkingMeters": 1111, "walkingSeconds": 802, "band": 15}]}, "geometry": {"type": "Point", "coordinates": [-122.2958679, 47.431633]}}, {"type": "Feature", "properties": {"id": 3643290935, "name": "Dufry", "category": "department_store", "tags": ["department-store"], "sources": ["osm"], "stations": [{"stopCode": 64, "lines": "1", "name": "Airport / SeaTac Station", "walkingMeters": 1009, "walkingSeconds": 726, "band": 15}]}, "geometry": {"type": "Point", "coordinates": [-122.297932, 47.4399353]}}, {"type": "Feature", "properties": {"id": 3781524966, "name": "Seatac Smoke Shop", "category": "tobacco", "tags": ["tobacco"], "sources": ["osm", "overture"], "website": "http://seatacsmokeshop.com", "phone": "+12064026103", "address": "19045 International Blvd", "stations": [{"stopCode": 65, "lines": "1", "name": "Angle Lake Station", "walkingMeters": 1107, "walkingSeconds": 799, "band": 15}]}, "geometry": {"type": "Point", "coordinates": [-122.2958177, 47.4316319]}}, {"type": "Feature", "properties": {"id": 5777099653, "name": "Liquor & Wine SeaTac", "category": "alcohol", "tags": ["alcohol"], "sources": ["osm"], "stations": [{"stopCode": 64, "lines": "1", "name": "Airport / SeaTac Station", "walkingMeters": 1261, "walkingSeconds": 914, "band": 15}]}, "geometry": {"type": "Point", "coordinates": [-122.2960032, 47.4360202]}}, {"type": "Feature", "properties": {"id": 442000784, "name": "Marathon", "category": "convenience", "tags": ["convenience"], "sources": ["osm"], "address": "2841 South 188th Street"}, "geometry": {"type": "Point", "coordinates": [-122.2961998, 47.4341424]}}, {"type": "Feature", "properties": {"id": "2593891d-5f43-443f-83a7-1d5dfda8761f", "name": "Seatac Liquor & Wine", "category": "alcohol", "tags": ["alcohol"], "sources": ["overture"], "website": "http://www.seatacspirits.com", "phone": "(206) 420-1046", "address": "18613 International Blvd", "stations": [{"stopCode": 64, "lines": "1", "name": "Airport / SeaTac Station", "walkingMeters": 1222, "walkingSeconds": 886, "band": 15}]}, "geometry": {"type": "Point", "coordinates": [-122.2960358, 47.4361267]}}, {"type": "Feature", "properties": {"id": "48a0a8c2-5ba4-4377-8ddc-f8eddf9eb389", "name": "DoubleTree by Hilton Fitness Center", "category": "fitness_centre", "tags": ["fitness-centre", "gym"], "sources": ["overture"], "website": "https://www.hilton.com/en/hotels/ctac-dt-doubletree-seattle-airport", "phone": "(206) 246-8600", "address": "18740 International Blvd"}, "geometry": {"type": "Point", "coordinates": [-122.2937393, 47.4367676]}}]}