{"type": "FeatureCollection", "features": [{"type": "Feature", "properties": {"id": "10036c7e-60b3-4bc0-b0c5-3003098b310c", "name": "Subway", "category": "restaurant", "tags": ["restaurant", "sandwich", "fast-food"], "sources": ["overture"], "website": "http://www.subway.com/en-us", "phone": "+14255481203", "address": "22726 44th Ave W"}, "geometry": {"type": "Point", "coordinates": [-122.2927399, 47.7920609]}}, {"type": "Feature", "properties": {"id": 2821910601, "name": "Starbucks", "category": "cafe", "tags": ["cafe", "coffee-shop", "outdoor-seating", "takeaway", "drive-through", "wifi", "coffee"], "sources": ["osm", "overture"], "website": "https://www.starbucks.com/store-locator/store/6685/", "phone": "+14256724254", "address": "22805 44th Ave W"}, "geometry": {"type": "Point", "coordinates": [-122.291813, 47.791219]}}, {"type": "Feature", "properties": {"id": "5e36f4e4-5fd4-4d79-8967-40b27b1cc6cb", "name": "Patty's Eggnest", "category": "restaurant", "tags": ["restaurant", "breakfast-and-brunch", "breakfast", "brunch", "american"], "sources": ["overture"], "website": "http://pattyseggnestpnw.com/", "phone": "+14258350401", "address": "4306 228th St SW"}, "geometry": {"type": "Point", "coordinates": [-122.2911148, 47.7915421]}}, {"type": "Feature", "properties": {"id": 2821907500, "name": "East Coast Enzos Pizza", "category": "fast_food", "tags": ["fast-food", "pizza"], "sources": ["osm"]}, "geometry": {"type": "Point", "coordinates": [-122.29167, 47.7912204]}}, {"type": "Feature", "properties": {"id": 2821942522, "name": "Las Espuelas", "category": "restaurant", "tags": ["restaurant", "mexican"], "sources": ["osm"], "website": "http://lasespuelas.net/", "address": "4306 228th Street Southwest", "hours": "Mo-Th 11:00-22:00; Fr-Sa 11:00-23:00; Su 11:00-22:00"}, "geometry": {"type": "Point", "coordinates": [-122.2910559, 47.791622]}}, {"type": "Feature", "properties": {"id": "6290e8bc-e5fc-4fff-b859-bc606bda2b6e", "name": "Romios Pizza & Pasta", "category": "restaurant", "tags": ["restaurant", "pizza"], "sources": ["overture"], "website": "http://www.e-romios.com", "phone": "(425) 673-2187", "address": "4308 228th St SW Ste 101"}, "geometry": {"type": "Point", "coordinates": [-122.2910767, 47.7916679]}}, {"type": "Feature", "properties": {"id": 5278240805, "name": "Ringer's Pub", "category": "pub", "tags": ["pub"], "sources": ["osm"]}, "geometry": {"type": "Point", "coordinates": [-122.2910779, 47.7903594]}}, {"type": "Feature", "properties": {"id": 5278246077, "name": "Sorelli's Pizza", "category": "restaurant", "tags": ["restaurant", "pizza", "italian", "outdoor-seating"], "sources": ["osm"], "address": "22402 44th Avenue West"}, "geometry": {"type": "Point", "coordinates": [-122.2931719, 47.7956809]}}, {"type": "Feature", "properties": {"id": "9fbb7291-a13a-4578-ab66-673f40b11e91", "name": "Krispy Krunchy Chicken", "category": "restaurant", "tags": ["restaurant", "chicken"], "sources": ["overture"], "website": "https://www.krispykrunchy.com/", "phone": "4257128883", "address": "22801 44th Avenue West, 22801 44th Avenue West"}, "geometry": {"type": "Point", "coordinates": [-122.2922287, 47.7915154]}}, {"type": "Feature", "properties": {"id": "1c46b7cb-4b6d-4840-8608-26e274462750", "name": "Papa John's Pizza", "category": "restaurant", "tags": ["restaurant", "pizza"], "sources": ["overture"], "website": "https://locations.papajohns.com/united-states/wa/98043/mountlake-terrace/22803-44th-ave-w", "phone": "(425) 778-8700", "address": "22803 44th Ave W"}, "geometry": {"type": "Point", "coordinates": [-122.2916946, 47.7912102]}}, {"type": "Feature", "properties": {"id": "44b31f36-1e13-40c2-af34-49a26bf379c2", "name": "Papa John's Pizza", "category": "restaurant", "tags": ["restaurant", "pizza"], "sources": ["overture"], "website": "https://www.papajohns.com/", "phone": "4257788700", "address": "22803 44th Ave W"}, "geometry": {"type": "Point", "coordinates": [-122.2906494, 47.7909279]}}, {"type": "Feature", "properties": {"id": "9fa4705f-0e04-4daa-87f0-5c6aba3fc74b", "name": "Sorelli Pizza", "category": "restaurant", "tags": ["restaurant", "pizza", "italian"], "sources": ["overture"], "website": "http://www.sorellipizza.com/?y_source=1_MzMxNjA3MzUtNTU5LWxvY2F0aW9uLndlYnNpdGU%3D", "phone": "+14256708600", "address": "22402 44th Ave W"}, "geometry": {"type": "Point", "coordinates": [-122.2927551, 47.795639]}}, {"type": "Feature", "properties": {"id": "6de5a7fd-eb79-440a-8f90-fb45323cb2fc", "name": "Voula's Good Eats", "category": "cafe", "tags": ["cafe"], "sources": ["overture"], "website": "http://www.voulasgoodeats.com", "phone": "(425) 967-5154", "address": "4306 228th St SW"}, "geometry": {"type": "Point", "coordinates": [-122.2910767, 47.7916679]}}, {"type": "Feature", "properties": {"id": "b1b65675-422f-4ce0-b3a2-5c2011bc1c2e", "name": "Las Espuelas Family Mexican", "category": "restaurant", "tags": ["restaurant", "mexican", "latin-american", "texmex"], "sources": ["overture"], "website": "http://www.lasespuelas.net/", "phone": "+14254095070", "address": "4306 228th St SW"}, "geometry": {"type": "Point", "coordinates": [-122.2909546, 47.7916069]}}, {"type": "Feature", "properties": {"id": "8f4db4c2-48f0-4f2b-b395-b8f76f9ba70c", "name": "Ringers Pub & Grill", "category": "restaurant", "tags": ["restaurant", "bar-and-grill", "bar", "grill"], "sources": ["overture"], "website": "http://Ringerspub.com/", "phone": "+14257716072", "address": "22803 44th Ave W"}, "geometry": {"type": "Point", "coordinates": [-122.2911148, 47.7905083]}}, {"type": "Feature", "properties": {"id": "ce317169-68cb-448c-a240-68c74749d16e", "name": "Sharkeys Pub And Grill", "category": "pub", "tags": ["pub"], "sources": ["overture"], "website": "http://ringerspubandgrill.com", "phone": "(425) 670-0377", "address": "22803 44th Ave W"}, "geometry": {"type": "Point", "coordinates": [-122.2903748, 47.7908516]}}, {"type": "Feature", "properties": {"id": 1231553378, "name": "QFC", "category": "supermarket", "tags": ["supermarket"], "sources": ["osm", "overture"], "website": "https://www.qfc.com/stores/grocery/wa/mountlake-terrace/mountlake-terrace/705/00857?cid=loc_70500857_fb", "phone": "+14257713962", "address": "22803 44th Ave W"}, "geometry": {"type": "Point", "coordinates": [-122.2904716, 47.7905976]}}, {"type": "Feature", "properties": {"id": 2821954450, "name": "The Gem Garden", "category": "jewelry", "tags": ["jewelry"], "sources": ["osm", "overture"], "website": "http://www.thegemgarden.com", "phone": "+12067839794", "address": "22725 44th Ave W"}, "geometry": {"type": "Point", "coordinates": [-122.2916817, 47.7922254]}}, {"type": "Feature", "properties": {"id": "44e32714-76db-4bbb-ad24-e628fb9f036e", "name": "Pet Adventure", "category": "pet", "tags": ["pet"], "sources": ["overture"], "website": "http://www.pet-adventure.com/", "phone": "4257710676", "address": "22803 44th Ave W Ste E5"}, "geometry": {"type": "Point", "coordinates": [-122.2910614, 47.7908974]}}, {"type": "Feature", "properties": {"id": "24cd878a-8a4b-4616-8c8f-af2a9f27e00b", "name": "Zakk's Smoke and Beverages", "category": "tobacco", "tags": ["tobacco"], "sources": ["overture"], "phone": "+14259673209", "address": "22803 44th Ave W"}, "geometry": {"type": "Point", "coordinates": [-122.2900085, 47.7914085]}}, {"type": "Feature", "properties": {"id": 546226820, "name": "Sound Community Bank", "category": "bank", "tags": ["bank", "drive-through"], "sources": ["osm"], "address": "22807 44th Avenue West"}, "geometry": {"type": "Point", "coordinates": [-122.2918678, 47.7906369]}}, {"type": "Feature", "properties": {"id": 5278240804, "name": "Fitness 19", "category": "fitness_centre", "tags": ["fitness-centre"], "sources": ["osm"]}, "geometry": {"type": "Point", "coordinates": [-122.2913307, 47.7903366]}}, {"type": "Feature", "properties": {"id": 5278246076, "name": "Paramount Fitness", "category": "fitness_centre", "tags": ["fitness-centre"], "sources": ["osm"]}, "geometry": {"type": "Point", "coordinates": [-122.2931628, 47.7958655]}}, {"type": "Feature", "properties": {"id": "2de427d5-863f-407f-b15b-12725c98fd61", "name": "Paramount Strength & Conditioning", "category": "fitness_centre", "tags": ["fitness-centre", "gym"], "sources": ["overture"], "website": "http://www.paramountsc.com/", "phone": "+13609309166", "address": "22402 44th Ave W"}, "geometry": {"type": "Point", "coordinates": [-122.2930374, 47.7958298]}}]}