{"type": "FeatureCollection", "features": [{"type": "Feature", "properties": {"id": "9841da29-a1c6-4085-a197-557c2b1737ea", "name": "Pizza Hut Express", "category": "restaurant", "tags": ["restaurant", "pizza"], "sources": ["overture"], "website": "https://locations.pizzahut.com/wa/renton/1215-landing-way", "address": "1215 Landing Way"}, "geometry": {"type": "Point", "coordinates": [-122.1997299, 47.4962273]}}, {"type": "Feature", "properties": {"id": 11349794459, "name": "Sizzle Dogs", "category": "fast_food", "tags": ["fast-food", "hot-dog", "restaurant", "hot", "dog", "american"], "sources": ["osm", "overture"], "website": "http://www.sizzledogs.com", "phone": "+14256389135", "address": "1000 Garden Ave N", "hours": "09:30-18:00"}, "geometry": {"type": "Point", "coordinates": [-122.1995049, 47.4998475]}}, {"type": "Feature", "properties": {"id": "eaeadd85-feea-43d3-a6d4-eab26d649950", "name": "Distant Lands Coffee", "category": "cafe", "tags": ["cafe", "coffee"], "sources": ["overture"], "website": "http://www.dlcoffee.com/", "phone": "+18007584437", "address": "801 Houser Way N"}, "geometry": {"type": "Point", "coordinates": [-122.1951981, 47.4960365]}}, {"type": "Feature", "properties": {"id": "d3942283-2f4e-4908-876c-bbcab9b538ea", "name": "Renton Ridge Condominium", "category": "attraction", "tags": ["attraction", "landmark", "historical", "building"], "sources": ["overture"], "phone": "+14258973400", "address": "975 Aberdeen Ave NE"}, "geometry": {"type": "Point", "coordinates": [-122.1918793, 47.4995651]}}, {"type": "Feature", "properties": {"id": "3fb16312-6811-4bba-b5a2-2d37846e5e3b", "name": "Sunset Garden Condos", "category": "attraction", "tags": ["attraction", "landmark", "historical", "building"], "sources": ["overture"], "address": "949 Aberdeen Ave NE"}, "geometry": {"type": "Point", "coordinates": [-122.1921768, 47.4980927]}}, {"type": "Feature", "properties": {"id": "0129c633-7358-44be-9d4e-efe2520d015e", "name": "Sunset Garden Condominiums", "category": "attraction", "tags": ["attraction", "landmark", "historical", "building"], "sources": ["overture"], "address": "901 Sunset Blvd NE"}, "geometry": {"type": "Point", "coordinates": [-122.1918106, 47.4982491]}}, {"type": "Feature", "properties": {"id": 430210581, "name": "Target", "category": "department_store", "tags": ["department-store", "wheelchair-accessible", "wifi", "department"], "sources": ["osm", "overture"], "website": "https://www.target.com/sl/renton/2290", "phone": "+14252070067", "address": "1215 N Landing Way", "hours": "08:00-22:00"}, "geometry": {"type": "Point", "coordinates": [-122.1998698, 47.4962639]}}, {"type": "Feature", "properties": {"id": 82659488, "name": "Stoneway Construction Supply", "category": "hardware", "tags": ["hardware"], "sources": ["osm"], "address": "915 Houser Way North"}, "geometry": {"type": "Point", "coordinates": [-122.197427, 47.4998634]}}, {"type": "Feature", "properties": {"id": "90000064-4aaf-47df-bcc3-66132f67be1f", "name": "World Market", "category": "furniture", "tags": ["furniture"], "sources": ["overture"], "website": "https://stores.worldmarket.com/wa/renton/721-n-landing-way.html", "phone": "(425) 277-7580", "address": "1215 N Landing Way Ste A"}, "geometry": {"type": "Point", "coordinates": [-122.1999054, 47.4963226]}}, {"type": "Feature", "properties": {"id": 5140241522, "name": "CVS Pharmacy", "category": "pharmacy", "tags": ["pharmacy"], "sources": ["osm"], "website": "https://www.cvs.com/store-locator/renton-wa-pharmacies/1215-n-landing-way-renton-wa-98057/storeid=17361", "hours": "Mo-Fr 09:00-21:00; Sa-Su 09:00-18:00"}, "geometry": {"type": "Point", "coordinates": [-122.1997518, 47.4965816]}}]}