{"type": "FeatureCollection", "features": [{"type": "Feature", "properties": {"id": "3dca5c54-0163-4f78-aa95-8adf2250bc38", "name": "VA Seattle Canteen", "category": "restaurant", "tags": ["restaurant", "american"], "sources": ["overture"], "website": "http://www.pugetsound.va.gov", "phone": "(800) 329-8387", "address": "1660 S Columbian Way"}, "geometry": {"type": "Point", "coordinates": [-122.3087997, 47.5640984]}}, {"type": "Feature", "properties": {"id": "2cace36d-81dd-490c-a172-aea215cee311", "name": "Beacon Grill", "category": "restaurant", "tags": ["restaurant", "american", "barbecue", "mexican"], "sources": ["overture"], "website": "http://www.premiergc.com", "phone": "+12067621429", "address": "4101 Beacon Ave S"}, "geometry": {"type": "Point", "coordinates": [-122.3074036, 47.5669212]}}, {"type": "Feature", "properties": {"id": 3211770071, "name": "Sherwood Gillespie", "category": "artwork", "tags": ["artwork"], "sources": ["osm"]}, "geometry": {"type": "Point", "coordinates": [-122.3074, 47.567017]}}, {"type": "Feature", "properties": {"id": "fcf1e3d1-87ac-470b-851c-5ff576fb259e", "name": "Jefferson Park Golf Course", "category": "park", "tags": ["park"], "sources": ["overture"], "phone": "+12067638989", "address": "Jefferson Park Golf Course, 4101 Beacon Ave S"}, "geometry": {"type": "Point", "coordinates": [-122.3072205, 47.5670967]}}, {"type": "Feature", "properties": {"id": 53615315, "name": "VA Medical Center - Seattle", "category": "hospital", "tags": ["hospital", "emergency"], "sources": ["osm"], "website": "https://www.pugetsound.va.gov/", "phone": "+1-206-762-1010", "address": "1660 South Columbian Way", "hours": "24/7"}, "geometry": {"type": "Point", "coordinates": [-122.3082632, 47.5630065]}}, {"type": "Feature", "properties": {"id": "7407ee5f-40fa-4de7-b325-d8650e752a04", "name": "VA Hospital", "category": "hospital", "tags": ["hospital"], "sources": ["overture"], "website": "http://www.va.gov/health", "phone": "+12067642394", "address": "1660 S Columbian Way"}, "geometry": {"type": "Point", "coordinates": [-122.3086395, 47.5629387]}}, {"type": "Feature", "properties": {"id": "15395771-9a60-4854-9049-7db4dcd9b772", "name": "Veterans Hospital Beacon Hill", "category": "hospital", "tags": ["hospital"], "sources": ["overture"], "website": "http://www.pugetsound.va.gov/", "phone": "+12067642002", "address": "1660 S Columbian Way"}, "geometry": {"type": "Point", "coordinates": [-122.3084641, 47.5641441]}}, {"type": "Feature", "properties": {"id": "35c64ae2-fdb9-4d89-883e-1a63b117d816", "name": "Puget Sound Va Medical Center", "category": "hospital", "tags": ["hospital"], "sources": ["overture"], "website": "www.pugetsound.va.gov", "phone": "+12067642894", "address": "1660 S Columbian Way"}, "geometry": {"type": "Point", "coordinates": [-122.3085251, 47.5637932]}}, {"type": "Feature", "properties": {"id": "49f61dc7-fc0b-4273-a952-f0f2e774f974", "name": "Seattle VA Cardiology Clinic", "category": "hospital", "tags": ["hospital"], "sources": ["overture"], "website": "http://www.valorhealthcare.com", "phone": "(425) 214-1055", "address": "1660 S Columbian Way"}, "geometry": {"type": "Point", "coordinates": [-122.3082504, 47.5639267]}}, {"type": "Feature", "properties": {"id": "7eb1e2e1-8938-4ecc-888f-9b0ec4890cdb", "name": "Seattle Veterans Hospital", "category": "hospital", "tags": ["hospital"], "sources": ["overture"], "website": "http://www.pugetsound.va.gov/", "phone": "+18452690259"}, "geometry": {"type": "Point", "coordinates": [-122.3082047, 47.5637627]}}, {"type": "Feature", "properties": {"id": "7bd62349-d26f-4b4a-ab78-1ef49bce03a3", "name": "VA Puget Sound Health Care System", "category": "clinic", "tags": ["clinic", "medical"], "sources": ["overture"], "website": "https://x.com/VAPugetSound", "phone": "+18003298387", "address": "1660 S Columbian Way"}, "geometry": {"type": "Point", "coordinates": [-122.3080063, 47.5629349]}}, {"type": "Feature", "properties": {"id": 363214584, "name": "Verity Credit Union", "category": "bank", "tags": ["bank"], "sources": ["osm"], "address": "1660 South Columbian Way"}, "geometry": {"type": "Point", "coordinates": [-122.3095864, 47.5627464]}}, {"type": "Feature", "properties": {"id": "8b594b28-605c-41c9-b8be-0793bf2ae581", "name": "Jefferson Park Lawn Bowling Club", "category": "sports_centre", "tags": ["sports-centre", "sports", "club", "league"], "sources": ["overture"], "website": "http://www.seattlebowls.org/", "phone": "+12067622490", "address": "4103 Beacon Ave S"}, "geometry": {"type": "Point", "coordinates": [-122.309082, 47.5676994]}}]}