{"type": "FeatureCollection", "features": [{"type": "Feature", "properties": {"id": 5871233686, "name": "Passports Pub", "category": "pub", "tags": ["pub"], "sources": ["osm"]}, "geometry": {"type": "Point", "coordinates": [-122.2271742, 47.3961448]}}, {"type": "Feature", "properties": {"id": 638968775, "name": "Denny's", "category": "restaurant", "tags": ["restaurant", "american"], "sources": ["osm", "overture"], "website": "https://locations.dennys.com/WA/KENT/247871?utm_source=Facebook&utm_medium=organic&utm_campaign=DAC", "phone": "+12538546621", "address": "1246 Central Ave N"}, "geometry": {"type": "Point", "coordinates": [-122.2273491, 47.3971477]}}, {"type": "Feature", "properties": {"id": 638968738, "name": "Bri's Beans", "category": "cafe", "tags": ["cafe", "coffee-shop", "coffee"], "sources": ["osm", "overture"], "website": "http://www.hotfrog.com/business/wa/kent/bris-beans_16850819", "phone": "+12536327207", "address": "1234 Central Ave N"}, "geometry": {"type": "Point", "coordinates": [-122.2277376, 47.3959894]}}, {"type": "Feature", "properties": {"id": "55c62d40-3b44-4c35-8ba9-f2fbfd54c4b6", "name": "The Meltdown", "category": "restaurant", "tags": ["restaurant"], "sources": ["overture"], "website": "https://themeltdown.com/", "phone": "+12538546621", "address": "1246 North Central Ave."}, "geometry": {"type": "Point", "coordinates": [-122.2273407, 47.3971405]}}, {"type": "Feature", "properties": {"id": "db9a3a23-a729-47d8-a493-1b1e7493607a", "name": "Central Flats Apartments", "category": "attraction", "tags": ["attraction", "landmark", "historical", "building"], "sources": ["overture"], "website": "https://www.centralflatsapts.com/", "phone": "+12532369346", "address": "1024 Central Ave N"}, "geometry": {"type": "Point", "coordinates": [-122.2288284, 47.392765]}}, {"type": "Feature", "properties": {"id": 26271825, "name": "Kent Memorial Park", "category": "park", "tags": ["park"], "sources": ["osm", "overture"], "website": "https://www.kentwa.gov/Home/Components/FacilityDirectory/FacilityDirectory/250/318", "phone": "+12538565000", "address": "850 Central Ave N"}, "geometry": {"type": "Point", "coordinates": [-122.2295268, 47.3902693]}}, {"type": "Feature", "properties": {"id": "4d7e611d-9775-4be2-8a2e-e29c8cc869ce", "name": "Extended Stay America", "category": "hotel", "tags": ["hotel"], "sources": ["overture"], "website": "http://dms.netmng.com/si/cm/tracking/dgtrackingredirect.aspx?siclientid=2918&sisearchengine=1524&siredirect=http:%2f%2fwww.extendedstayamerica.com%2fhotels%2fwa%2fseattle%2fkent&siproduct=2603_bus", "phone": "+12538726514", "address": "22520 83rd Ave S"}, "geometry": {"type": "Point", "coordinates": [-122.229126, 47.3998108]}}, {"type": "Feature", "properties": {"id": 50648621, "name": "Extended Stay America - Seattle/Kent", "category": "hotel", "tags": ["hotel"], "sources": ["osm"], "website": "https://www.extendedstayamerica.com/", "phone": "+1-253-872-6514", "address": "22520 83rd Avenue South"}, "geometry": {"type": "Point", "coordinates": [-122.2290064, 47.3998419]}}, {"type": "Feature", "properties": {"id": "d1f3a35b-4459-459d-86fa-c035ecdf3b4e", "name": "Howard Johnson Inn Kent", "category": "hotel", "tags": ["hotel"], "sources": ["overture"], "website": "https://www.wyndhamhotels.com/hojo/kent-washington/howard-johnson-inn-kent/overview", "phone": "(253) 852-7224", "address": "1233 Central Ave N"}, "geometry": {"type": "Point", "coordinates": [-122.2288971, 47.3967209]}}, {"type": "Feature", "properties": {"id": 638968762, "name": "7-Eleven", "category": "convenience", "tags": ["convenience"], "sources": ["osm", "overture"], "website": "https://www.7-eleven.com/", "phone": "+12538528269", "address": "1208 Central Ave N", "hours": "24/7"}, "geometry": {"type": "Point", "coordinates": [-122.2274988, 47.3967513]}}, {"type": "Feature", "properties": {"id": 3875399282, "name": "Chandlers Bay Market & Deli", "category": "convenience", "tags": ["convenience", "supermarket"], "sources": ["osm", "overture"], "website": "http://equityapartments.com/washington/seattle-apartments/kent/chandlers-bay-apartments.aspx", "phone": "(253) 850-5577", "address": "1018 Central Ave N"}, "geometry": {"type": "Point", "coordinates": [-122.2293303, 47.3922975]}}, {"type": "Feature", "properties": {"id": 653688849, "name": "Jacksons", "category": "convenience", "tags": ["convenience"], "sources": ["osm"], "address": "22588 Central Avenue North"}, "geometry": {"type": "Point", "coordinates": [-122.2275789, 47.3996573]}}, {"type": "Feature", "properties": {"id": "8e3fa62c-e2bc-48eb-b5d9-b04e6a530889", "name": "Chevron", "category": "convenience", "tags": ["convenience"], "sources": ["overture"], "website": "https://www.chevronwithtechron.com/en_us/home/gas-station-near-me.html?/station/1208-CENTRAL-AVE-N-KENT-WA-98032-3042-id359765", "address": "1208 CENTRAL AVE N"}, "geometry": {"type": "Point", "coordinates": [-122.2276917, 47.3967476]}}, {"type": "Feature", "properties": {"id": 638968780, "name": "Intra Flooring", "category": "furniture", "tags": ["furniture"], "sources": ["osm"], "address": "8439 South 228th Street"}, "geometry": {"type": "Point", "coordinates": [-122.2263339, 47.3971803]}}, {"type": "Feature", "properties": {"id": "03c6b3f7-e4a4-4d9c-8af7-991370a9ebda", "name": "Jacksons Food Stores", "category": "convenience", "tags": ["convenience"], "sources": ["overture"], "website": "http://www.jacksonsfoodstores.com/", "phone": "2533950280", "address": "22588 84th Ave S"}, "geometry": {"type": "Point", "coordinates": [-122.2275009, 47.3997803]}}, {"type": "Feature", "properties": {"id": "c7275412-2210-41a3-be27-4e106e4a7fbf", "name": "BluemaxUSA", "category": "doityourself", "tags": ["doityourself", "building", "supply"], "sources": ["overture"], "website": "https://www.bluemaxusa.com", "phone": "(507) 432-5246", "address": "22805 86th Ave S"}, "geometry": {"type": "Point", "coordinates": [-122.2257309, 47.3973312]}}, {"type": "Feature", "properties": {"id": "e761e87f-a966-46ff-b71c-f07f813991bc", "name": "Custom Bilt Metals", "category": "doityourself", "tags": ["doityourself", "building", "supply"], "sources": ["overture"], "website": "https://www.custombiltmetals.com/locations/kent/", "phone": "2538727330", "address": "22630 88th Ave S Ste 109"}, "geometry": {"type": "Point", "coordinates": [-122.2224731, 47.3984871]}}]}