{"type": "FeatureCollection", "features": [{"type": "Feature", "properties": {"id": "c126816d-e529-41b9-9d9b-bf745bd5b40d", "name": "Pinks Original Bakery", "category": "bakery", "tags": ["bakery"], "sources": ["overture"], "website": "http://www.pinksoriginalbakery.com", "phone": "(253) 872-8390", "address": "22330 68th Ave S"}, "geometry": {"type": "Point", "coordinates": [-122.2486038, 47.4017982]}}, {"type": "Feature", "properties": {"id": "0fd5f61d-1b41-46a4-8b1e-c90d3591cd6d", "name": "Oroweat - Kent Building", "category": "bakery", "tags": ["bakery"], "sources": ["overture"], "address": "7002 S 220th St"}, "geometry": {"type": "Point", "coordinates": [-122.2456436, 47.4062843]}}, {"type": "Feature", "properties": {"id": "c96a752e-90b3-4a64-8446-e49ec9ffb897", "name": "CORT Furniture Outlet", "category": "furniture", "tags": ["furniture"], "sources": ["overture"], "website": "https://stores.cortfurnitureoutlet.com/washington/kent/21431-68th-ave-south/", "phone": "+12064525245", "address": "21431 68th Ave S"}, "geometry": {"type": "Point", "coordinates": [-122.2499008, 47.40979]}}, {"type": "Feature", "properties": {"id": "4fbf9522-11d8-4b6f-93ce-6b01dd4b70ab", "name": "Tiger Mountain Services", "category": "alcohol", "tags": ["alcohol"], "sources": ["overture"], "website": "http://tigermtnservices.com", "phone": "+12533959054", "address": "7050 S 216th St"}, "geometry": {"type": "Point", "coordinates": [-122.2451553, 47.4087868]}}, {"type": "Feature", "properties": {"id": "61f64495-93d8-4cb0-9c35-17ed42a872ac", "name": "Quality Modular", "category": "furniture", "tags": ["furniture"], "sources": ["overture"], "phone": "+12532365296", "address": "22406 72nd Ave S"}, "geometry": {"type": "Point", "coordinates": [-122.2446899, 47.4004936]}}, {"type": "Feature", "properties": {"id": "3a1898af-a06a-4f8e-8235-d9fed6ed9a7e", "name": "Cambria", "category": "doityourself", "tags": ["doityourself", "building", "supply"], "sources": ["overture"], "website": "https://www.cambriausa.com/dealer-locator/galleries-showrooms/cambria-sales-and-distribution-center-showroom-seattle/a0g0p00002nawriuaq", "phone": "(206) 455-8994", "address": "22051 68th Ave S"}, "geometry": {"type": "Point", "coordinates": [-122.2482071, 47.4037857]}}, {"type": "Feature", "properties": {"id": "eb805989-4c46-48ea-a0ad-323da4dfe929", "name": "Attic Projects", "category": "doityourself", "tags": ["doityourself", "home", "improvement"], "sources": ["overture"], "website": "https://atticprojectscompany.com/", "phone": "4255161055", "address": "6839 S 220th St"}, "geometry": {"type": "Point", "coordinates": [-122.2481232, 47.4038124]}}, {"type": "Feature", "properties": {"id": "1b4e0867-d8e8-4f22-a7b1-fdc8ec158325", "name": "Rainier Building Supply LLC", "category": "doityourself", "tags": ["doityourself", "building", "supply"], "sources": ["overture"], "website": "http://www.rainierbuildingsupply.com/", "phone": "2532777627", "address": "22221 70th AVE S Kent"}, "geometry": {"type": "Point", "coordinates": [-122.2461929, 47.4027481]}}, {"type": "Feature", "properties": {"id": "6686e610-b473-4168-90af-0bf97467bc15", "name": "T & A Supply", "category": "hardware", "tags": ["hardware"], "sources": ["overture"], "website": "http://www.tasupply.com", "phone": "(253) 872-3682", "address": "6800-7000 S 217th St"}, "geometry": {"type": "Point", "coordinates": [-122.2478561, 47.408062]}}, {"type": "Feature", "properties": {"id": 4196322825, "name": "Kent Fit Body Boot Camp", "category": "fitness_centre", "tags": ["fitness-centre", "gym"], "sources": ["osm", "overture"], "website": "https://fitbodybootcamp.com/9454-kent-wa/", "phone": "2069818672", "address": "22016 68th Ave S"}, "geometry": {"type": "Point", "coordinates": [-122.2488499, 47.4044782]}}, {"type": "Feature", "properties": {"id": 4918158645, "name": "Pickleball Station", "category": "sports_centre", "tags": ["sports-centre"], "sources": ["osm"]}, "geometry": {"type": "Point", "coordinates": [-122.2487381, 47.4017969]}}]}