{"type": "FeatureCollection", "features": [{"type": "Feature", "properties": {"id": 6876114282, "name": "Subway", "category": "fast_food", "tags": ["fast-food", "sandwich", "takeaway"], "sources": ["osm"], "website": "https://restaurants.subway.com/united-states/wa/lake-forest-park/17171-bothell-way-ne", "phone": "+1-206-368-3544", "address": "17171 Bothell Way Northeast", "hours": "09:00-21:00"}, "geometry": {"type": "Point", "coordinates": [-122.280398, 47.7528212]}}, {"type": "Feature", "properties": {"id": 38933906, "name": "Starbucks", "category": "cafe", "tags": ["cafe", "coffee-shop", "takeaway", "coffee"], "sources": ["osm", "overture"], "website": "https://www.starbucks.com/store-locator/store/16416/", "phone": "+12063793734", "address": "17039 Bothell Way NE"}, "geometry": {"type": "Point", "coordinates": [-122.2802418, 47.7523907]}}, {"type": "Feature", "properties": {"id": 4094928973, "name": "Papa Murphy's", "category": "fast_food", "tags": ["fast-food", "pizza", "takeaway", "restaurant"], "sources": ["osm", "overture"], "website": "https://locations.papamurphys.com/wa/lake-forest-park/17171-bothell-way", "phone": "+12064407272", "address": "17171 Bothell Way NE"}, "geometry": {"type": "Point", "coordinates": [-122.280119, 47.7536488]}}, {"type": "Feature", "properties": {"id": 3722074026, "name": "MOD Pizza", "category": "fast_food", "tags": ["fast-food", "pizza", "takeaway", "restaurant"], "sources": ["osm", "overture"], "website": "https://locations.modpizza.com/usa/wa/lake-forest-park/17171-bothell-way-ne?utm_source=facebook&utm_medium=yext", "phone": "+12062047760", "address": "17171 Bothell Way NE", "hours": "Mo-We 10:30-22:00; Th-Sa 10:30-23:00; Su 10:30-22:00"}, "geometry": {"type": "Point", "coordinates": [-122.280156, 47.7528271]}}, {"type": "Feature", "properties": {"id": 6876114279, "name": "Swirl", "category": "cafe", "tags": ["cafe", "frozen-yogurt"], "sources": ["osm"], "hours": "Mo-Su 12:00-22:00"}, "geometry": {"type": "Point", "coordinates": [-122.2804946, 47.7528195]}}, {"type": "Feature", "properties": {"id": 8936084435, "name": "The Everest Kitchen", "category": "restaurant", "tags": ["restaurant", "nepalese", "indian", "tibetan", "himalayan-nepalese", "himalayan", "asian"], "sources": ["osm", "overture"], "website": "http://www.theeverestkitchen.com/", "phone": "+12064400321", "address": "17171 Bothell Way NE"}, "geometry": {"type": "Point", "coordinates": [-122.2803155, 47.7550022]}}, {"type": "Feature", "properties": {"id": 8936084437, "name": "The Burrow", "category": "cafe", "tags": ["cafe", "coffee-shop", "wifi"], "sources": ["osm"], "phone": "+1-206-582-2174", "address": "17171 Bothell Way Northeast", "hours": "Tu-Fr 08:00-15:00; Sa-Su 09:00-15:00"}, "geometry": {"type": "Point", "coordinates": [-122.2803149, 47.7549291]}}, {"type": "Feature", "properties": {"id": 8936084438, "name": "Vulpine Taproom", "category": "pub", "tags": ["pub", "wifi", "bar", "beer"], "sources": ["osm", "overture"], "website": "https://www.lfpvulpine.com/", "phone": "+12064732747", "address": "17171 Bothell Way NE", "hours": "Mo-We, Fr 15:00-22:00; Th 15:00-23:00; Sa 14:00-22:00; Su 13:00-21:00"}, "geometry": {"type": "Point", "coordinates": [-122.2803185, 47.7548338]}}, {"type": "Feature", "properties": {"id": 38933895, "name": "Lake Forest Bar and Grill", "category": "restaurant", "tags": ["restaurant", "american", "wifi", "bar-and-grill", "bar", "grill"], "sources": ["osm", "overture"], "website": "http://www.neighborhoodgrills.com/", "phone": "+12063641261", "address": "17535 Ballinger Way NE"}, "geometry": {"type": "Point", "coordinates": [-122.280354, 47.7552957]}}, {"type": "Feature", "properties": {"id": 491456211, "name": "Wired Chicks Espresso", "category": "cafe", "tags": ["cafe", "coffee-shop", "coffee"], "sources": ["osm", "overture"], "phone": "+14252397565", "address": "16827 Bothell Way NE"}, "geometry": {"type": "Point", "coordinates": [-122.281448, 47.751696]}}, {"type": "Feature", "properties": {"id": "7c17ca2f-0194-4dc6-ba9d-e1d56b06933c", "name": "Taqueria Tonita", "category": "restaurant", "tags": ["restaurant", "mexican"], "sources": ["overture"], "phone": "+12069660923", "address": "16827 Bothell Way NE"}, "geometry": {"type": "Point", "coordinates": [-122.2819901, 47.7517586]}}, {"type": "Feature", "properties": {"id": "cae105f5-5f3b-4578-b938-a0d8a8cec235", "name": "Lake Forest Park Bar & Grill", "category": "restaurant", "tags": ["restaurant", "american"], "sources": ["overture"], "website": "http://neighborhoodgrills.com/lakeforest/index.html", "phone": "(206) 364-1261", "address": "17535 Ballinger Way NE"}, "geometry": {"type": "Point", "coordinates": [-122.280304, 47.755352]}}, {"type": "Feature", "properties": {"id": "2a6d18a2-ab08-4fd4-88b3-1c03b475895d", "name": "Coco's Bakery", "category": "restaurant", "tags": ["restaurant"], "sources": ["overture"], "website": "http://www.cocosbakery.com/", "phone": "(206) 364-8910", "address": "17535 Ballinger Way NE"}, "geometry": {"type": "Point", "coordinates": [-122.2803802, 47.7553215]}}, {"type": "Feature", "properties": {"id": 8277217187, "name": "Otter Statue", "category": "artwork", "tags": ["artwork"], "sources": ["osm"]}, "geometry": {"type": "Point", "coordinates": [-122.287972, 47.7560473]}}, {"type": "Feature", "properties": {"id": 13088394764, "name": "Bust of Adm. Grau Seminario", "category": "artwork", "tags": ["artwork"], "sources": ["osm"]}, "geometry": {"type": "Point", "coordinates": [-122.287489, 47.7555817]}}, {"type": "Feature", "properties": {"id": 218172329, "name": "Pfingst Animal Acres Park", "category": "park", "tags": ["park"], "sources": ["osm", "overture"], "website": "http://www.cityoflfp.com", "phone": "+12063685440", "address": "17435 Brookside Blvd NE"}, "geometry": {"type": "Point", "coordinates": [-122.287852, 47.755502]}}, {"type": "Feature", "properties": {"id": 507854840, "name": "Whispering Willow Park", "category": "park", "tags": ["park"], "sources": ["osm", "overture"], "website": "http://www.cityoflfp.com", "phone": "+12063685440", "address": "17038 44th Ave NE"}, "geometry": {"type": "Point", "coordinates": [-122.281356, 47.7530835]}}, {"type": "Feature", "properties": {"id": 713811705, "name": "Blue Heron Park", "category": "park", "tags": ["park"], "sources": ["osm"]}, "geometry": {"type": "Point", "coordinates": [-122.2818302, 47.7521589]}}, {"type": "Feature", "properties": {"id": 723276627, "name": "Eagle Scout Park", "category": "park", "tags": ["park"], "sources": ["osm", "overture"], "website": "http://www.cityoflfp.com/index.aspx?nid=293", "phone": "+12063685440", "address": "NE 178th St at, NE 180th St"}, "geometry": {"type": "Point", "coordinates": [-122.2879257, 47.7564431]}}, {"type": "Feature", "properties": {"id": 1222895133, "name": "Animal Acres Demonstration Garden", "category": "garden", "tags": ["garden"], "sources": ["osm"]}, "geometry": {"type": "Point", "coordinates": [-122.2878242, 47.756139]}}, {"type": "Feature", "properties": {"id": "8c1772fd-06c4-4829-b0c8-49d3ab54eb5a", "name": "Animal Acres Park", "category": "park", "tags": ["park"], "sources": ["overture"], "website": "http://www.cityoflfp.com", "phone": "(206) 368-5440", "address": "17410-17798 Brookside Blvd NE"}, "geometry": {"type": "Point", "coordinates": [-122.2862015, 47.7560463]}}, {"type": "Feature", "properties": {"id": 4094928972, "name": "Mud Bay", "category": "pet", "tags": ["pet"], "sources": ["osm", "overture"], "website": "https://www.mudbay.com/pet-store/LFP-lake-forest-park-WA", "phone": "2063655100", "address": "17171 Bothell Way NE"}, "geometry": {"type": "Point", "coordinates": [-122.280119, 47.7538594]}}, {"type": "Feature", "properties": {"id": 3722074025, "name": "Safeway", "category": "supermarket", "tags": ["supermarket"], "sources": ["osm"], "address": "17171 Bothell Way Northeast", "hours": "Mo-Su 05:00-24:00"}, "geometry": {"type": "Point", "coordinates": [-122.280166, 47.7531132]}}, {"type": "Feature", "properties": {"id": "e49d61ba-83a4-4416-9199-935c2de48f57", "name": "ampm", "category": "convenience", "tags": ["convenience"], "sources": ["overture"], "website": "https://www.ampm.com/", "phone": "8003333991", "address": "17001 Bothell Way NE"}, "geometry": {"type": "Point", "coordinates": [-122.2808075, 47.7521172]}}, {"type": "Feature", "properties": {"id": 4094928975, "name": "Ross", "category": "department_store", "tags": ["department-store"], "sources": ["osm"], "phone": "+1-206-361-3977", "address": "17171 Bothell Way Northeast", "hours": "Mo-Sa 10:00-22:00; Su 10:00-21:30"}, "geometry": {"type": "Point", "coordinates": [-122.2803232, 47.7542974]}}, {"type": "Feature", "properties": {"id": "07fea9a9-d3d0-437e-9c7a-45d07821ff37", "name": "Ace Hardware", "category": "hardware", "tags": ["hardware"], "sources": ["overture"], "website": "http://www.acehardware.com", "phone": "+12068383933", "address": "17171 Bothell Way NE"}, "geometry": {"type": "Point", "coordinates": [-122.280365, 47.7540016]}}, {"type": "Feature", "properties": {"id": 4094928978, "name": "Wild Birds Unlimited", "category": "pet", "tags": ["pet"], "sources": ["osm", "overture"], "website": "https://order.wbu.com/lakeforestpark", "phone": "+12063671950", "address": "17171 Bothell Way NE", "hours": "Mo-We,Fr,Sa 10:00-18:00; Th 10:00-19:00; Su 11:00-17:00"}, "geometry": {"type": "Point", "coordinates": [-122.280156, 47.7529079]}}, {"type": "Feature", "properties": {"id": 8936084440, "name": "Red Sky Gallery", "category": "art", "tags": ["art", "gallery"], "sources": ["osm", "overture"], "website": "http://redskygalleries.com/", "phone": "+12067553529", "address": "17171 Bothell Way NE"}, "geometry": {"type": "Point", "coordinates": [-122.2803245, 47.7545949]}}, {"type": "Feature", "properties": {"id": "7a0ef51c-0ba9-4ea7-b7c5-b87d7031a72e", "name": "Ross Dress for Less", "category": "department_store", "tags": ["department-store", "department", "clothes"], "sources": ["overture"], "website": "https://www.rossstores.com/", "phone": "+12063613977", "address": "17171 Bothell Way NE"}, "geometry": {"type": "Point", "coordinates": [-122.2803116, 47.7542801]}}, {"type": "Feature", "properties": {"id": 4094928974, "name": "Planet Fitness", "category": "fitness_centre", "tags": ["fitness-centre", "fitness", "gym"], "sources": ["osm", "overture"], "website": "https://www.planetfitness.com/gyms/lake-forest-park-wa?utm_medium=organic&utm_source=extnet", "phone": "+12064671366", "address": "17171 Bothell Way NE", "hours": "Mo-Th 05:00-12:00, Fr 05:00-22:00, Sa-Su 07:00-09:00"}, "geometry": {"type": "Point", "coordinates": [-122.28013, 47.7539684]}}, {"type": "Feature", "properties": {"id": "d2fa79f4-4422-4164-a74a-8c4e3d23c397", "name": "WIN Sports Lab", "category": "fitness_centre", "tags": ["fitness-centre", "gym"], "sources": ["overture"], "website": "http://www.winsportslab.com/", "phone": "+12086918888", "address": "17865 Ballinger Way NE"}, "geometry": {"type": "Point", "coordinates": [-122.2826843, 47.7579231]}}]}