{"type": "FeatureCollection", "features": [{"type": "Feature", "properties": {"id": "c61a536e-c0f0-4090-b966-6aafee6166f3", "name": "Subway", "category": "restaurant", "tags": ["restaurant", "sandwich"], "sources": ["overture"], "website": "http://www.subway.com", "phone": "(206) 246-5554", "address": "633 Southcenter Mall"}, "geometry": {"type": "Point", "coordinates": [-122.2567749, 47.4584427]}}, {"type": "Feature", "properties": {"id": 1056103990, "name": "Starbucks", "category": "cafe", "tags": ["cafe", "coffee-shop", "takeaway", "wifi", "coffee"], "sources": ["osm", "overture"], "website": "https://www.starbucks.com/store-locator/store/9074/", "phone": "+12065758185", "address": "333 Strander Blvd", "hours": "Mo-Fr 05:00-21:00; Sa-Su 06:00-21:00"}, "geometry": {"type": "Point", "coordinates": [-122.2565724, 47.4556087]}}, {"type": "Feature", "properties": {"id": 502330045, "name": "Starbucks", "category": "cafe", "tags": ["cafe", "coffee-shop", "takeaway", "coffee"], "sources": ["osm", "overture"], "website": "https://www.starbucks.com/store-locator/store/8887/", "phone": "+12069884988", "address": "506 Southcenter Mall"}, "geometry": {"type": "Point", "coordinates": [-122.2589738, 47.4587905]}}, {"type": "Feature", "properties": {"id": "3d271822-7d7d-471e-b5ad-591f5dd94157", "name": "Starbucks", "category": "cafe", "tags": ["cafe", "coffee"], "sources": ["overture"], "phone": "2065756617", "address": "300 Andover Park W (Southcenter (B&N))"}, "geometry": {"type": "Point", "coordinates": [-122.2527237, 47.4550858]}}, {"type": "Feature", "properties": {"id": "7d797af5-3256-42f9-874e-a86bf655e7fd", "name": "Starbucks", "category": "cafe", "tags": ["cafe", "coffee"], "sources": ["overture"], "phone": "2069884988", "address": "506 Southcenter Mall Southcenter Mall"}, "geometry": {"type": "Point", "coordinates": [-122.2590561, 47.4575119]}}, {"type": "Feature", "properties": {"id": 4559339565, "name": "Qdoba", "category": "fast_food", "tags": ["fast-food", "mexican", "outdoor-seating", "indoor-seating", "takeaway", "wheelchair-accessible", "vegetarian", "air-conditioned"], "sources": ["osm"], "website": "https://locations.qdoba.com/us/wa/tukwila/100-andover-park-w.html", "phone": "+1-206-214-0313", "address": "100 Andover Park West", "hours": "Su-Th 10:30-21:00; Fr,Sa 10:30-22:00"}, "geometry": {"type": "Point", "coordinates": [-122.2535138, 47.4595764]}}, {"type": "Feature", "properties": {"id": 502329990, "name": "BJ's", "category": "restaurant", "tags": ["restaurant", "american", "takeaway", "wheelchair-accessible"], "sources": ["osm"], "website": "https://www.bjsrestaurants.com/locations/wa/southcenter-mall", "phone": "+1-206-439-7500", "address": "1159 Southcenter Mall", "hours": "Mo-Fr 11:00-24:00; Sa-Su 10:00-24:00"}, "geometry": {"type": "Point", "coordinates": [-122.2573974, 47.4577992]}}, {"type": "Feature", "properties": {"id": "22151d22-126d-4a61-8617-12cbad34d9df", "name": "Jimmy John's", "category": "fast_food", "tags": ["fast-food", "fast", "food"], "sources": ["overture"], "website": "https://locations.jimmyjohns.com/wa/tukwila/sandwiches-1518.html", "phone": "2062411003", "address": "728 Southcenter Mall"}, "geometry": {"type": "Point", "coordinates": [-122.2582474, 47.4578133]}}, {"type": "Feature", "properties": {"id": 502330029, "name": "Baskin-Robbins", "category": "ice_cream", "tags": ["ice-cream"], "sources": ["osm"], "website": "https://locations.baskinrobbins.com/wa/tukwila/993-southcenter-mall-360762-br", "phone": "+1-206-248-2805", "address": "993 Southcenter Mall", "hours": "Mo-Sa 10:00-21:00; Su 11:00-19:00"}, "geometry": {"type": "Point", "coordinates": [-122.2577887, 47.4587263]}}, {"type": "Feature", "properties": {"id": 502329991, "name": "Joey", "category": "restaurant", "tags": ["restaurant", "regional"], "sources": ["osm"]}, "geometry": {"type": "Point", "coordinates": [-122.2579806, 47.457731]}}, {"type": "Feature", "properties": {"id": "92933e5a-d61c-49d9-af82-bbd36009623f", "name": "Shake Shack", "category": "restaurant", "tags": ["restaurant", "burger", "american"], "sources": ["overture"], "website": "https://shakeshack.com/location/2600-Southcenter-Mall-Space-WA?utm_source=facebook&utm_medium=listing", "phone": "+12067769880", "address": "2600 Southcenter Mall"}, "geometry": {"type": "Point", "coordinates": [-122.258255, 47.458149]}}, {"type": "Feature", "properties": {"id": 502537445, "name": "Chipotle", "category": "fast_food", "tags": ["fast-food", "mexican", "takeaway"], "sources": ["osm"], "website": "https://locations.chipotle.com/wa/tukwila/2800-southcenter-mall", "phone": "+1-206-673-9972", "address": "2800 Southcenter Mall"}, "geometry": {"type": "Point", "coordinates": [-122.2576844, 47.4581318]}}, {"type": "Feature", "properties": {"id": 654955033, "name": "Burger King", "category": "fast_food", "tags": ["fast-food", "burger", "outdoor-seating", "indoor-seating", "takeaway", "drive-through", "wifi", "restaurant", "american"], "sources": ["osm", "overture"], "website": "https://burgerking.com/store-locator/store/6782", "phone": "+12063168159", "address": "335 Andover Park W", "hours": "Mo-Sa 07:00-21:00; Su 08:00-21:00"}, "geometry": {"type": "Point", "coordinates": [-122.2547156, 47.4544276]}}, {"type": "Feature", "properties": {"id": 4929856339, "name": "Ben & Jerry's", "category": "ice_cream", "tags": ["ice-cream"], "sources": ["osm"]}, "geometry": {"type": "Point", "coordinates": [-122.257926, 47.4583036]}}, {"type": "Feature", "properties": {"id": 502537458, "name": "Panda Express", "category": "fast_food", "tags": ["fast-food", "chinese", "takeaway", "restaurant", "asian"], "sources": ["osm", "overture"], "website": "http://www.pandaexpress.com/", "phone": "+12062436336", "address": "2600 Southcenter Mall", "hours": "Mo-Th 10:00-21:00; Fr 11:00-21:00; Sa 10:00-21:00; Su 11:00-19:00"}, "geometry": {"type": "Point", "coordinates": [-122.2588236, 47.4579491]}}, {"type": "Feature", "properties": {"id": "b1dc6350-66c5-41d5-80b6-3a15fc7bfacd", "name": "IJ Sushi Burrito", "category": "restaurant", "tags": ["restaurant", "sushi"], "sources": ["overture"], "website": "http://ijsushiburrito.com", "phone": "(425) 248-9786", "address": "2800 Southcenter Mall"}, "geometry": {"type": "Point", "coordinates": [-122.257843, 47.4589729]}}, {"type": "Feature", "properties": {"id": "8e648ff5-c03d-45cf-a84c-10018496d5c5", "name": "IJ Sushi Burrito", "category": "restaurant", "tags": ["restaurant", "sushi", "japanese", "asian"], "sources": ["overture"], "website": "http://ijsushiburrito.com/", "phone": "+14252440337", "address": "2800 Southcenter Mall"}, "geometry": {"type": "Point", "coordinates": [-122.2583008, 47.4577103]}}, {"type": "Feature", "properties": {"id": 6136934264, "name": "Patty's Eggnest", "category": "restaurant", "tags": ["restaurant", "indoor-seating", "wheelchair-accessible", "breakfast-and-brunch", "breakfast", "brunch", "american"], "sources": ["osm", "overture"], "website": "https://pattyseggnestpnw.com/", "phone": "+12532208331", "address": "375 Strander Blvd", "hours": "Mo-Sa 06:00-15:00; Su 07:00-15:00"}, "geometry": {"type": "Point", "coordinates": [-122.254881, 47.4550728]}}, {"type": "Feature", "properties": {"id": 6644829985, "name": "Sharetea", "category": "cafe", "tags": ["cafe", "bubble-tea", "indoor-seating", "takeaway", "wheelchair-accessible", "vegetarian", "air-conditioned"], "sources": ["osm"], "hours": "Su-Th 12:00-22:00; Fr,Sa 12:00-23:00"}, "geometry": {"type": "Point", "coordinates": [-122.253513, 47.4596645]}}, {"type": "Feature", "properties": {"id": 502330023, "name": "Jamba", "category": "fast_food", "tags": ["fast-food", "juice", "takeaway", "wheelchair-accessible", "vegetarian"], "sources": ["osm"], "website": "https://locations.jamba.com/wa/tukwila/680-southcenter-mall", "phone": "+1-206-947-0168", "address": "680 Southcenter Mall", "hours": "Mo-Sa 10:00-21:00; Su 11:00-19:00"}, "geometry": {"type": "Point", "coordinates": [-122.2590023, 47.4583449]}}, {"type": "Feature", "properties": {"id": 6136936243, "name": "Jersey Mike's Subs", "category": "fast_food", "tags": ["fast-food", "sandwich", "indoor-seating", "takeaway"], "sources": ["osm"], "website": "https://www.jerseymikes.com/18018/tukwila-wa", "address": "385 Strander Boulevard", "hours": "Mo-Su 10:00-21:00"}, "geometry": {"type": "Point", "coordinates": [-122.2548827, 47.4553716]}}, {"type": "Feature", "properties": {"id": 3605959723, "name": "Dough Zone", "category": "restaurant", "tags": ["restaurant", "chinese"], "sources": ["osm"], "address": "339 Strander Boulevard"}, "geometry": {"type": "Point", "coordinates": [-122.2561956, 47.4548574]}}, {"type": "Feature", "properties": {"id": 502330059, "name": "Kitanda", "category": "cafe", "tags": ["cafe", "coffee-shop", "takeaway"], "sources": ["osm"]}, "geometry": {"type": "Point", "coordinates": [-122.2597452, 47.4584483]}}, {"type": "Feature", "properties": {"id": 3605959720, "name": "Boiling Point", "category": "restaurant", "tags": ["restaurant", "asian", "chinese", "soup"], "sources": ["osm", "overture"], "website": "http://bpgroupusa.com/", "phone": "+12063367321", "address": "361 Strander Blvd"}, "geometry": {"type": "Point", "coordinates": [-122.2553559, 47.4548579]}}, {"type": "Feature", "properties": {"id": 502537459, "name": "Charleys Philly Steaks", "category": "fast_food", "tags": ["fast-food", "sandwich", "takeaway", "restaurant", "cheesesteak"], "sources": ["osm", "overture"], "website": "https://charleys.com/", "phone": "2064140842", "address": "2600 Southcenter Mall Unit Fc9"}, "geometry": {"type": "Point", "coordinates": [-122.2587749, 47.457862]}}, {"type": "Feature", "properties": {"id": "a16f19ba-a388-4aee-845c-a4d7f1984d6e", "name": "Charleys Philly Steaks", "category": "restaurant", "tags": ["restaurant", "cheesesteak"], "sources": ["overture"], "website": "https://charleys.com/", "phone": "2078747483", "address": "2600 Southcenter Mall Unit Fc9"}, "geometry": {"type": "Point", "coordinates": [-122.2579575, 47.4596176]}}, {"type": "Feature", "properties": {"id": 4929856342, "name": "85\u00b0C Bakery Cafe", "category": "cafe", "tags": ["cafe", "coffee-shop", "chinese", "takeaway"], "sources": ["osm"]}, "geometry": {"type": "Point", "coordinates": [-122.258545, 47.4581259]}}, {"type": "Feature", "properties": {"id": 4136714290, "name": "Pizza Hut Express", "category": "fast_food", "tags": ["fast-food", "pizza", "takeaway", "restaurant"], "sources": ["osm", "overture"], "phone": "2063942100", "address": "301 Strander Blvd"}, "geometry": {"type": "Point", "coordinates": [-122.258432, 47.4548604]}}, {"type": "Feature", "properties": {"id": "8a16d433-a5c8-4ca9-b2e7-f31cba84ebca", "name": "Johnny Rockets", "category": "restaurant", "tags": ["restaurant", "burger"], "sources": ["overture"], "website": "http://www.johnnyrockets.com/", "phone": "(206) 246-1779", "address": "633 Southcenter Mall"}, "geometry": {"type": "Point", "coordinates": [-122.2582321, 47.4580002]}}, {"type": "Feature", "properties": {"id": 4370516996, "name": "Yamada Teriyaki", "category": "fast_food", "tags": ["fast-food", "japanese", "restaurant", "asian"], "sources": ["osm", "overture"], "website": "http://yamadateriyaki.lbu.com", "phone": "+12069650059", "address": "345 Andover Park E"}, "geometry": {"type": "Point", "coordinates": [-122.2504584, 47.4534898]}}, {"type": "Feature", "properties": {"id": 4689068490, "name": "Sushi Omiya", "category": "restaurant", "tags": ["restaurant", "sushi", "japanese"], "sources": ["osm", "overture"], "website": "http://www.sushilandusa.com", "phone": "+12063973497", "address": "100 Andover Park W"}, "geometry": {"type": "Point", "coordinates": [-122.2529554, 47.459588]}}, {"type": "Feature", "properties": {"id": 4928332709, "name": "Boba Smoothies", "category": "cafe", "tags": ["cafe", "bubble-tea", "indoor-seating", "wheelchair-accessible", "vegetarian", "air-conditioned"], "sources": ["osm"]}, "geometry": {"type": "Point", "coordinates": [-122.256238, 47.4590617]}}, {"type": "Feature", "properties": {"id": 4928332710, "name": "Potato Corner", "category": "fast_food", "tags": ["fast-food", "fries", "indoor-seating", "takeaway", "wheelchair-accessible", "vegetarian", "fast", "food"], "sources": ["osm", "overture"], "website": "http://potatocornerusa.com", "phone": "+15095929836", "address": "2800 Southcenter Mall"}, "geometry": {"type": "Point", "coordinates": [-122.256411, 47.4590671]}}, {"type": "Feature", "properties": {"id": 4928334422, "name": "Unicone Crepes", "category": "cafe", "tags": ["cafe"], "sources": ["osm"]}, "geometry": {"type": "Point", "coordinates": [-122.258417, 47.4579645]}}, {"type": "Feature", "properties": {"id": 4928334425, "name": "CapitalOne caf\u00e9", "category": "cafe", "tags": ["cafe", "vegetarian"], "sources": ["osm"]}, "geometry": {"type": "Point", "coordinates": [-122.259188, 47.4585158]}}, {"type": "Feature", "properties": {"id": 4928334438, "name": "Grill City", "category": "restaurant", "tags": ["restaurant", "wheelchair-accessible", "filipino", "barbecue", "asian"], "sources": ["osm", "overture"], "website": "http://www.grillcity.com/", "phone": "+12062488114", "address": "1368 Southcenter Mall"}, "geometry": {"type": "Point", "coordinates": [-122.2558258, 47.4597662]}}, {"type": "Feature", "properties": {"id": 4929856340, "name": "Wetzel's Pretzels", "category": "fast_food", "tags": ["fast-food", "pretzel", "takeaway"], "sources": ["osm"]}, "geometry": {"type": "Point", "coordinates": [-122.2581795, 47.4582628]}}, {"type": "Feature", "properties": {"id": "79b3c331-ff3e-4ee6-b68c-38b885c82319", "name": "Wetzel's Pretzels", "category": "bakery", "tags": ["bakery", "fast-food"], "sources": ["overture"], "website": "https://www.wetzels.com/", "phone": "+12062413202", "address": "2800 Southcenter Mall"}, "geometry": {"type": "Point", "coordinates": [-122.2594528, 47.457634]}}, {"type": "Feature", "properties": {"id": 4929856341, "name": "Big Orange", "category": "cafe", "tags": ["cafe", "bubble-tea", "takeaway"], "sources": ["osm"]}, "geometry": {"type": "Point", "coordinates": [-122.258272, 47.4582338]}}, {"type": "Feature", "properties": {"id": 502330021, "name": "Auntie Anne's", "category": "fast_food", "tags": ["fast-food", "pretzel", "takeaway", "bakery"], "sources": ["osm", "overture"], "website": "http://www.auntieannes.com", "phone": "+12064535489", "address": "546 Southcenter Mall"}, "geometry": {"type": "Point", "coordinates": [-122.2590108, 47.458525]}}, {"type": "Feature", "properties": {"id": "bdc6a103-9916-48dc-a65c-8d1caa63d1f6", "name": "Chili Fries", "category": "restaurant", "tags": ["restaurant", "american"], "sources": ["overture"], "website": "https://www.chilifries.net", "phone": "(425) 214-1267", "address": "Southcenter Mall"}, "geometry": {"type": "Point", "coordinates": [-122.2582779, 47.4587708]}}, {"type": "Feature", "properties": {"id": 6136939093, "name": "Corner Bakery", "category": "cafe", "tags": ["cafe", "coffee-shop", "outdoor-seating", "indoor-seating", "takeaway", "wheelchair-accessible", "vegetarian", "air-conditioned"], "sources": ["osm"], "address": "393 Strander Boulevard", "hours": "Mo-Su 07:00-20:00"}, "geometry": {"type": "Point", "coordinates": [-122.2548686, 47.4556342]}}, {"type": "Feature", "properties": {"id": 6279250985, "name": "Waterleaf Restaurant & Bar", "category": "restaurant", "tags": ["restaurant"], "sources": ["osm", "overture"], "website": "http://www.hotelinterurban.com/dining.php", "phone": "+12062787800", "address": "223 Andover Park E"}, "geometry": {"type": "Point", "coordinates": [-122.2505367, 47.4573231]}}, {"type": "Feature", "properties": {"id": 6290461785, "name": "Urban Roast", "category": "cafe", "tags": ["cafe", "coffee"], "sources": ["osm", "overture"], "website": "https://www.hotelinterurban.com/coffee-bar.php", "phone": "(206) 278-7800", "address": "223 Andover Park E"}, "geometry": {"type": "Point", "coordinates": [-122.2505138, 47.4571122]}}, {"type": "Feature", "properties": {"id": 502537447, "name": "Villa Italian Kitchen", "category": "fast_food", "tags": ["fast-food", "italian", "restaurant"], "sources": ["osm", "overture"], "website": "https://locations.villaitaliankitchen.com/en-us/wa/seattle/2800-southcenter-mall/", "phone": "+12062461567", "address": "2800 Southcenter Mall"}, "geometry": {"type": "Point", "coordinates": [-122.257705, 47.4579337]}}, {"type": "Feature", "properties": {"id": 502537446, "name": "Sarku Japan", "category": "fast_food", "tags": ["fast-food", "japanese", "takeaway", "restaurant", "asian"], "sources": ["osm", "overture"], "website": "http://www.sarkujapan.com", "phone": "+12062421474", "address": "2800 Southcenter Mall"}, "geometry": {"type": "Point", "coordinates": [-122.2576797, 47.4580318]}}, {"type": "Feature", "properties": {"id": 502330053, "name": "Braganza Tea", "category": "cafe", "tags": ["cafe", "bubble-tea", "takeaway", "tea", "room"], "sources": ["osm", "overture"], "website": "https://www.braganzatea.com", "phone": "+12068181207", "address": "2800 Southcenter Mall"}, "geometry": {"type": "Point", "coordinates": [-122.2593754, 47.4588316]}}, {"type": "Feature", "properties": {"id": 502329970, "name": "Trapper's Sushi Co.", "category": "restaurant", "tags": ["restaurant", "sushi"], "sources": ["osm"]}, "geometry": {"type": "Point", "coordinates": [-122.2594155, 47.4576929]}}, {"type": "Feature", "properties": {"id": 502330026, "name": "Cinnabon", "category": "fast_food", "tags": ["fast-food", "dessert", "takeaway", "bakery"], "sources": ["osm", "overture"], "website": "https://locations.cinnabon.com/wa/seattle/2800-southcenter-mall?utm_source=extnet&utm_medium=organic&utm_campaign=locations_partner", "phone": "+12066590713", "address": "2800 Southcenter Mall"}, "geometry": {"type": "Point", "coordinates": [-122.257762, 47.4589249]}}, {"type": "Feature", "properties": {"id": "2118637f-25ea-4cd8-8931-4e225487b16c", "name": "Cinnabon", "category": "restaurant", "tags": ["restaurant"], "sources": ["overture"], "website": "https://locations.cinnabon.com/wa/seattle/2800-southcenter-mall?utm_source=extnet&utm_medium=organic&utm_campaign=locations_partner", "phone": "2066590713", "address": "2800 Southcenter Mall"}, "geometry": {"type": "Point", "coordinates": [-122.258522, 47.4575043]}}, {"type": "Feature", "properties": {"id": 502537482, "name": "Mochinut", "category": "fast_food", "tags": ["fast-food", "donut", "bubble-tea", "takeaway"], "sources": ["osm"]}, "geometry": {"type": "Point", "coordinates": [-122.2588617, 47.4581205]}}, {"type": "Feature", "properties": {"id": 502329992, "name": "CoCo Fresh Tea & Juice", "category": "cafe", "tags": ["cafe", "bubble-tea", "takeaway"], "sources": ["osm"]}, "geometry": {"type": "Point", "coordinates": [-122.2582112, 47.4578217]}}, {"type": "Feature", "properties": {"id": 13375179165, "name": "Crispy Town", "category": "fast_food", "tags": ["fast-food", "restaurant", "asian"], "sources": ["osm", "overture"], "website": "http://www.seafoodcity.com/food-service/", "phone": "+12063164258", "address": "1368 Southcenter Mall"}, "geometry": {"type": "Point", "coordinates": [-122.2562015, 47.4594792]}}, {"type": "Feature", "properties": {"id": "253257d1-091f-4ab3-bc7e-827914b8d294", "name": "Marinepolis Sushi Land", "category": "restaurant", "tags": ["restaurant", "sushi"], "sources": ["overture"], "website": "http://sushilandusa.com", "phone": "(206) 816-3280", "address": "100 Andover Park W"}, "geometry": {"type": "Point", "coordinates": [-122.2534409, 47.4596481]}}, {"type": "Feature", "properties": {"id": 502537460, "name": "Popeyes", "category": "fast_food", "tags": ["fast-food", "chicken", "indoor-seating", "takeaway", "delivery", "wifi"], "sources": ["osm"], "website": "https://www.popeyes.com/store-locator/store/restaurant_242349", "phone": "+1-425-364-5740", "address": "2800 Southcenter Mall", "hours": "Mo-Sa 10:00-21:00; Su 11:00-19:00"}, "geometry": {"type": "Point", "coordinates": [-122.2588409, 47.4577716]}}, {"type": "Feature", "properties": {"id": "641f61cf-0fec-4975-b664-c6b1f0f94b96", "name": "Duke's Seafood", "category": "bar", "tags": ["bar", "seafood"], "sources": ["overture"], "website": "http://www.dukesseafood.com/", "phone": "2062435200", "address": "757 Southcenter Mall"}, "geometry": {"type": "Point", "coordinates": [-122.2587357, 47.4580421]}}, {"type": "Feature", "properties": {"id": 119980184, "name": "Olive Garden", "category": "restaurant", "tags": ["restaurant", "italian"], "sources": ["osm", "overture"], "website": "https://www.olivegarden.com/locations/wa/tukwila/tukwila-southcenter-mall/1584?cmpid=br%3Aog_ag%3Aie_ch%3Asoc_ca%3AOGFB_sn%3Afacebook_gt%3Atukwila-wa-1584_pl%3Alocurl_rd%3A1450", "phone": "+12062414899", "address": "310 Strander Blvd", "hours": "Mo-Th,Su 11:00-22:00; Fr-Sa 11:00-23:00"}, "geometry": {"type": "Point", "coordinates": [-122.2577261, 47.4562806]}}, {"type": "Feature", "properties": {"id": 502330000, "name": "Duke's Chowder House", "category": "restaurant", "tags": ["restaurant", "outdoor-seating", "indoor-seating", "wheelchair-accessible", "vegetarian", "bar"], "sources": ["osm", "overture"], "website": "http://www.dukeschowderhouse.com/", "phone": "2062435200", "address": "757 Southcenter Mall", "hours": "Su-Th 11:00-22:00; Fr,Sa 11:00-23:00"}, "geometry": {"type": "Point", "coordinates": [-122.2588115, 47.4577617]}}, {"type": "Feature", "properties": {"id": 502329978, "name": "Jay Tea", "category": "cafe", "tags": ["cafe", "bubble-tea", "takeaway"], "sources": ["osm"]}, "geometry": {"type": "Point", "coordinates": [-122.2567605, 47.4582404]}}, {"type": "Feature", "properties": {"id": 502329981, "name": "Dragon's Breath Creamery", "category": "ice_cream", "tags": ["ice-cream", "takeaway"], "sources": ["osm"]}, "geometry": {"type": "Point", "coordinates": [-122.2569877, 47.4581413]}}, {"type": "Feature", "properties": {"id": 502329982, "name": "Moctezuma's Mexican Restaurant", "category": "restaurant", "tags": ["restaurant", "mexican"], "sources": ["osm"]}, "geometry": {"type": "Point", "coordinates": [-122.2568083, 47.4580218]}}, {"type": "Feature", "properties": {"id": 502330042, "name": "Crepe Legend", "category": "cafe", "tags": ["cafe"], "sources": ["osm"]}, "geometry": {"type": "Point", "coordinates": [-122.2589741, 47.458731]}}, {"type": "Feature", "properties": {"id": 502330090, "name": "Mr. Dim Sum", "category": "restaurant", "tags": ["restaurant", "dim-sum", "dim", "sum", "chinese", "asian"], "sources": ["osm", "overture"], "phone": "+12065665923", "address": "969 Southcenter Mall"}, "geometry": {"type": "Point", "coordinates": [-122.2578752, 47.459493]}}, {"type": "Feature", "properties": {"id": 502330120, "name": "Jollibee", "category": "fast_food", "tags": ["fast-food", "burger", "indoor-seating", "takeaway", "fast", "food", "filipino", "asian", "restaurant"], "sources": ["osm", "overture"], "website": "https://locations.jollibeefoods.com/usa/wa/tukwila/1374-southcenter-mall", "phone": "+12062484240", "address": "1374 Southcenter Mall"}, "geometry": {"type": "Point", "coordinates": [-122.2558433, 47.4594891]}}, {"type": "Feature", "properties": {"id": 502330123, "name": "Undercover Fries", "category": "fast_food", "tags": ["fast-food", "wheelchair-accessible"], "sources": ["osm"]}, "geometry": {"type": "Point", "coordinates": [-122.2561955, 47.4591945]}}, {"type": "Feature", "properties": {"id": 502330126, "name": "Peekaboo Poke & Tea", "category": "restaurant", "tags": ["restaurant"], "sources": ["osm", "overture"], "phone": "+12062943120", "address": "1387 Southcenter Mall"}, "geometry": {"type": "Point", "coordinates": [-122.2562236, 47.4593596]}}, {"type": "Feature", "properties": {"id": 502330129, "name": "Chowking", "category": "fast_food", "tags": ["fast-food", "asian", "takeaway", "restaurant", "chinese"], "sources": ["osm", "overture"], "website": "http://www.chowkingusa.com/", "phone": "+12062412469", "address": "1383 Southcenter Mall"}, "geometry": {"type": "Point", "coordinates": [-122.2563511, 47.4594493]}}, {"type": "Feature", "properties": {"id": "f36b5343-d9b4-4ef9-b77a-7a3c6aac7c8b", "name": "Chowking", "category": "restaurant", "tags": ["restaurant", "asian", "fusion", "fast-food", "filipino"], "sources": ["overture"], "website": "https://locations.chowkingusa.com/wa/seattle/1383-southcenter-mall-seafood-city-main-entrance?utm_medium=organic&utm_source=local&utm_campaign=yextpowerlistings&utm_content=website&utm_term=1361663", "phone": "2062412469", "address": "1383 Southcenter Mall, Seafood City Main Entrance, Floor 1"}, "geometry": {"type": "Point", "coordinates": [-122.2586136, 47.4575119]}}, {"type": "Feature", "properties": {"id": 502537456, "name": "Ruby Thai", "category": "fast_food", "tags": ["fast-food", "thai", "restaurant", "asian"], "sources": ["osm", "overture"], "website": "http://www.irg168.com/rubythai.html", "phone": "+12062464266", "address": "2800 Southcenter Mall"}, "geometry": {"type": "Point", "coordinates": [-122.2581893, 47.4580962]}}, {"type": "Feature", "properties": {"id": 502537457, "name": "Gyros and Kebabs", "category": "fast_food", "tags": ["fast-food"], "sources": ["osm"]}, "geometry": {"type": "Point", "coordinates": [-122.2588466, 47.458025]}}, {"type": "Feature", "properties": {"id": "bebac97d-246c-426f-ad3c-8c863ea63391", "name": "Trapper's Sushi", "category": "restaurant", "tags": ["restaurant", "sushi", "japanese", "asian"], "sources": ["overture"], "website": "https://www.trapperssushi.com/tukwila", "phone": "+12067438770", "address": "468 Southcenter Mall"}, "geometry": {"type": "Point", "coordinates": [-122.2594681, 47.4576683]}}, {"type": "Feature", "properties": {"id": 1473282699, "name": "Marugame Udon", "category": "fast_food", "tags": ["fast-food", "noodles", "takeaway", "restaurant", "japanese", "asian"], "sources": ["osm", "overture"], "website": "http://marugameudon.olo.com/menu/marugame-tukwila?olonwp=Lij7MEMhykWQYWp4Jz8H6g", "phone": "+12064324228", "address": "965 Southcenter Mall", "hours": "Mo-Su 11:00-21:00"}, "geometry": {"type": "Point", "coordinates": [-122.2582065, 47.4595202]}}, {"type": "Feature", "properties": {"id": "e0e8d4c2-53f8-4db0-850e-553de780a23e", "name": "Marugame Udon", "category": "restaurant", "tags": ["restaurant", "noodles"], "sources": ["overture"], "website": "https://www.marugameudon.com/?olonwp=z17TA_tz20aL5UmKf8LjMg", "phone": "2064324228", "address": "965 Southcenter Mall"}, "geometry": {"type": "Point", "coordinates": [-122.256813, 47.4577789]}}, {"type": "Feature", "properties": {"id": "aebcfb05-d96e-4aa1-8e88-39b8744dbee0", "name": "Chipotle Mexican Grill", "category": "restaurant", "tags": ["restaurant", "mexican", "fast-food", "taco"], "sources": ["overture"], "website": "http://www.chipotle.com", "phone": "+12066739972", "address": "2800 Southcenter Mall"}, "geometry": {"type": "Point", "coordinates": [-122.2581558, 47.4583588]}}, {"type": "Feature", "properties": {"id": "1ed83323-3bb2-43d7-9aec-4037c2fef78e", "name": "Chipotle Mexican Grill", "category": "restaurant", "tags": ["restaurant", "taco", "fast-food", "mexican"], "sources": ["overture"], "website": "https://locations.chipotle.com/wa/tukwila/2800-southcenter-mall?utm_source=bing&utm_medium=yext&utm_campaign=yext_listings", "phone": "2066739972", "address": "2800 Southcenter Mall"}, "geometry": {"type": "Point", "coordinates": [-122.258522, 47.4575043]}}, {"type": "Feature", "properties": {"id": "66d26164-690a-45b4-84d2-0405afc8ed12", "name": "Blue C Sushi", "category": "restaurant", "tags": ["restaurant", "sushi"], "sources": ["overture"], "website": "http://www.bluecsushi.com", "phone": "(206) 277-8744", "address": "468 Southcenter Mall"}, "geometry": {"type": "Point", "coordinates": [-122.2594299, 47.457634]}}, {"type": "Feature", "properties": {"id": "5d1a794d-6316-40be-9fe2-5be3bda80bd9", "name": "Jersey Mike's", "category": "restaurant", "tags": ["restaurant", "sandwich", "american"], "sources": ["overture"], "website": "https://www.jerseymikes.com/18018/tukwila-wa", "phone": "+12532365965", "address": "385 Strander Blvd"}, "geometry": {"type": "Point", "coordinates": [-122.2548676, 47.4553261]}}, {"type": "Feature", "properties": {"id": "58501771-407d-4880-967a-42d6c79f1e10", "name": "QDOBA Mexican Eats", "category": "restaurant", "tags": ["restaurant", "mexican", "texmex", "fast-food"], "sources": ["overture"], "website": "https://locations.qdoba.com/us/wa/tukwila/100-andover-park-w", "phone": "+12062140313", "address": "100 Andover Park W"}, "geometry": {"type": "Point", "coordinates": [-122.2533798, 47.459713]}}, {"type": "Feature", "properties": {"id": "2227348e-da20-49ad-bf8c-ec1d6c2c7cc1", "name": "Steepologie Teas", "category": "cafe", "tags": ["cafe", "coffee"], "sources": ["overture"], "website": "https://www.steepologie.com/", "phone": "2068499775", "address": "856 Southcenter Mall"}, "geometry": {"type": "Point", "coordinates": [-122.2577591, 47.4583931]}}, {"type": "Feature", "properties": {"id": "56e20a5f-bb34-4daf-9c02-ab9d34818cf1", "name": "Popeyes Louisiana Kitchen", "category": "restaurant", "tags": ["restaurant", "chicken"], "sources": ["overture"], "website": "https://www.popeyes.com/store-locator/store/restaurant_242349?utm_source=yext&utm_medium=referral&utm_campaign=organic-local-listings", "phone": "4253645740", "address": "2800 Southcenter Mall, Fc8"}, "geometry": {"type": "Point", "coordinates": [-122.258522, 47.4575043]}}, {"type": "Feature", "properties": {"id": "fffc2135-167a-4f2e-bcf8-e18ae1f4e78e", "name": "Mom's Kitchen", "category": "restaurant", "tags": ["restaurant"], "sources": ["overture"], "website": "https://www.indianhomelyfood.com", "phone": "(206) 536-9745", "address": "360 Corporate Dr N"}, "geometry": {"type": "Point", "coordinates": [-122.2565002, 47.4513397]}}, {"type": "Feature", "properties": {"id": "ec92c461-8cf3-4f98-85eb-197d9865c4d8", "name": "Culinex", "category": "bakery", "tags": ["bakery"], "sources": ["overture"], "website": "https://www.culinex.biz/contact-us", "phone": "(206) 855-0837", "address": "360 Corporate Dr N"}, "geometry": {"type": "Point", "coordinates": [-122.2565002, 47.4513397]}}, {"type": "Feature", "properties": {"id": "271a7ecf-29f3-4713-b14b-c55c4249d46a", "name": "Lola's", "category": "restaurant", "tags": ["restaurant", "filipino"], "sources": ["overture"], "website": "https://lolascuisine.co", "phone": "(206) 617-4833", "address": "360 Corporate Dr N"}, "geometry": {"type": "Point", "coordinates": [-122.2565002, 47.4513397]}}, {"type": "Feature", "properties": {"id": "2993f2f9-7467-4f9f-930f-8e3bdf1a6a8a", "name": "Northwest Landing Restaurant", "category": "pub", "tags": ["pub", "breakfast-and-brunch"], "sources": ["overture"], "website": "https://www.hilton.com/en/hotels/seaspdt-doubletree-suites-seattle-airport-southcenter/dining/?y_source=1_MTA1NTI4MzgyNi00ODMtbG9jYXRpb24ud2Vic2l0ZQ%3D%3D", "phone": "2065754736", "address": "16500 Southcenter Pkwy"}, "geometry": {"type": "Point", "coordinates": [-122.2599487, 47.4541779]}}, {"type": "Feature", "properties": {"id": "fb655bc1-7525-4606-ba20-ebd53d07fd50", "name": "Mizu Japanese Steak", "category": "restaurant", "tags": ["restaurant", "japanese"], "sources": ["overture"], "website": "http://www.mizusteakhouse.com/", "phone": "(206) 575-9109", "address": "339 Strander Blvd"}, "geometry": {"type": "Point", "coordinates": [-122.2563095, 47.4549103]}}, {"type": "Feature", "properties": {"id": "1da1eda7-6d0c-47e4-ba67-851aaaa90df7", "name": "Cha CHA Thai", "category": "restaurant", "tags": ["restaurant", "thai"], "sources": ["overture"], "website": "http://chachathaiseattle.com", "phone": "(253) 227-3940", "address": "375 Strander Blvd"}, "geometry": {"type": "Point", "coordinates": [-122.254776, 47.4550972]}}, {"type": "Feature", "properties": {"id": "01942076-31e4-4a15-b4c6-f54d4d3788cc", "name": "Cha Cha Thai Restaurant", "category": "restaurant", "tags": ["restaurant", "thai"], "sources": ["overture"], "website": "http://www.chachathairestaurant.com/", "phone": "2532773940", "address": "375 Strander Blvd"}, "geometry": {"type": "Point", "coordinates": [-122.255394, 47.4557991]}}, {"type": "Feature", "properties": {"id": "e0ae72f7-3fdc-4a1b-bcd7-99e24ad9075b", "name": "Corner Bakery Cafe", "category": "bakery", "tags": ["bakery", "breakfast-and-brunch"], "sources": ["overture"], "website": "https://www.cornerbakerycafe.com/", "phone": "+12066732955", "address": "393 Strander Blvd"}, "geometry": {"type": "Point", "coordinates": [-122.2548294, 47.4556084]}}, {"type": "Feature", "properties": {"id": "6876a846-8c38-4566-bdc6-7576bb0d2852", "name": "Rendition", "category": "restaurant", "tags": ["restaurant", "american"], "sources": ["overture"], "website": "http://www.hotelinterurban.com/dining.php", "phone": "2062787800", "address": "223 Andover Park E"}, "geometry": {"type": "Point", "coordinates": [-122.2507935, 47.4570389]}}, {"type": "Feature", "properties": {"id": "774a849e-0241-419d-aca8-f7304c40f5f0", "name": "Odin Brewing Co.", "category": "bar", "tags": ["bar", "brewery"], "sources": ["overture"], "website": "http://odinbrewing.wordpress.com", "phone": "(206) 241-1013", "address": "402 Baker Blvd"}, "geometry": {"type": "Point", "coordinates": [-122.252037, 47.4585114]}}, {"type": "Feature", "properties": {"id": "8e129a51-93b4-47db-abdb-9bc1c378f7ec", "name": "California Pizza Kitchen", "category": "restaurant", "tags": ["restaurant", "pizza", "italian"], "sources": ["overture"], "website": "http://www.cpk.com/", "phone": "+12062422112", "address": "150 Andover Park W"}, "geometry": {"type": "Point", "coordinates": [-122.2536926, 47.4585114]}}, {"type": "Feature", "properties": {"id": "679c1b63-a5cc-4e3d-9887-21597cc37a28", "name": "JOEY Southcenter", "category": "restaurant", "tags": ["restaurant", "american"], "sources": ["overture"], "website": "https://joeyrestaurants.com/location/joey-south-center", "phone": "(206) 835-6397", "address": "758 Southcenter Mall"}, "geometry": {"type": "Point", "coordinates": [-122.2551956, 47.4592094]}}, {"type": "Feature", "properties": {"id": "b7359f88-21e1-4237-9899-e36a9801dbf7", "name": "JOEY Southcenter", "category": "restaurant", "tags": ["restaurant", "american", "bar"], "sources": ["overture"], "website": "https://joeyrestaurants.com/location/joey-south-center/", "phone": "+12068356397", "address": "758 Southcenter Mall"}, "geometry": {"type": "Point", "coordinates": [-122.2580338, 47.4576416]}}, {"type": "Feature", "properties": {"id": "a620ce00-fe43-4160-8ef1-e24b028a7c1a", "name": "Valerio's Tropical Bakeshop", "category": "bakery", "tags": ["bakery"], "sources": ["overture"], "website": "http://www.valeriostropicalbakeshop.com", "phone": "+12062466166", "address": "1368 Southcenter Mall"}, "geometry": {"type": "Point", "coordinates": [-122.2557526, 47.4596252]}}, {"type": "Feature", "properties": {"id": "7975fcab-bcda-427b-b83a-dea0432a512d", "name": "Red Ribbon Bakeshop", "category": "bakery", "tags": ["bakery"], "sources": ["overture"], "website": "https://locations.redribbonbakeshop.com/wa/tukwila/1372-southcenter-mall", "phone": "+12062436815", "address": "1372 Southcenter Mall"}, "geometry": {"type": "Point", "coordinates": [-122.2559509, 47.4595451]}}, {"type": "Feature", "properties": {"id": "58e61479-9e95-4d75-9ccd-ca753c0d6651", "name": "Seafood City Supermarket", "category": "restaurant", "tags": ["restaurant", "seafood"], "sources": ["overture"], "website": "http://www.seafoodcity.com/store-locations/seattle/", "phone": "+12063164258", "address": "1368 Southcenter Mall"}, "geometry": {"type": "Point", "coordinates": [-122.255928, 47.4598579]}}, {"type": "Feature", "properties": {"id": "d92b2cf0-b884-4d10-b4af-845d42da4219", "name": "Coast Kitchen", "category": "restaurant", "tags": ["restaurant"], "sources": ["overture"], "website": "http://www.donutchamp.com", "phone": "(425) 777-6725", "address": "2800 Southcenter Mall"}, "geometry": {"type": "Point", "coordinates": [-122.2574615, 47.4592171]}}, {"type": "Feature", "properties": {"id": "f4dadd58-8153-4a27-aa4d-fc79927c6fd4", "name": "Homegrown Sustainable Sandwiches", "category": "restaurant", "tags": ["restaurant", "sandwich"], "sources": ["overture"], "website": "http://www.eathomegrown.com", "phone": "(877) 567-9240", "address": "2800 Southcenter Mall"}, "geometry": {"type": "Point", "coordinates": [-122.2577515, 47.4590149]}}, {"type": "Feature", "properties": {"id": "2c4e5ea8-bfb5-439e-9a35-a30d607c2edc", "name": "Moctezuma's", "category": "restaurant", "tags": ["restaurant", "mexican", "latin-american"], "sources": ["overture"], "website": "http://www.moctezumas.com/", "phone": "+12065574757", "address": "1150 Southcenter Mall"}, "geometry": {"type": "Point", "coordinates": [-122.2569885, 47.4579849]}}, {"type": "Feature", "properties": {"id": "a5f9fc33-3e02-46a4-a206-3eadd0f0a70b", "name": "Racha Thai & Asian Kitchen", "category": "restaurant", "tags": ["restaurant", "thai"], "sources": ["overture"], "website": "http://www.rachathai.com/", "phone": "(206) 768-8883", "address": "1150 Southcenter Mall"}, "geometry": {"type": "Point", "coordinates": [-122.2570496, 47.4578514]}}, {"type": "Feature", "properties": {"id": "8e37edbf-e46c-45c3-b4a2-222f3ef379c2", "name": "Racha Thai & Asian Kitchen", "category": "restaurant", "tags": ["restaurant", "asian", "fusion", "noodles", "thai"], "sources": ["overture"], "website": "http://rachathai.com/", "phone": "2067688883", "address": "1150 Southcenter Mall"}, "geometry": {"type": "Point", "coordinates": [-122.2568054, 47.4570961]}}, {"type": "Feature", "properties": {"id": "b240c202-24a7-4b24-aa96-96b56e71775e", "name": "BJ's Restaurant & Brewhouse", "category": "restaurant", "tags": ["restaurant", "bar-and-grill", "bar", "grill", "american", "brewery", "barbecue", "pizza"], "sources": ["overture"], "website": "https://www.bjsrestaurants.com/locations/wa/southcenter-mall", "phone": "+12064397500", "address": "1159 Southcenter Mall"}, "geometry": {"type": "Point", "coordinates": [-122.2572937, 47.4578171]}}, {"type": "Feature", "properties": {"id": "0c00e39d-0442-4a71-9264-a6f00c928330", "name": "Moctezuma's Mexican Restaurant & Tequila Bar", "category": "bar", "tags": ["bar", "mexican"], "sources": ["overture"], "website": "http://moctezumas.com/room/southcenter-mall/", "phone": "2065574757", "address": "1150 Southcenter Mall"}, "geometry": {"type": "Point", "coordinates": [-122.2573624, 47.4576416]}}, {"type": "Feature", "properties": {"id": "924f465d-ac41-4332-a1a3-93f57d7c4db8", "name": "Palace Korean BBQ", "category": "restaurant", "tags": ["restaurant", "korean", "barbecue", "asian"], "sources": ["overture"], "website": "http://www.palacebbq.com", "phone": "+12062424875", "address": "2600 Southcenter Mall"}, "geometry": {"type": "Point", "coordinates": [-122.2581177, 47.4576836]}}, {"type": "Feature", "properties": {"id": "6f05076d-d648-44cd-a2c5-3d1707992b48", "name": "Donut Champ", "category": "restaurant", "tags": ["restaurant"], "sources": ["overture"], "website": "http://www.donutchamp.com/", "phone": "+14257776725", "address": "2800 Southcenter Mall"}, "geometry": {"type": "Point", "coordinates": [-122.2585068, 47.4582443]}}, {"type": "Feature", "properties": {"id": "17f0b3e2-4f2e-4d0f-b0bf-dc8414859f6c", "name": "Ruby Thai Kitchen", "category": "restaurant", "tags": ["restaurant", "thai"], "sources": ["overture"], "website": "http://www.irg168.com/rubythai.html", "phone": "(206) 246-4266", "address": "2800 Southcenter Mall"}, "geometry": {"type": "Point", "coordinates": [-122.2582626, 47.4577026]}}, {"type": "Feature", "properties": {"id": "de3ec1b4-0cd3-43bb-bc87-606da2778c44", "name": "Indi Bite", "category": "restaurant", "tags": ["restaurant", "indian"], "sources": ["overture"], "website": "http://www.indibite.com", "phone": "(206) 244-4634", "address": "2800 Southcenter Mall"}, "geometry": {"type": "Point", "coordinates": [-122.2582779, 47.4576607]}}, {"type": "Feature", "properties": {"id": "8440f7c3-df1a-41d5-8266-5b5c6141c0a7", "name": "Mio Ro", "category": "restaurant", "tags": ["restaurant", "korean"], "sources": ["overture"], "website": "http://mio-ro.com", "phone": "(206) 243-8031", "address": "2800 Southcenter Mall"}, "geometry": {"type": "Point", "coordinates": [-122.258255, 47.4578171]}}, {"type": "Feature", "properties": {"id": "7d151e76-56a3-406f-9f7d-320f9c96bbab", "name": "Westfield Southcenter Food Court", "category": "fast_food", "tags": ["fast-food", "food", "court"], "sources": ["overture"], "website": "http://westfield.com/southcenter/", "phone": "(206) 246-7400", "address": "Southcenter Mall"}, "geometry": {"type": "Point", "coordinates": [-122.2584, 47.4577827]}}, {"type": "Feature", "properties": {"id": "94168d8b-d30a-4f61-b981-ed3876ec5bfc", "name": "Chicken Now", "category": "restaurant", "tags": ["restaurant", "american"], "sources": ["overture"], "website": "http://www.chicken-now.com", "phone": "(206) 708-7069", "address": "Southcenter Mall"}, "geometry": {"type": "Point", "coordinates": [-122.2584686, 47.4577904]}}, {"type": "Feature", "properties": {"id": "89723a5f-0ea2-4933-b8bb-abf3d84cbbdb", "name": "Bahama Breeze", "category": "restaurant", "tags": ["restaurant"], "sources": ["overture"], "website": "http://www.bahamabreeze.com", "phone": "+12062414448"}, "geometry": {"type": "Point", "coordinates": [-122.258255, 47.4574585]}}, {"type": "Feature", "properties": {"id": "b99ad830-4e7e-40b4-8d66-c2ed9ce44941", "name": "Charleys Cheesesteaks", "category": "restaurant", "tags": ["restaurant", "sandwich", "american"], "sources": ["overture"], "website": "https://order.charleys.com/menu/southcenter-mall/", "phone": "+12062430466", "address": "2600 Southcenter Mall"}, "geometry": {"type": "Point", "coordinates": [-122.2588043, 47.4577637]}}, {"type": "Feature", "properties": {"id": "53aa1d31-376a-4277-ad93-b27f5011b54c", "name": "Kitanda Espresso & Acai", "category": "cafe", "tags": ["cafe", "coffee", "brazilian"], "sources": ["overture"], "website": "http://www.kitanda.com/", "phone": "+12064202479", "address": "2800 Southcenter Mall"}, "geometry": {"type": "Point", "coordinates": [-122.2597351, 47.4584312]}}, {"type": "Feature", "properties": {"id": "c40765a5-82a3-4466-9d22-b8fca965874b", "name": "Gyros & Kebabs", "category": "restaurant", "tags": ["restaurant", "turkish"], "sources": ["overture"], "website": "https://www.westfield.com/southcenter/stores/all-stores/gyros-and-kebabs/54586", "phone": "(206) 637-9447", "address": "2800 Southcenter Mall"}, "geometry": {"type": "Point", "coordinates": [-122.2585449, 47.4587708]}}, {"type": "Feature", "properties": {"id": "be71c146-6c5f-4c45-818a-dddd857272e7", "name": "Airmark Apartments", "category": "attraction", "tags": ["attraction", "landmark", "historical", "building"], "sources": ["overture"], "website": "http://www.airmarkapartments.com/?rcstdid=MTE%3D-aKFOxiSL8lQ%3D", "phone": "+12062222361", "address": "229 Andover Park E"}, "geometry": {"type": "Point", "coordinates": [-122.2505798, 47.4568863]}}, {"type": "Feature", "properties": {"id": 27368560, "name": "Tukwila Pond Park", "category": "park", "tags": ["park"], "sources": ["osm"]}, "geometry": {"type": "Point", "coordinates": [-122.2571656, 47.4534307]}}, {"type": "Feature", "properties": {"id": 654954869, "name": "Tukwila Pond Park", "category": "park", "tags": ["park"], "sources": ["osm", "overture"], "website": "http://tukwilapondpark.placeweb.site/", "phone": "+12067682822", "address": "Tukwila Pond Park, 299 Strander Blvd"}, "geometry": {"type": "Point", "coordinates": [-122.2595565, 47.4538134]}}, {"type": "Feature", "properties": {"id": "8dc69e00-c558-47bc-9bf1-615ff05e1fa8", "name": "Safari", "category": "playground", "tags": ["playground"], "sources": ["overture"], "website": "http://www.safariplayspace.com/", "phone": "+18887969992", "address": "2876 Southcenter Mall"}, "geometry": {"type": "Point", "coordinates": [-122.2569275, 47.4584198]}}, {"type": "Feature", "properties": {"id": 11980138328, "name": "Courtyard", "category": "hotel", "tags": ["hotel"], "sources": ["osm"], "website": "https://www.marriott.com/seasc", "phone": "+1-206-575-2500", "address": "400 Andover Park West"}, "geometry": {"type": "Point", "coordinates": [-122.254348, 47.45417]}}, {"type": "Feature", "properties": {"id": "ea3ee158-92f2-4f44-a3d7-4ad15a165c46", "name": "Courtyard by Marriott", "category": "hotel", "tags": ["hotel"], "sources": ["overture"], "website": "https://www.marriott.com/en-us/hotels/seasc-courtyard-seattle-southcenter/overview/?scid=d2406702-e8ea-4b45-bb9b-69cddaaef03d", "phone": "+12065752500", "address": "400 Andover Park W"}, "geometry": {"type": "Point", "coordinates": [-122.2536469, 47.4535179]}}, {"type": "Feature", "properties": {"id": 5432454122, "name": "Hotel Interurban", "category": "hotel", "tags": ["hotel"], "sources": ["osm", "overture"], "website": "http://www.hotelinterurban.com/", "phone": "+12062787800", "address": "223 Andover Park E"}, "geometry": {"type": "Point", "coordinates": [-122.250662, 47.4572709]}}, {"type": "Feature", "properties": {"id": 502330086, "name": "Aerie", "category": "clothes", "tags": ["clothes"], "sources": ["osm"], "address": "690 Southcenter Mall"}, "geometry": {"type": "Point", "coordinates": [-122.2581471, 47.4592885]}}, {"type": "Feature", "properties": {"id": "a85af97b-5d09-47d4-8608-18a32f137f93", "name": "Aerie", "category": "clothes", "tags": ["clothes", "womens"], "sources": ["overture"], "website": "https://storelocations.ae.com/us/wa/seattle/2656-southcenter-mall.html", "phone": "+12068347726", "address": "690 Southcenter Mall"}, "geometry": {"type": "Point", "coordinates": [-122.2581177, 47.458374]}}, {"type": "Feature", "properties": {"id": 502537470, "name": "Spencer's", "category": "gift", "tags": ["gift"], "sources": ["osm"]}, "geometry": {"type": "Point", "coordinates": [-122.2571948, 47.4585729]}}, {"type": "Feature", "properties": {"id": 502330016, "name": "Garage", "category": "clothes", "tags": ["clothes", "womens"], "sources": ["osm", "overture"], "website": "https://www.garageclothing.com/us", "phone": "+12062432104", "address": "2800 Southcenter Mall"}, "geometry": {"type": "Point", "coordinates": [-122.2583711, 47.4583959]}}, {"type": "Feature", "properties": {"id": 3605941567, "name": "Barnes & Noble", "category": "books", "tags": ["books"], "sources": ["osm", "overture"], "website": "http://store-locator.barnesandnoble.com/store/2607", "phone": "+12065753965", "address": "300 Andover Park W", "hours": "Mo-Th 09:00-21:00; Fr-Sa 09:00-22:00; Su 09:00-20:00"}, "geometry": {"type": "Point", "coordinates": [-122.2522911, 47.4554101]}}, {"type": "Feature", "properties": {"id": 27368464, "name": "Target", "category": "department_store", "tags": ["department-store", "wifi", "department"], "sources": ["osm", "overture"], "website": "https://www.target.com/sl/south-center/627", "phone": "+12065750682", "address": "301 Strander Blvd", "hours": "Su-Th 07:00-23:00; Fr-Sa 07:00-00:00"}, "geometry": {"type": "Point", "coordinates": [-122.2588701, 47.4550551]}}, {"type": "Feature", "properties": {"id": 502329993, "name": "T-Mobile", "category": "mobile_phone", "tags": ["mobile-phone", "mobile"], "sources": ["osm", "overture"], "website": "http://www.t-mobile.com", "phone": "+12062445530", "address": "718 Southcenter Mall"}, "geometry": {"type": "Point", "coordinates": [-122.258157, 47.4578955]}}, {"type": "Feature", "properties": {"id": 502330099, "name": "T-Mobile", "category": "mobile_phone", "tags": ["mobile-phone", "wheelchair-accessible", "mobile"], "sources": ["osm", "overture"], "website": "https://www.t-mobile.com/stores/bd/t-mobile-tukwila-wa-98188-449?utm_source=facebook&utm_medium=lastmile&utm_campaign=449", "phone": "+12062420145", "address": "984 Southcenter Mall"}, "geometry": {"type": "Point", "coordinates": [-122.2574711, 47.4588547]}}, {"type": "Feature", "properties": {"id": 502330010, "name": "AT&T", "category": "mobile_phone", "tags": ["mobile-phone"], "sources": ["osm"]}, "geometry": {"type": "Point", "coordinates": [-122.2595785, 47.457735]}}, {"type": "Feature", "properties": {"id": 502330138, "name": "AT&T", "category": "mobile_phone", "tags": ["mobile-phone"], "sources": ["osm"]}, "geometry": {"type": "Point", "coordinates": [-122.2574682, 47.4592575]}}, {"type": "Feature", "properties": {"id": "9e06fb68-a1d7-4d6b-8bf0-d4ee3c2ca86a", "name": "J.Crew", "category": "clothes", "tags": ["clothes"], "sources": ["overture"], "website": "https://stores.jcrew.com/en/southcenter-mall?srccode=X%7CPMG%7CNaturalSearch%7CLocal%7CFacebookLocal%7C807&utm_source=facebook&utm_medium=local&utm_campaign=807", "phone": "+12062445846", "address": "535 Southcenter Mall"}, "geometry": {"type": "Point", "coordinates": [-122.2583237, 47.4587517]}}, {"type": "Feature", "properties": {"id": 502330020, "name": "Sephora", "category": "cosmetics", "tags": ["cosmetics"], "sources": ["osm"]}, "geometry": {"type": "Point", "coordinates": [-122.2588679, 47.4583966]}}, {"type": "Feature", "properties": {"id": 4928334421, "name": "Metro by T-Mobile", "category": "mobile_phone", "tags": ["mobile-phone", "mobile"], "sources": ["osm", "overture"], "website": "https://www.metrobyt-mobile.com/stores/bd/metro-by-t-mobile-tukwila-wa-10234424/?utm_source=facebook&utm_medium=lastmile&utm_campaign=39705", "phone": "+12062424090", "address": "2800 Southcenter Mall"}, "geometry": {"type": "Point", "coordinates": [-122.258103, 47.4582238]}}, {"type": "Feature", "properties": {"id": "00b51720-51fb-4f18-a7e8-3b4348f7db35", "name": "Metro by T-Mobile", "category": "mobile_phone", "tags": ["mobile-phone", "mobile"], "sources": ["overture"], "website": "https://www.metrobyt-mobile.com/stores/bd/metro-by-t-mobile-tukwila-wa-10234424/", "phone": "2062424090", "address": "2800 Southcenter Mall"}, "geometry": {"type": "Point", "coordinates": [-122.2594528, 47.4576302]}}, {"type": "Feature", "properties": {"id": 3605959719, "name": "Dollar Tree", "category": "variety_store", "tags": ["variety-store", "discount"], "sources": ["osm", "overture"], "website": "https://locations.dollartree.com/wa/tukwila/363-strander-blvd", "address": "363 Strander Blvd.", "hours": "Mo-Su 09:00-21:00"}, "geometry": {"type": "Point", "coordinates": [-122.2551593, 47.4548476]}}, {"type": "Feature", "properties": {"id": "09fa8d2b-9559-44d1-a9a3-8ae22a82b1d8", "name": "Dollar Tree", "category": "variety_store", "tags": ["variety-store", "discount"], "sources": ["overture"], "website": "https://locations.dollartree.com/wa/tukwila/363-strander-blvd", "phone": "+15099343872", "address": "363 Strander Blvd"}, "geometry": {"type": "Point", "coordinates": [-122.256546, 47.4548111]}}, {"type": "Feature", "properties": {"id": 4918158628, "name": "GolfTec", "category": "sports", "tags": ["sports"], "sources": ["osm"]}, "geometry": {"type": "Point", "coordinates": [-122.251223, 47.4586192]}}, {"type": "Feature", "properties": {"id": 12712343809, "name": "Verizon", "category": "mobile_phone", "tags": ["mobile-phone", "wheelchair-accessible", "mobile"], "sources": ["osm", "overture"], "website": "https://victra.com/stores/wa-seattle-southcenter-mall-444/?y_source=1_ODQ2NDQ0MC01NTktbG9jYXRpb24ud2Vic2l0ZQ%3D%3D", "phone": "+14257287478", "address": "988 Southcenter Mall"}, "geometry": {"type": "Point", "coordinates": [-122.2575564, 47.4587772]}}, {"type": "Feature", "properties": {"id": 502330013, "name": "Dr. Martens", "category": "shoes", "tags": ["shoes"], "sources": ["osm"]}, "geometry": {"type": "Point", "coordinates": [-122.2578269, 47.4583845]}}, {"type": "Feature", "properties": {"id": 502330052, "name": "Pandora", "category": "jewelry", "tags": ["jewelry"], "sources": ["osm", "overture"], "website": "https://stores.pandora.net/en-us/wa/seattle/pandora-jewelry-usc930df8a.html", "phone": "+12069294808", "address": "291 Southcenter Mall"}, "geometry": {"type": "Point", "coordinates": [-122.259375, 47.4589383]}}, {"type": "Feature", "properties": {"id": 502330014, "name": "Forever 21", "category": "clothes", "tags": ["clothes"], "sources": ["osm", "overture"], "website": "http://www.forever21.com", "phone": "(206) 248-5360", "address": "Southcenter Mall"}, "geometry": {"type": "Point", "coordinates": [-122.2579257, 47.4584469]}}, {"type": "Feature", "properties": {"id": "def1f2c6-c80d-4e9e-9d16-30e022a57516", "name": "Forever 21", "category": "clothes", "tags": ["clothes", "womens"], "sources": ["overture"], "website": "https://locations.forever21.com/us/stores/wa/tukwila/836-southcenter-mall/?utm_medium=organic&utm_source=local&utm_campaign=other", "phone": "2062880083", "address": "836 Southcenter Mall"}, "geometry": {"type": "Point", "coordinates": [-122.257988, 47.4575081]}}, {"type": "Feature", "properties": {"id": 4928332711, "name": "Cricket Wireless", "category": "mobile_phone", "tags": ["mobile-phone", "mobile"], "sources": ["osm", "overture"], "website": "https://www.cricketwireless.com/stores/wa/tukwila/2800-southcenter-mall-ste-9095?utm_source=Facebook&utm_medium=Organic_Search&utm_campaign=Yext_Listings", "phone": "+12065358919", "address": "2800 Southcenter Mall"}, "geometry": {"type": "Point", "coordinates": [-122.256543, 47.4590961]}}, {"type": "Feature", "properties": {"id": 4928332717, "name": "Cricket Wireless", "category": "mobile_phone", "tags": ["mobile-phone"], "sources": ["osm"]}, "geometry": {"type": "Point", "coordinates": [-122.256849, 47.4583435]}}, {"type": "Feature", "properties": {"id": 502330030, "name": "Levi's", "category": "clothes", "tags": ["clothes"], "sources": ["osm", "overture"], "website": "https://locations.levi.com/en-us/wa/tukwila/denim_tukwila_wa_645.html", "phone": "+12068588760", "address": "2800 Southcenter Mall"}, "geometry": {"type": "Point", "coordinates": [-122.257933, 47.4588478]}}, {"type": "Feature", "properties": {"id": "076ec445-c8c6-41de-9d52-e0fd9cf0b123", "name": "Cotopaxi", "category": "clothes", "tags": ["clothes"], "sources": ["overture"], "website": "http://cotopaxi.com"}, "geometry": {"type": "Point", "coordinates": [-122.2596741, 47.4589653]}}, {"type": "Feature", "properties": {"id": 502330085, "name": "Eddie Bauer", "category": "clothes", "tags": ["clothes"], "sources": ["osm", "overture"], "website": "https://stores.eddiebauer.com/wa/seattle/670-southcenter-mall", "phone": "2062462569", "address": "670 Southcenter Mall"}, "geometry": {"type": "Point", "coordinates": [-122.2582635, 47.4593318]}}, {"type": "Feature", "properties": {"id": 3605941570, "name": "Total Wine", "category": "alcohol", "tags": ["alcohol", "wifi"], "sources": ["osm"], "website": "https://www.totalwine.com/store-info/washington-tukwila-south-side/1402", "phone": "+1-206-575-6280", "address": "300 Andover Park West", "hours": "Mo-Su 09:00-22:00"}, "geometry": {"type": "Point", "coordinates": [-122.2529885, 47.4546919]}}, {"type": "Feature", "properties": {"id": 502330009, "name": "Urban Outfitters", "category": "clothes", "tags": ["clothes"], "sources": ["osm"]}, "geometry": {"type": "Point", "coordinates": [-122.2574667, 47.4584924]}}, {"type": "Feature", "properties": {"id": "00fc7423-a9d9-427a-878d-351dbdc1d282", "name": "Urban Outfitters", "category": "clothes", "tags": ["clothes"], "sources": ["overture"], "website": "https://www.urbanoutfitters.com/stores/tukwila", "phone": "+12065934916", "address": "2800 Southcenter Mall"}, "geometry": {"type": "Point", "coordinates": [-122.258728, 47.4587708]}}, {"type": "Feature", "properties": {"id": 502330015, "name": "Skechers", "category": "shoes", "tags": ["shoes", "shoe"], "sources": ["osm", "overture"], "website": "https://local.skechers.com/wa/tukwila/230/?templatename=amp-2020#development=1", "phone": "(206) 246-2459", "address": "816 Southcenter Mall #1140"}, "geometry": {"type": "Point", "coordinates": [-122.2582339, 47.4584372]}}, {"type": "Feature", "properties": {"id": 502330108, "name": "Carter's", "category": "clothes", "tags": ["clothes"], "sources": ["osm"]}, "geometry": {"type": "Point", "coordinates": [-122.2571446, 47.4585075]}}, {"type": "Feature", "properties": {"id": "8109ba8f-61a7-4304-a1f5-d02ca324d9d2", "name": "Carter's", "category": "clothes", "tags": ["clothes", "childrens"], "sources": ["overture"], "website": "https://locations.carters.com/wa/tukwila/carters-tukwila-wa-2", "phone": "2069440028", "address": "1046 Southcenter Mall"}, "geometry": {"type": "Point", "coordinates": [-122.2595062, 47.4585686]}}, {"type": "Feature", "properties": {"id": 502330006, "name": "Bath & Body Works", "category": "cosmetics", "tags": ["cosmetics"], "sources": ["osm"]}, "geometry": {"type": "Point", "coordinates": [-122.2592728, 47.4580371]}}, {"type": "Feature", "properties": {"id": "4bb2cdac-0b04-4c50-a0d2-23ac2f4f9359", "name": "Torrid", "category": "clothes", "tags": ["clothes"], "sources": ["overture"], "website": "https://www.torrid.com/store-details?StoreID=5065", "phone": "(206) 431-7796", "address": "821 Southcenter Mall, Space # 540"}, "geometry": {"type": "Point", "coordinates": [-122.2579498, 47.459034]}}, {"type": "Feature", "properties": {"id": 3605941565, "name": "REI", "category": "outdoor", "tags": ["outdoor", "wifi"], "sources": ["osm"], "website": "https://www.rei.com/stores/tukwila", "phone": "+1-206-248-1938", "address": "240 Andover Park West", "hours": "Mo-Sa 10:00-20:00;Su 10:00-18:00"}, "geometry": {"type": "Point", "coordinates": [-122.253507, 47.4564775]}}, {"type": "Feature", "properties": {"id": "8e65bcc8-e949-42a5-b771-c8b92c946a0a", "name": "Fred Meyer Jewelers", "category": "jewelry", "tags": ["jewelry"], "sources": ["overture"], "website": "http://www.fredmeyerjewelers.com/", "phone": "+12062446903", "address": "1390 Southcenter Mall"}, "geometry": {"type": "Point", "coordinates": [-122.2589722, 47.4591637]}}, {"type": "Feature", "properties": {"id": 4370516995, "name": "Michael's Mart", "category": "convenience", "tags": ["convenience"], "sources": ["osm"]}, "geometry": {"type": "Point", "coordinates": [-122.2504674, 47.4536431]}}, {"type": "Feature", "properties": {"id": 502330094, "name": "Fuego", "category": "gift", "tags": ["gift"], "sources": ["osm"], "address": "979 Southcenter Mall"}, "geometry": {"type": "Point", "coordinates": [-122.2578207, 47.4592443]}}, {"type": "Feature", "properties": {"id": 502330119, "name": "Daiso Japan", "category": "variety_store", "tags": ["variety-store"], "sources": ["osm"], "address": "1378 Southcenter Mall"}, "geometry": {"type": "Point", "coordinates": [-122.2558468, 47.4593561]}}, {"type": "Feature", "properties": {"id": 502330142, "name": "Soma", "category": "clothes", "tags": ["clothes"], "sources": ["osm"], "address": "260 Southcenter Mall"}, "geometry": {"type": "Point", "coordinates": [-122.2598843, 47.4592314]}}, {"type": "Feature", "properties": {"id": 502537477, "name": "Zumiez", "category": "clothes", "tags": ["clothes"], "sources": ["osm", "overture"], "website": "http://www.zumiez.com/", "phone": "+12062419170", "address": "100 Southcenter Mall"}, "geometry": {"type": "Point", "coordinates": [-122.2584919, 47.4585112]}}, {"type": "Feature", "properties": {"id": 12712316158, "name": "Pro Image Sports", "category": "sports", "tags": ["sports", "wheelchair-accessible"], "sources": ["osm"]}, "geometry": {"type": "Point", "coordinates": [-122.2577846, 47.4588715]}}, {"type": "Feature", "properties": {"id": 4928332716, "name": "Soho Fashion", "category": "clothes", "tags": ["clothes"], "sources": ["osm"]}, "geometry": {"type": "Point", "coordinates": [-122.2587065, 47.4591007]}}, {"type": "Feature", "properties": {"id": 502330018, "name": "Pink", "category": "clothes", "tags": ["clothes"], "sources": ["osm"]}, "geometry": {"type": "Point", "coordinates": [-122.2586568, 47.4583963]}}, {"type": "Feature", "properties": {"id": 502330032, "name": "Apple Store", "category": "electronics", "tags": ["electronics"], "sources": ["osm"], "website": "https://www.apple.com/retail/southcenter", "phone": "+1-206-288-4400", "address": "801 Southcenter Mall", "hours": "Mo-Sa 10:00-21:00; Su 11:00-19:00"}, "geometry": {"type": "Point", "coordinates": [-122.2581498, 47.4588481]}}, {"type": "Feature", "properties": {"id": 502330113, "name": "Foot Locker", "category": "shoes", "tags": ["shoes", "shoe"], "sources": ["osm", "overture"], "website": "https://stores.footlocker.com/wa/tukwila/1051-southcenter-mall-7010.html", "phone": "+12062443383", "address": "1051 Southcenter Mall"}, "geometry": {"type": "Point", "coordinates": [-122.2570613, 47.4588459]}}, {"type": "Feature", "properties": {"id": 502330132, "name": "Champs Sports", "category": "sports", "tags": ["sports"], "sources": ["osm"], "website": "https://stores.champssports.com/wa/tukwila/1030-southcenter-mall-14498.html"}, "geometry": {"type": "Point", "coordinates": [-122.2572784, 47.4593698]}}, {"type": "Feature", "properties": {"id": "a9e06b33-a463-40e1-9950-1961252ed0ee", "name": "Zayra\u2019s Fashion", "category": "clothes", "tags": ["clothes", "womens"], "sources": ["overture"], "address": "535 Southcenter Mall"}, "geometry": {"type": "Point", "coordinates": [-122.2595062, 47.4586754]}}, {"type": "Feature", "properties": {"id": 502330095, "name": "Hatstop", "category": "clothes", "tags": ["clothes"], "sources": ["osm"], "address": "812 Southcenter Mall"}, "geometry": {"type": "Point", "coordinates": [-122.2578586, 47.4591665]}}, {"type": "Feature", "properties": {"id": 502330019, "name": "Swarovski", "category": "jewelry", "tags": ["jewelry"], "sources": ["osm", "overture"], "website": "http://swarovski.com/", "phone": "+12062424830", "address": "636 Southcenter Mall"}, "geometry": {"type": "Point", "coordinates": [-122.2587181, 47.4583201]}}, {"type": "Feature", "properties": {"id": 6624926541, "name": "One Stop Wireless", "category": "mobile_phone", "tags": ["mobile-phone"], "sources": ["osm"]}, "geometry": {"type": "Point", "coordinates": [-122.2569725, 47.4590999]}}, {"type": "Feature", "properties": {"id": 502329995, "name": "Lego", "category": "toys", "tags": ["toys"], "sources": ["osm"]}, "geometry": {"type": "Point", "coordinates": [-122.2580311, 47.4580706]}}, {"type": "Feature", "properties": {"id": 502330082, "name": "American Eagle Outfitters", "category": "clothes", "tags": ["clothes"], "sources": ["osm", "overture"], "website": "https://storelocations.ae.com/us/wa/seattle/610-southcenter-mall.html", "phone": "+12062422593", "address": "610 Southcenter Mall"}, "geometry": {"type": "Point", "coordinates": [-122.2586539, 47.4593237]}}, {"type": "Feature", "properties": {"id": 502537483, "name": "Journeys", "category": "shoes", "tags": ["shoes", "shoe"], "sources": ["osm", "overture"], "website": "https://www.journeys.com/store/journeys-southcenter-westfield-mall", "phone": "2062441161", "address": "2477 Southcenter Mall"}, "geometry": {"type": "Point", "coordinates": [-122.2589984, 47.4580356]}}, {"type": "Feature", "properties": {"id": 502330084, "name": "PacSun", "category": "clothes", "tags": ["clothes"], "sources": ["osm", "overture"], "website": "http://www.pacsun.com/", "phone": "+12062465525", "address": "650 Southcenter Mall"}, "geometry": {"type": "Point", "coordinates": [-122.2583989, 47.4593674]}}, {"type": "Feature", "properties": {"id": 502330110, "name": "Hot Topic", "category": "clothes", "tags": ["clothes"], "sources": ["osm", "overture"], "website": "http://www.hottopic.com/", "phone": "+12062445021", "address": "1036 Southcenter Mall"}, "geometry": {"type": "Point", "coordinates": [-122.2572349, 47.4585024]}}, {"type": "Feature", "properties": {"id": "d31d7ecc-0bac-49e4-9bfc-4f8e4de09f28", "name": "The Children's Place", "category": "clothes", "tags": ["clothes", "childrens"], "sources": ["overture"], "website": "https://www.childrensplace.com/us/store/southcenter-tukwila-WA-111322", "phone": "2536969696", "address": "1081 Southcenter Mall"}, "geometry": {"type": "Point", "coordinates": [-122.2567062, 47.4578629]}}, {"type": "Feature", "properties": {"id": 502330101, "name": "Lids", "category": "clothes", "tags": ["clothes", "wheelchair-accessible"], "sources": ["osm"], "address": "990 Southcenter Mall"}, "geometry": {"type": "Point", "coordinates": [-122.2574716, 47.4587275]}}, {"type": "Feature", "properties": {"id": 502330002, "name": "Aldo", "category": "shoes", "tags": ["shoes", "wheelchair-accessible", "shoe"], "sources": ["osm", "overture"], "website": "https://www.aldoshoes.com/us/en_US", "phone": "+12062486478", "address": "2800 Southcenter Mall"}, "geometry": {"type": "Point", "coordinates": [-122.2587391, 47.4580109]}}, {"type": "Feature", "properties": {"id": "18a199f7-dc8f-43b2-8a9a-638ac3dae379", "name": "Helzberg Diamonds", "category": "jewelry", "tags": ["jewelry"], "sources": ["overture"], "website": "http://www.helzberg.com/store-locator/southcenter.do", "phone": "+12064440840", "address": "601 Southcenter Mall"}, "geometry": {"type": "Point", "coordinates": [-122.2591019, 47.45895]}}, {"type": "Feature", "properties": {"id": 502330114, "name": "Windsor", "category": "clothes", "tags": ["clothes"], "sources": ["osm"]}, "geometry": {"type": "Point", "coordinates": [-122.2568354, 47.4588455]}}, {"type": "Feature", "properties": {"id": "14a7a355-6daf-479c-a934-4ef5ae0142ed", "name": "Windsor", "category": "clothes", "tags": ["clothes", "womens"], "sources": ["overture"], "website": "https://www.windsorstore.com/pages/wa-seattle-seattle-westfield-southcenter", "phone": "+18884954957", "address": "2800 Southcenter Mall"}, "geometry": {"type": "Point", "coordinates": [-122.2584915, 47.4578552]}}, {"type": "Feature", "properties": {"id": 502330017, "name": "Build-A-Bear Workshop", "category": "toys", "tags": ["toys"], "sources": ["osm", "overture"], "website": "https://www.buildabear.com/locations?StoreID=330", "phone": "+12063939900", "address": "2800 Southcenter Mall"}, "geometry": {"type": "Point", "coordinates": [-122.2584645, 47.458396]}}, {"type": "Feature", "properties": {"id": "91d6c36e-fdab-41ce-9cdd-7b09d7218c66", "name": "Build-A-Bear Workshop", "category": "toys", "tags": ["toys"], "sources": ["overture"], "website": "https://www.buildabear.com/locations", "phone": "2063939900", "address": "2800 Southcenter Mall"}, "geometry": {"type": "Point", "coordinates": [-122.258522, 47.4575043]}}, {"type": "Feature", "properties": {"id": 502330031, "name": "Vans", "category": "shoes", "tags": ["shoes", "clothes"], "sources": ["osm", "overture"], "website": "https://www.vans.com/?utm_source=yext&utm_medium=fb&utm_campaign=tukwila-wa-official-usa157", "phone": "+12062431546", "address": "811 Southcenter Mall"}, "geometry": {"type": "Point", "coordinates": [-122.258029, 47.458848]}}, {"type": "Feature", "properties": {"id": 502330034, "name": "Abercrombie & Fitch", "category": "clothes", "tags": ["clothes"], "sources": ["osm"]}, "geometry": {"type": "Point", "coordinates": [-122.2584886, 47.4588143]}}, {"type": "Feature", "properties": {"id": 502330033, "name": "Buckle", "category": "clothes", "tags": ["clothes"], "sources": ["osm", "overture"], "website": "https://local.buckle.com/wa/tukwila/clothing-296.html", "phone": "+12062464603", "address": "681 Southcenter Mall"}, "geometry": {"type": "Point", "coordinates": [-122.258295, 47.458814]}}, {"type": "Feature", "properties": {"id": "1eb3ef83-016b-420d-91bb-448bc269d42f", "name": "Buckle", "category": "clothes", "tags": ["clothes"], "sources": ["overture"], "website": "http://www.buckle.com/", "phone": "2062464603", "address": "681 Southcenter Mall"}, "geometry": {"type": "Point", "coordinates": [-122.2579269, 47.4569588]}}, {"type": "Feature", "properties": {"id": "9c681f8c-7c26-4d0b-b3d1-dc19dd617b3f", "name": "Finish Line", "category": "shoes", "tags": ["shoes", "shoe"], "sources": ["overture"], "website": "http://www.finishline.com", "phone": "(206) 431-5510", "address": "1425 Southcenter Mall 1425"}, "geometry": {"type": "Point", "coordinates": [-122.2546082, 47.4571686]}}, {"type": "Feature", "properties": {"id": "86a67cf0-6146-4c93-a1df-0acfc8d99fca", "name": "Finish Line", "category": "shoes", "tags": ["shoes", "shoe"], "sources": ["overture"], "website": "https://stores.finishline.com/wa/seattle/southcenter-mall.html", "phone": "2064315510", "address": "1425 Southcenter Mall Unit 1425"}, "geometry": {"type": "Point", "coordinates": [-122.2553024, 47.4579926]}}, {"type": "Feature", "properties": {"id": "508a5476-a10a-4108-b420-def46da28964", "name": "Finish Line", "category": "shoes", "tags": ["shoes", "shoe"], "sources": ["overture"], "website": "https://stores.finishline.com/wa/seattle/southcenter-mall.html", "phone": "2064315510", "address": "1425 Southcenter Mall 1425"}, "geometry": {"type": "Point", "coordinates": [-122.257637, 47.4592171]}}, {"type": "Feature", "properties": {"id": "9deb8d26-cd7f-4817-85ab-e7f03e96f54a", "name": "Finish Line", "category": "shoes", "tags": ["shoes", "shoe"], "sources": ["overture"], "phone": "2064315510", "address": "1425 Southcenter Mall 1425"}, "geometry": {"type": "Point", "coordinates": [-122.2570038, 47.4577293]}}, {"type": "Feature", "properties": {"id": "6f5bb8cd-61f9-4697-b747-57b49dab9b9b", "name": "Kids Foot Locker", "category": "shoes", "tags": ["shoes", "shoe"], "sources": ["overture"], "website": "https://stores.kidsfootlocker.com/wa/tukwila/1051-southcenter-mall-46582.html", "phone": "+12062461103", "address": "1051 Southcenter Mall"}, "geometry": {"type": "Point", "coordinates": [-122.2570419, 47.459095]}}, {"type": "Feature", "properties": {"id": 12997764147, "name": "JR Furniture", "category": "furniture", "tags": ["furniture"], "sources": ["osm"], "address": "402 Strander Boulevard"}, "geometry": {"type": "Point", "coordinates": [-122.2511888, 47.4563622]}}, {"type": "Feature", "properties": {"id": 426936881, "name": "Macy's", "category": "department_store", "tags": ["department-store", "wheelchair-accessible"], "sources": ["osm"], "website": "https://www.macys.com/stores/wa/tukwila/westfield-southcenter_433.html", "address": "500 Southcenter Mall", "hours": "Mo-Sa 10:00-21:00; Su 11:00-19:00"}, "geometry": {"type": "Point", "coordinates": [-122.2592045, 47.4595315]}}, {"type": "Feature", "properties": {"id": "b1bba28e-1f60-4db5-acdd-fb5043b37e53", "name": "Macy's", "category": "department_store", "tags": ["department-store", "department"], "sources": ["overture"], "website": "https://www.macys.com/stores/wa/tukwila/westfield-southcenter_433.html", "phone": "4256566000", "address": "500 Southcenter Mall"}, "geometry": {"type": "Point", "coordinates": [-122.2590561, 47.4575119]}}, {"type": "Feature", "properties": {"id": 426936880, "name": "JCPenney", "category": "department_store", "tags": ["department-store", "wheelchair-accessible", "department"], "sources": ["osm", "overture"], "website": "http://www.jcpenney.com/", "phone": "+12062460850", "address": "633 Southcenter Mall", "hours": "Mo-Th 11:00-21:00; Fr,Sa 10:00-21:00; Su 11:00-19:00"}, "geometry": {"type": "Point", "coordinates": [-122.2561109, 47.4585371]}}, {"type": "Feature", "properties": {"id": 311357867, "name": "Albert Lee", "category": "furniture", "tags": ["furniture"], "sources": ["osm"], "website": "https://www.albertleeappliance.com/", "address": "404 Strander Boulevard", "hours": "09:00-19:00"}, "geometry": {"type": "Point", "coordinates": [-122.2506097, 47.45644]}}, {"type": "Feature", "properties": {"id": 502329976, "name": "Cell-Tech", "category": "mobile_phone", "tags": ["mobile-phone"], "sources": ["osm"]}, "geometry": {"type": "Point", "coordinates": [-122.2566105, 47.4582399]}}, {"type": "Feature", "properties": {"id": 502329979, "name": "Basic Wear", "category": "clothes", "tags": ["clothes"], "sources": ["osm"]}, "geometry": {"type": "Point", "coordinates": [-122.2568647, 47.4581963]}}, {"type": "Feature", "properties": {"id": 502329983, "name": "H&M", "category": "clothes", "tags": ["clothes"], "sources": ["osm", "overture"], "website": "https://www2.hm.com/en_us/customer-service/shopping-at-hm/store-locator/usa/tukwila/westfield-southcenter/US0159.html?utm_source=overture_location&utm_medium=organic&utm_content=US0159&utm_campaign=pi_USQ00AAU0AA004", "phone": "+1-855-466-7467", "address": "867 Southcenter"}, "geometry": {"type": "Point", "coordinates": [-122.2575725, 47.4581121]}}, {"type": "Feature", "properties": {"id": 502329984, "name": "Shoe Palace", "category": "shoes", "tags": ["shoes"], "sources": ["osm"]}, "geometry": {"type": "Point", "coordinates": [-122.2573773, 47.4581247]}}, {"type": "Feature", "properties": {"id": "e753cc45-2919-45b3-88f7-be92378ae203", "name": "Shoe Palace", "category": "shoes", "tags": ["shoes", "shoe"], "sources": ["overture"], "phone": "2064960218", "address": "2800 SOUTHCENTER Mall Ste 1420"}, "geometry": {"type": "Point", "coordinates": [-122.2594528, 47.4576302]}}, {"type": "Feature", "properties": {"id": 502329987, "name": "Fast-Fix", "category": "jewelry", "tags": ["jewelry"], "sources": ["osm"]}, "geometry": {"type": "Point", "coordinates": [-122.2572431, 47.45813]}}, {"type": "Feature", "properties": {"id": 502329994, "name": "Hollister", "category": "clothes", "tags": ["clothes"], "sources": ["osm"]}, "geometry": {"type": "Point", "coordinates": [-122.2579304, 47.4580478]}}, {"type": "Feature", "properties": {"id": 502329997, "name": "Top to Bottom", "category": "clothes", "tags": ["clothes"], "sources": ["osm"]}, "geometry": {"type": "Point", "coordinates": [-122.2582516, 47.4580538]}}, {"type": "Feature", "properties": {"id": 502330128, "name": "Top to Bottom", "category": "clothes", "tags": ["clothes"], "sources": ["osm"]}, "geometry": {"type": "Point", "coordinates": [-122.2564816, 47.4592728]}}, {"type": "Feature", "properties": {"id": 502329998, "name": "MAC Cosmetics", "category": "cosmetics", "tags": ["cosmetics"], "sources": ["osm"]}, "geometry": {"type": "Point", "coordinates": [-122.2583728, 47.4580465]}}, {"type": "Feature", "properties": {"id": 502330001, "name": "Kay Jewelers", "category": "jewelry", "tags": ["jewelry"], "sources": ["osm", "overture"], "website": "http://www.kay.com/", "phone": "2062465267", "address": "667 Southcenter Mall Westfield Southcenter"}, "geometry": {"type": "Point", "coordinates": [-122.2586204, 47.4580048]}}, {"type": "Feature", "properties": {"id": "8705ad22-a9b5-44c0-81fa-2ff400bbf300", "name": "KAY Jewelers", "category": "jewelry", "tags": ["jewelry"], "sources": ["overture"], "website": "https://www.kay.com/", "phone": "+12062465267", "address": "667 Southcenter Mall"}, "geometry": {"type": "Point", "coordinates": [-122.2579651, 47.4588776]}}, {"type": "Feature", "properties": {"id": 502330003, "name": "Morphe", "category": "cosmetics", "tags": ["cosmetics"], "sources": ["osm"]}, "geometry": {"type": "Point", "coordinates": [-122.2588681, 47.4580189]}}, {"type": "Feature", "properties": {"id": 502330004, "name": "Lucky Brand", "category": "clothes", "tags": ["clothes"], "sources": ["osm"]}, "geometry": {"type": "Point", "coordinates": [-122.2590023, 47.4580255]}}, {"type": "Feature", "properties": {"id": 502330028, "name": "Journeys Kidz", "category": "shoes", "tags": ["shoes", "wheelchair-accessible", "clothes", "childrens", "shoe"], "sources": ["osm", "overture"], "website": "http://www.journeyskidz.com", "phone": "(206) 241-4670", "address": "991 Southcenter Mall"}, "geometry": {"type": "Point", "coordinates": [-122.2577884, 47.4587941]}}, {"type": "Feature", "properties": {"id": 502330039, "name": "Charlotte Russe", "category": "clothes", "tags": ["clothes"], "sources": ["osm", "overture"], "website": "http://charlotterusse.com/", "phone": "+12062410898", "address": "2800 Southcenter Mall"}, "geometry": {"type": "Point", "coordinates": [-122.258735, 47.4588696]}}, {"type": "Feature", "properties": {"id": 502330049, "name": "Helzberg Jewelers", "category": "jewelry", "tags": ["jewelry"], "sources": ["osm"]}, "geometry": {"type": "Point", "coordinates": [-122.2590334, 47.4589412]}}, {"type": "Feature", "properties": {"id": 502330054, "name": "Michael Kors", "category": "clothes", "tags": ["clothes"], "sources": ["osm", "overture"], "website": "http://www.michaelkors.com/", "phone": "+12062140112", "address": "515 Southcenter Mall"}, "geometry": {"type": "Point", "coordinates": [-122.2594572, 47.4587583]}}, {"type": "Feature", "properties": {"id": 502330061, "name": "Leggings Park", "category": "clothes", "tags": ["clothes"], "sources": ["osm"]}, "geometry": {"type": "Point", "coordinates": [-122.2595139, 47.4584344]}}, {"type": "Feature", "properties": {"id": "8edc3757-c810-4009-aa25-4277d88a4f2c", "name": "Leggings Park", "category": "clothes", "tags": ["clothes"], "sources": ["overture"], "website": "http://www.leggingspark.com", "phone": "+12068299121", "address": "846 Southcenter Mall"}, "geometry": {"type": "Point", "coordinates": [-122.2579803, 47.4586716]}}, {"type": "Feature", "properties": {"id": 502330083, "name": "Louisa", "category": "jewelry", "tags": ["jewelry"], "sources": ["osm"], "address": "630 Southcenter Mall"}, "geometry": {"type": "Point", "coordinates": [-122.2585112, 47.4593234]}}, {"type": "Feature", "properties": {"id": 502330091, "name": "BoxLunch", "category": "gift", "tags": ["gift"], "sources": ["osm"], "address": "810 Southcenter Mall"}, "geometry": {"type": "Point", "coordinates": [-122.2579447, 47.4592471]}}, {"type": "Feature", "properties": {"id": 502330096, "name": "Perfume Obsession", "category": "cosmetics", "tags": ["cosmetics"], "sources": ["osm"]}, "geometry": {"type": "Point", "coordinates": [-122.257368, 47.4589846]}}, {"type": "Feature", "properties": {"id": 502330102, "name": "Pheona's Jewelers", "category": "jewelry", "tags": ["jewelry", "wheelchair-accessible"], "sources": ["osm", "overture"], "website": "http://pheonasjewelers.com/", "phone": "+12062462436", "address": "992 Southcenter Mall"}, "geometry": {"type": "Point", "coordinates": [-122.2574717, 47.4586817]}}, {"type": "Feature", "properties": {"id": 502330112, "name": "Shiekh", "category": "clothes", "tags": ["clothes"], "sources": ["osm"]}, "geometry": {"type": "Point", "coordinates": [-122.2572703, 47.4588498]}}, {"type": "Feature", "properties": {"id": 502330115, "name": "Custom Jewelers", "category": "jewelry", "tags": ["jewelry"], "sources": ["osm"]}, "geometry": {"type": "Point", "coordinates": [-122.2566523, 47.4588064]}}, {"type": "Feature", "properties": {"id": 502330116, "name": "Smart Fix", "category": "mobile_phone", "tags": ["mobile-phone"], "sources": ["osm"]}, "geometry": {"type": "Point", "coordinates": [-122.2566078, 47.459009]}}, {"type": "Feature", "properties": {"id": 502330125, "name": "Rolife", "category": "gift", "tags": ["gift", "wheelchair-accessible"], "sources": ["osm"]}, "geometry": {"type": "Point", "coordinates": [-122.2562612, 47.4592279]}}, {"type": "Feature", "properties": {"id": 502330136, "name": "Zales", "category": "jewelry", "tags": ["jewelry"], "sources": ["osm", "overture"], "website": "https://www.zales.com", "phone": "+12062466424", "address": "1000 Southcenter Mall"}, "geometry": {"type": "Point", "coordinates": [-122.2575499, 47.4592814]}}, {"type": "Feature", "properties": {"id": 502330139, "name": "JD Sports", "category": "sports", "tags": ["sports"], "sources": ["osm"]}, "geometry": {"type": "Point", "coordinates": [-122.2568605, 47.4593691]}}, {"type": "Feature", "properties": {"id": 502330140, "name": "Cascabel", "category": "clothes", "tags": ["clothes"], "sources": ["osm"]}, "geometry": {"type": "Point", "coordinates": [-122.2566387, 47.4593687]}}, {"type": "Feature", "properties": {"id": 502537466, "name": "Custom Creations", "category": "clothes", "tags": ["clothes", "wheelchair-accessible", "gift"], "sources": ["osm", "overture"], "phone": "+19293488474", "address": "2897 Southcenter Mall"}, "geometry": {"type": "Point", "coordinates": [-122.2566534, 47.4581973]}}, {"type": "Feature", "properties": {"id": 502537467, "name": "Body Jewelry Plus", "category": "jewelry", "tags": ["jewelry"], "sources": ["osm"]}, "geometry": {"type": "Point", "coordinates": [-122.2566551, 47.4585902]}}, {"type": "Feature", "properties": {"id": 502537471, "name": "Eddie's Jewelry", "category": "jewelry", "tags": ["jewelry"], "sources": ["osm"]}, "geometry": {"type": "Point", "coordinates": [-122.257315, 47.4584628]}}, {"type": "Feature", "properties": {"id": 502537474, "name": "Just Cozy", "category": "clothes", "tags": ["clothes", "wheelchair-accessible"], "sources": ["osm"]}, "geometry": {"type": "Point", "coordinates": [-122.2581059, 47.4585293]}}, {"type": "Feature", "properties": {"id": 502537475, "name": "Tillys", "category": "clothes", "tags": ["clothes"], "sources": ["osm", "overture"], "website": "https://www.tillys.com/store/?StoreID=0274&utm_source=Facebook&utm_medium=Local_Directory", "phone": "+12063378655", "address": "2656 Southcenter Mall"}, "geometry": {"type": "Point", "coordinates": [-122.2582977, 47.4585151]}}, {"type": "Feature", "properties": {"id": 502537479, "name": "Aeropostale", "category": "clothes", "tags": ["clothes"], "sources": ["osm", "overture"], "website": "https://stores.aeropostale.com/wa/seattle/2626-southcenter-mall", "phone": "+12062410434", "address": "2626 Southcenter Mall"}, "geometry": {"type": "Point", "coordinates": [-122.2587721, 47.4585161]}}, {"type": "Feature", "properties": {"id": 502537481, "name": "Seattle Team Store", "category": "sports", "tags": ["sports"], "sources": ["osm"]}, "geometry": {"type": "Point", "coordinates": [-122.258956, 47.4585241]}}, {"type": "Feature", "properties": {"id": 705265236, "name": "Macy's Backstage", "category": "department_store", "tags": ["department-store", "variety-store", "discount"], "sources": ["osm", "overture"], "website": "https://www.macys.com/stores/backstage/wa/tukwila/westfield-southcenter_433b.html", "phone": "+14256566000", "address": "500 Southcenter Mall", "hours": "Mo-Sa 10:00-21:00; Su 11:00-19:00"}, "geometry": {"type": "Point", "coordinates": [-122.2592068, 47.4595315]}}, {"type": "Feature", "properties": {"id": 993403337, "name": "Puetz Golf Tukwila Superstore", "category": "sports", "tags": ["sports"], "sources": ["osm"], "address": "402 Strander Boulevard"}, "geometry": {"type": "Point", "coordinates": [-122.2516082, 47.4564598]}}, {"type": "Feature", "properties": {"id": 1188337802, "name": "Gilly Hicks", "category": "clothes", "tags": ["clothes"], "sources": ["osm"]}, "geometry": {"type": "Point", "coordinates": [-122.2577571, 47.4580589]}}, {"type": "Feature", "properties": {"id": "74eab7d9-0d0d-48a2-8890-ae3df2245479", "name": "Lovesac", "category": "furniture", "tags": ["furniture"], "sources": ["overture"], "website": "http://www.lovesac.com/", "phone": "+12532381250", "address": "827 Southcenter Mall"}, "geometry": {"type": "Point", "coordinates": [-122.2582932, 47.4578133]}}, {"type": "Feature", "properties": {"id": "3bf6821b-4915-4d2a-8fcd-ff1abbecdc80", "name": "Sherwin-Williams", "category": "hardware", "tags": ["hardware"], "sources": ["overture"], "website": "https://www.sherwin-williams.com/store-locator/paint-store/tukwila/wa/722708", "phone": "+12064307888", "address": "300 Andover Park W"}, "geometry": {"type": "Point", "coordinates": [-122.2531815, 47.4545326]}}, {"type": "Feature", "properties": {"id": "4ca11748-83a5-44df-90ef-8a64707f90ec", "name": "AT&T Store", "category": "mobile_phone", "tags": ["mobile-phone", "mobile"], "sources": ["overture"], "website": "https://www.att.com/stores/washington/seattle/111644?source=E-Fls10000000000X&wtExtndSource=website", "phone": "+12065312798", "address": "2800 Southcenter Mall"}, "geometry": {"type": "Point", "coordinates": [-122.2560043, 47.4581299]}}, {"type": "Feature", "properties": {"id": "ab308004-89ed-49f0-a212-70067b7b8a63", "name": "Sprint Store", "category": "mobile_phone", "tags": ["mobile-phone", "mobile"], "sources": ["overture"], "phone": "2062461520", "address": "100 Andover Park W 110"}, "geometry": {"type": "Point", "coordinates": [-122.254303, 47.4597816]}}, {"type": "Feature", "properties": {"id": "4af48ba8-2242-41cf-b343-76349c38d615", "name": "Total Wine & More", "category": "alcohol", "tags": ["alcohol"], "sources": ["overture"], "website": "https://www.totalwine.com/store-info/washington-tukwila/1402?cid=referral%3Awebsite_link%3A%3Amomentfeed%3A1402_tukwila_store_details_page%3A", "phone": "+12065756280", "address": "300 Andover Park W"}, "geometry": {"type": "Point", "coordinates": [-122.253067, 47.4546204]}}, {"type": "Feature", "properties": {"id": "46750d42-5304-43ea-ac40-38fc5a4ea7e6", "name": "Things Remembered", "category": "gift", "tags": ["gift"], "sources": ["overture"], "website": "http://locations.thingsremembered.com/tukwila-wa-98188", "phone": "2062463521", "address": "1011 Southcenter Mall"}, "geometry": {"type": "Point", "coordinates": [-122.2586136, 47.4575119]}}, {"type": "Feature", "properties": {"id": "53b8df22-40c4-451a-b1a7-f0f0424000a1", "name": "Things Remembered", "category": "gift", "tags": ["gift"], "sources": ["overture"], "website": "http://locations.thingsremembered.com/tukwila-wa-98188", "phone": "(206) 246-3521", "address": "1011 Southcenter Mall"}, "geometry": {"type": "Point", "coordinates": [-122.2584839, 47.4590034]}}, {"type": "Feature", "properties": {"id": "0945cece-e062-4f00-b500-a8184f4d839e", "name": "Claire's", "category": "jewelry", "tags": ["jewelry"], "sources": ["overture"], "website": "http://www.claires.com/", "phone": "+12062430845", "address": "100 Southcenter Mall"}, "geometry": {"type": "Point", "coordinates": [-122.2574539, 47.458416]}}, {"type": "Feature", "properties": {"id": "907bf8da-f0b5-4a97-ac47-802617bc24b0", "name": "Abercrombie Kids", "category": "clothes", "tags": ["clothes"], "sources": ["overture"], "website": "https://www.abercrombie.com/shop/us/clothing-stores/US/Seattle/WA/21620?cmp=Yext%7CNaturalSearch%7CLocal%7CFacebook%7C21620", "phone": "+12064392355", "address": "661 Southcenter Mall"}, "geometry": {"type": "Point", "coordinates": [-122.2585068, 47.4586868]}}, {"type": "Feature", "properties": {"id": "fbeb2b29-bbb8-4193-82a9-5ce004f1ff6e", "name": "Aerosoles", "category": "shoes", "tags": ["shoes", "shoe"], "sources": ["overture"], "website": "http://aerosoles.com/", "phone": "2062414785", "address": "690 Southcenter Mall 224"}, "geometry": {"type": "Point", "coordinates": [-122.2582779, 47.4596405]}}, {"type": "Feature", "properties": {"id": "f5639aa8-991d-4668-a0be-d63292aa4494", "name": "Clarks", "category": "shoes", "tags": ["shoes", "shoe"], "sources": ["overture"], "website": "http://www.clarksusa.com/", "phone": "2062442040", "address": "466 Southcenter Westfield Southcenter"}, "geometry": {"type": "Point", "coordinates": [-122.2594452, 47.4575233]}}, {"type": "Feature", "properties": {"id": "70e9dd45-663e-466a-8437-d65f8796fcc7", "name": "Clarks", "category": "shoes", "tags": ["shoes", "shoe"], "sources": ["overture"], "website": "https://www.clarksusa.com/", "phone": "2062442040", "address": "466 Southcenter Mall Ste 1010"}, "geometry": {"type": "Point", "coordinates": [-122.2595444, 47.4587173]}}, {"type": "Feature", "properties": {"id": "860e68b3-0181-426c-a719-f245cad30d1f", "name": "Hollister Co.", "category": "clothes", "tags": ["clothes", "mens"], "sources": ["overture"], "website": "https://www.hollisterco.com/shop/us/clothing-stores/US/Tukwila/WA/31620", "phone": "2063162003", "address": "857 Southcenter Mall"}, "geometry": {"type": "Point", "coordinates": [-122.257843, 47.4575081]}}, {"type": "Feature", "properties": {"id": "6dbaf442-7a27-4f56-91c2-1f06e319b763", "name": "Hollister Co.", "category": "clothes", "tags": ["clothes"], "sources": ["overture"], "website": "https://www.hollisterco.com/shop/us/clothing-stores/US/Tukwila/WA/31620", "phone": "+12063162003", "address": "857 Southcenter Mall"}, "geometry": {"type": "Point", "coordinates": [-122.2596588, 47.4580269]}}, {"type": "Feature", "properties": {"id": "cf1434c9-aaf4-402f-adf7-0e9ac59e24c3", "name": "Disney Store", "category": "gift", "tags": ["gift"], "sources": ["overture"], "website": "https://stores.shopdisney.com/wa/tukwila/357/", "phone": "2062419887", "address": "536 Southcenter Mall"}, "geometry": {"type": "Point", "coordinates": [-122.2584534, 47.456913]}}, {"type": "Feature", "properties": {"id": "4429f416-9b88-4080-889d-2f637c075aa2", "name": "Jos. A. Bank", "category": "clothes", "tags": ["clothes", "mens"], "sources": ["overture"], "phone": "2065757838", "address": "321 Strander Blvd"}, "geometry": {"type": "Point", "coordinates": [-122.2567444, 47.4558372]}}, {"type": "Feature", "properties": {"id": "e27ee586-093a-4214-a0b0-1ef5d5787f5b", "name": "SEPHORA at Kohl's", "category": "department_store", "tags": ["department-store", "department"], "sources": ["overture"], "website": "https://www.sephora.com/happening/stores/kohls-at-tukwila?utm_source=extnet&utm_medium=Yext", "phone": "2063940078", "address": "17150 SOUTHCENTER PKWY"}, "geometry": {"type": "Point", "coordinates": [-122.2580719, 47.4500999]}}, {"type": "Feature", "properties": {"id": "c3e8ec78-c101-4c27-8a6e-8d46274819d6", "name": "Darwin's Natural Pet Products", "category": "pet", "tags": ["pet"], "sources": ["overture"], "website": "https://www.darwinspet.com/", "phone": "8777386325", "address": "350 Treck Dr"}, "geometry": {"type": "Point", "coordinates": [-122.2516174, 47.4542313]}}, {"type": "Feature", "properties": {"id": "214adf6b-050d-4668-838b-b684db2bb5d5", "name": "Furniture Factory Direct", "category": "furniture", "tags": ["furniture"], "sources": ["overture"], "website": "http://www.furniturefd.com", "phone": "(206) 241-9277", "address": "402 Strander Blvd #200"}, "geometry": {"type": "Point", "coordinates": [-122.2511292, 47.4564438]}}, {"type": "Feature", "properties": {"id": "5e65f515-abe0-4548-a133-e9cb1b76c76e", "name": "Universal Phones", "category": "mobile_phone", "tags": ["mobile-phone", "mobile"], "sources": ["overture"], "website": "http://www.universal-phones.com/", "phone": "+12064768832", "address": "407 Baker Blvd"}, "geometry": {"type": "Point", "coordinates": [-122.2512131, 47.4579506]}}, {"type": "Feature", "properties": {"id": "bf527003-b44d-44d2-aee8-2c2b8d1f06b7", "name": "Amy's Hallmark Shop", "category": "gift", "tags": ["gift"], "sources": ["overture"], "website": "https://stores.hallmark.com/wa/tukwila/amys-hallmark-shop-tukwila-wa-027880.html", "phone": "2062428046", "address": "2867 Southcenter Mall Ste 2220"}, "geometry": {"type": "Point", "coordinates": [-122.255127, 47.4580841]}}, {"type": "Feature", "properties": {"id": "7c197076-c2aa-48de-ac0a-dd9f7c6eb442", "name": "Seafood City", "category": "supermarket", "tags": ["supermarket"], "sources": ["overture"], "website": "http://www.seafoodcity.com", "phone": "(206) 316-4258", "address": "1368 Southcenter Mall #100"}, "geometry": {"type": "Point", "coordinates": [-122.2558212, 47.4598007]}}, {"type": "Feature", "properties": {"id": "6085cfd2-b5d3-4a44-b9af-6249172d2af1", "name": "Food City", "category": "supermarket", "tags": ["supermarket"], "sources": ["overture"], "website": "http://www.foodcity.com/", "phone": "+12062410555", "address": "1368 Southcenter Mall"}, "geometry": {"type": "Point", "coordinates": [-122.256218, 47.4597549]}}, {"type": "Feature", "properties": {"id": "b6c772aa-69c6-4cb5-8c00-f01fa79082b1", "name": "Weisfield Jewelers", "category": "jewelry", "tags": ["jewelry"], "sources": ["overture"], "website": "http://www.weisfieldjewelers.com/", "phone": "2062447440", "address": "291 Southcenter Mall Westfield Southcenter"}, "geometry": {"type": "Point", "coordinates": [-122.2573776, 47.4596138]}}, {"type": "Feature", "properties": {"id": "43b0557c-032d-4016-8348-aa26d67addc3", "name": "ShopFuego", "category": "clothes", "tags": ["clothes"], "sources": ["overture"], "website": "http://www.shopfuego.com/", "phone": "+12063391105", "address": "812 Southcenter Mall"}, "geometry": {"type": "Point", "coordinates": [-122.2577438, 47.4592209]}}, {"type": "Feature", "properties": {"id": "e2180040-a411-4c30-b585-12a2325556a2", "name": "Downeast", "category": "clothes", "tags": ["clothes"], "sources": ["overture"], "website": "http://www.downeastbasics.com", "phone": "(206) 246-1332", "address": "Westfield Southcenter"}, "geometry": {"type": "Point", "coordinates": [-122.2579346, 47.4591293]}}, {"type": "Feature", "properties": {"id": "a06eb2ec-5f4d-4c60-a1e6-7431009748b4", "name": "Dr Martens Southcenter Mall", "category": "shoes", "tags": ["shoes", "shoe"], "sources": ["overture"], "website": "https://www.drmartens.com/us/en", "phone": "(253) 893-3542", "address": "846 Southcenter Mall"}, "geometry": {"type": "Point", "coordinates": [-122.2579956, 47.4586143]}}, {"type": "Feature", "properties": {"id": "6952d852-ad22-41ce-b65f-e087d0e97e83", "name": "Dr. Martens Southcenter Mall", "category": "shoes", "tags": ["shoes", "shoe"], "sources": ["overture"], "website": "https://www.drmartens.com/us/en/", "phone": "2538933542", "address": "846 Southcenter Mall"}, "geometry": {"type": "Point", "coordinates": [-122.2586136, 47.4575119]}}, {"type": "Feature", "properties": {"id": "56720283-b0f6-4ac7-a235-c73cb4f34ada", "name": "Mind Games", "category": "toys", "tags": ["toys"], "sources": ["overture"], "website": "https://www.mindgamesandtoys.com", "phone": "(206) 241-6463", "address": "250 Southcenter Mall"}, "geometry": {"type": "Point", "coordinates": [-122.2575912, 47.4589233]}}, {"type": "Feature", "properties": {"id": "21f5ec4a-d5fb-4fcc-9cef-932014c84342", "name": "AK Custom Jewelers", "category": "jewelry", "tags": ["jewelry"], "sources": ["overture"], "phone": "+12064202045", "address": "1081 Southcenter Mall"}, "geometry": {"type": "Point", "coordinates": [-122.2573853, 47.4588127]}}, {"type": "Feature", "properties": {"id": "af9bde10-f308-4a16-a767-6d58573ea714", "name": "Shiekh Shoes", "category": "shoes", "tags": ["shoes", "shoe"], "sources": ["overture"], "website": "http://www.shiekhshoes.com", "phone": "+12062421130", "address": "1031 Southcenter Mall"}, "geometry": {"type": "Point", "coordinates": [-122.2572861, 47.45895]}}, {"type": "Feature", "properties": {"id": "17afb9a9-55d7-4304-b782-75ff7fedfdb5", "name": "Gymboree", "category": "clothes", "tags": ["clothes", "childrens"], "sources": ["overture"], "website": "http://www.gymboree.com", "phone": "(206) 246-8997", "address": "1056 South Center Mall"}, "geometry": {"type": "Point", "coordinates": [-122.257019, 47.4587555]}}, {"type": "Feature", "properties": {"id": "8d023d4f-3394-459d-9517-2c06090fcd7b", "name": "Eddie's Jewelry Service", "category": "jewelry", "tags": ["jewelry"], "sources": ["overture"], "website": "https://www.eddiesjewelry.com/", "phone": "+12538808090", "address": "2800 Southcenter Mall"}, "geometry": {"type": "Point", "coordinates": [-122.256813, 47.4592857]}}, {"type": "Feature", "properties": {"id": "b065f9f4-9830-4ad5-b665-2dd460222a80", "name": "Sanrio", "category": "gift", "tags": ["gift"], "sources": ["overture"], "website": "http://www.sanrio.com", "phone": "(206) 246-4643", "address": "1067 Southcenter Mall"}, "geometry": {"type": "Point", "coordinates": [-122.256958, 47.4580383]}}, {"type": "Feature", "properties": {"id": "202e7e08-24f9-4622-bc6c-4fa2016f64ca", "name": "LEGO Store", "category": "toys", "tags": ["toys"], "sources": ["overture"], "phone": "(206) 243-1554", "address": "837 Southcenter Mall"}, "geometry": {"type": "Point", "coordinates": [-122.2580948, 47.4581566]}}, {"type": "Feature", "properties": {"id": "d5340ad6-c62c-42df-9c0d-19827b40c6da", "name": "The LEGO Store Southcenter", "category": "toys", "tags": ["toys"], "sources": ["overture"], "website": "http://stores.lego.com/en-us/stores/us/westfield-southcenter?utm_source=Facebook&utm_medium=Yext&y_source=1_MTY2ODY4ODItNTU5LWxvY2F0aW9uLndlYnNpdGU%3D", "phone": "+14254416929", "address": "633 Southcenter Mall"}, "geometry": {"type": "Point", "coordinates": [-122.2579498, 47.4580727]}}, {"type": "Feature", "properties": {"id": "91d87edb-6a11-40f3-ad73-03d0dc7d646d", "name": "Fast-Fix Jewelry and Watch Repairs", "category": "jewelry", "tags": ["jewelry"], "sources": ["overture"], "website": "http://www.fastfix.com", "phone": "+12064393999", "address": "1129 Southcenter Mall"}, "geometry": {"type": "Point", "coordinates": [-122.2572861, 47.4581223]}}, {"type": "Feature", "properties": {"id": "83d88ac7-d4c0-44bd-916c-baabeb851388", "name": "FYE", "category": "toys", "tags": ["toys"], "sources": ["overture"], "website": "https://stores.fye.com/wa/tukwila/2636-southcenter-mall.html", "phone": "(206) 439-3636", "address": "2636 Southcenter Mall"}, "geometry": {"type": "Point", "coordinates": [-122.2586594, 47.4584084]}}, {"type": "Feature", "properties": {"id": "19a055c0-017e-4928-ad5d-574264a93825", "name": "Banter by Piecing Pagoda", "category": "jewelry", "tags": ["jewelry"], "sources": ["overture"], "website": "https://stores.banter.com/wa/tukwila/1008?cid=seo-listings", "phone": "+12062412370", "address": "633 Southcenter Mall"}, "geometry": {"type": "Point", "coordinates": [-122.2588348, 47.4578743]}}, {"type": "Feature", "properties": {"id": "fa15bd25-3f11-4687-bc6b-b77ebe1bfb22", "name": "Seattle Fast Fix Jewelry Repair", "category": "jewelry", "tags": ["jewelry"], "sources": ["overture"], "website": "http://www.fastfix.com", "phone": "(206) 439-3999", "address": "1129 Southcenter Mall"}, "geometry": {"type": "Point", "coordinates": [-122.2584534, 47.4580307]}}, {"type": "Feature", "properties": {"id": "bf259e4c-8537-42d8-a517-8f30a62bed58", "name": "Top To Bottom Tukwila | Tukwila WA", "category": "clothes", "tags": ["clothes", "mens"], "sources": ["overture"], "phone": "+12065356079", "address": "817 Southcenter Mall"}, "geometry": {"type": "Point", "coordinates": [-122.2583008, 47.458046]}}, {"type": "Feature", "properties": {"id": "1d42d728-6c0e-40c8-b483-f526df99715b", "name": "Banter by Piercing Pagoda", "category": "jewelry", "tags": ["jewelry"], "sources": ["overture"], "website": "https://www.banter.com", "phone": "+12064337478", "address": "2800 Southcenter Mall"}, "geometry": {"type": "Point", "coordinates": [-122.2594528, 47.4576225]}}, {"type": "Feature", "properties": {"id": "0c53ccca-5488-4b11-a201-d6975be85170", "name": "Greenwise Dispensary Line", "category": "cannabis", "tags": ["cannabis"], "sources": ["overture"], "website": "http://greenwisedispensaryline.com", "phone": "(530) 324-5086"}, "geometry": {"type": "Point", "coordinates": [-122.2594528, 47.4576225]}}, {"type": "Feature", "properties": {"id": "53ef4408-ed54-4d5f-bd64-f5cf2a23d8f6", "name": "Grow House Dispensary", "category": "cannabis", "tags": ["cannabis"], "sources": ["overture"], "website": "http://growhousedispensaryline.com", "phone": "(530) 324-5086", "address": "2800 Southcenter Mall,"}, "geometry": {"type": "Point", "coordinates": [-122.2594528, 47.4576225]}}, {"type": "Feature", "properties": {"id": "0d1284df-5fc7-4670-9b17-5f43a67e2ff9", "name": "Centurylink", "category": "mobile_phone", "tags": ["mobile-phone", "mobile"], "sources": ["overture"], "website": "http://centurylink.com", "phone": "+12062468225", "address": "913 Southcenter Mall"}, "geometry": {"type": "Point", "coordinates": [-122.2597504, 47.4591179]}}, {"type": "Feature", "properties": {"id": "eac843c7-33e5-447a-a347-b4bdc2cebf8b", "name": "Go! Calendars, Toys and Games", "category": "toys", "tags": ["toys"], "sources": ["overture"], "website": "http://www.calendarholdings.com/", "phone": "+12062420830", "address": "536 Southcenter Mall"}, "geometry": {"type": "Point", "coordinates": [-122.2581329, 47.4591446]}}, {"type": "Feature", "properties": {"id": 293205533, "name": "Proliance Bone & Joint Urgent Care", "category": "clinic", "tags": ["clinic"], "sources": ["osm"], "address": "150 Andover Park West"}, "geometry": {"type": "Point", "coordinates": [-122.2537941, 47.4586374]}},