{"type": "FeatureCollection", "features": [{"type": "Feature", "properties": {"id": "4eb7f90a-d3d3-4195-a8b8-f39ffb0f1830", "name": "Starbucks", "category": "cafe", "tags": ["cafe", "coffee"], "sources": ["overture"], "website": "https://www.starbucks.com/store-locator/store/11036/", "phone": "+12063811553", "address": "4115 4th Ave S"}, "geometry": {"type": "Point", "coordinates": [-122.329834, 47.5666847]}}, {"type": "Feature", "properties": {"id": 2139809216, "name": "Gangnam Burger", "category": "fast_food", "tags": ["fast-food", "burger", "outdoor-seating", "indoor-seating", "wheelchair-accessible"], "sources": ["osm"], "address": "4117 4th Avenue South"}, "geometry": {"type": "Point", "coordinates": [-122.3298999, 47.5666776]}}, {"type": "Feature", "properties": {"id": 2350311294, "name": "Teriyaki Plus", "category": "restaurant", "tags": ["restaurant", "japanese", "asian"], "sources": ["osm", "overture"], "website": "http://www.urbanspoon.com/r/1/3820/restaurant/Georgetown/Teriyaki-Plus-Airport-Way-Seattle", "phone": "+12066244890", "address": "4001 Airport Way S"}, "geometry": {"type": "Point", "coordinates": [-122.3228984, 47.5679203]}}, {"type": "Feature", "properties": {"id": 226177402, "name": "Jack's BBQ", "category": "restaurant", "tags": ["restaurant", "barbecue", "american", "southern"], "sources": ["osm", "overture"], "website": "http://jacksbbq.com/", "phone": "+12064674038", "address": "3924 Airport Way S", "hours": "Mo 11:00-14:00; Su, Tu-Th 11:00-20:00; Fr-Sa 11:00-21:00"}, "geometry": {"type": "Point", "coordinates": [-122.3223272, 47.5682712]}}, {"type": "Feature", "properties": {"id": 226177399, "name": "Raney's Bar and Grill", "category": "restaurant", "tags": ["restaurant", "burger", "barbecue", "outdoor-seating"], "sources": ["osm"], "website": "https://www.raneysbarandgrill.com/", "address": "3923 Airport Way South"}, "geometry": {"type": "Point", "coordinates": [-122.322976, 47.5682159]}}, {"type": "Feature", "properties": {"id": "7879320c-a391-44dd-b624-9e57f50a073c", "name": "Uwajimaya", "category": "restaurant", "tags": ["restaurant"], "sources": ["overture"], "website": "http://www.uwajimaya.com", "phone": "(206) 624-3215", "address": "4601 6th Ave S # S"}, "geometry": {"type": "Point", "coordinates": [-122.3275146, 47.5615425]}}, {"type": "Feature", "properties": {"id": "38807d81-acc0-4aeb-b4bc-9d9c9573c70d", "name": "Le Gourmand", "category": "restaurant", "tags": ["restaurant", "french", "european"], "sources": ["overture"], "website": "http://www.legourmandrestaurant.com/", "phone": "+12067843463", "address": "4100 4th Ave S"}, "geometry": {"type": "Point", "coordinates": [-122.3288956, 47.5658798]}}, {"type": "Feature", "properties": {"id": "5e8d2db9-ef55-4545-a2b9-2e5e604bd395", "name": "Taqueria El Mirador", "category": "fast_food", "tags": ["fast-food", "food", "truck"], "sources": ["overture"], "phone": "+12064757729", "address": "3838 4th Ave S"}, "geometry": {"type": "Point", "coordinates": [-122.3285904, 47.5686493]}}, {"type": "Feature", "properties": {"id": "a78637e3-861a-4f03-bb66-f31a78ab9d8b", "name": "Laurelhurst Cellars", "category": "bar", "tags": ["bar", "wine"], "sources": ["overture"], "website": "http://www.laurelhurstcellars.com", "phone": "(206) 992-2875", "address": "3935 9th Ave S"}, "geometry": {"type": "Point", "coordinates": [-122.3216934, 47.5681839]}}, {"type": "Feature", "properties": {"id": 2350311295, "name": "Ontario Hotel", "category": "hotel", "tags": ["hotel"], "sources": ["osm", "overture"], "phone": "+12063437958", "address": "4003 Airport Way S"}, "geometry": {"type": "Point", "coordinates": [-122.3228952, 47.5678553]}}, {"type": "Feature", "properties": {"id": 2350311296, "name": "My Favorite Deli!", "category": "deli", "tags": ["deli"], "sources": ["osm"], "phone": "+1-206-467-1120", "address": "4005 Airport Way South"}, "geometry": {"type": "Point", "coordinates": [-122.3228918, 47.5677825]}}, {"type": "Feature", "properties": {"id": 9847318318, "name": "DH Lighting", "category": "hardware", "tags": ["hardware"], "sources": ["osm"], "phone": "+1-206-708-1528"}, "geometry": {"type": "Point", "coordinates": [-122.3285868, 47.5691848]}}, {"type": "Feature", "properties": {"id": "7e85665c-14a9-4407-b6df-c1452a6fe7b3", "name": "Atlas Supply", "category": "hardware", "tags": ["hardware"], "sources": ["overture"], "website": "https://www.becn.com/?utm_source=fb&utm_medium=yext&y_source=1_MjY2ODQ1ODMtNTU5LWxvY2F0aW9uLndlYnNpdGU%3D", "phone": "+12066234697", "address": "611 S Charlestown St"}, "geometry": {"type": "Point", "coordinates": [-122.3256836, 47.5695229]}}, {"type": "Feature", "properties": {"id": "0b42f8d6-347d-4ac8-9573-ca74b07ed20f", "name": "QXO", "category": "doityourself", "tags": ["doityourself", "building", "supply"], "sources": ["overture"], "website": "https://www.qxo.com/", "phone": "2066234697", "address": "611 S Charlestown St"}, "geometry": {"type": "Point", "coordinates": [-122.3256683, 47.5694771]}}, {"type": "Feature", "properties": {"id": "6c08e4c9-251a-476b-beb2-5804eeb4cd8c", "name": "Akrofi adjumani", "category": "clothes", "tags": ["clothes", "womens"], "sources": ["overture"], "website": "https://www.akrofiadjumani.com/", "phone": "2064872633", "address": "Suite #9, 3828 4th Ave S"}, "geometry": {"type": "Point", "coordinates": [-122.3287354, 47.5692215]}}, {"type": "Feature", "properties": {"id": "8b958004-6fb1-4662-908e-88c20adfbabf", "name": "Rodda Paint", "category": "hardware", "tags": ["hardware"], "sources": ["overture"], "website": "https://www.roddapaint.com/locations/fourth-south/", "phone": "+12066520445", "address": "3838 4th Ave S"}, "geometry": {"type": "Point", "coordinates": [-122.3285828, 47.5685921]}}, {"type": "Feature", "properties": {"id": "37994792-af64-4f1d-8afb-821fe10f02e4", "name": "Food Lifeline", "category": "supermarket", "tags": ["supermarket"], "sources": ["overture"], "website": "http://www.foodlifeline.org", "phone": "+12068596725", "address": "4011 6th Ave S"}, "geometry": {"type": "Point", "coordinates": [-122.3274689, 47.5676994]}}, {"type": "Feature", "properties": {"id": "018d0dce-23e4-4892-a7c6-14fe82b4afa6", "name": "Beacon Waterproofing Products", "category": "doityourself", "tags": ["doityourself", "building", "supply"], "sources": ["overture"], "website": "https://becn.com", "phone": "(206) 623-4697", "address": "611 S Charlestown St"}, "geometry": {"type": "Point", "coordinates": [-122.3256836, 47.5695038]}}, {"type": "Feature", "properties": {"id": "1b5fcbcf-4ab8-4809-bfa6-b2fcb71a8666", "name": "Hollywood Lights", "category": "furniture", "tags": ["furniture"], "sources": ["overture"], "website": "http://hollywoodlights.biz/index.php/en/", "phone": "(206) 292-2353", "address": "660 S Dakota St"}, "geometry": {"type": "Point", "coordinates": [-122.3250732, 47.5675011]}}, {"type": "Feature", "properties": {"id": "5de1a80e-ff1d-4b11-9859-aacd8444f322", "name": "Seattle Barrel Co", "category": "doityourself", "tags": ["doityourself", "building", "supply"], "sources": ["overture"], "website": "http://www.seattlebarrel.com/", "phone": "2063370206", "address": "4716 Airport Way S"}, "geometry": {"type": "Point", "coordinates": [-122.3230057, 47.5606079]}}, {"type": "Feature", "properties": {"id": "82aaa562-bbb2-4745-803f-cef9065a63d1", "name": "Solumbra by Sun Precautions", "category": "clothes", "tags": ["clothes"], "sources": ["overture"], "website": "http://www.sunprecautions.com/", "phone": "+12068126300", "address": "3809 9th Ave S"}, "geometry": {"type": "Point", "coordinates": [-122.3214798, 47.5695229]}}]}