{"type": "FeatureCollection", "features": [{"type": "Feature", "properties": {"id": "90c2be5b-3d05-4536-9c4f-fbfb76e18f3a", "name": "Starbucks", "category": "cafe", "tags": ["cafe", "coffee"], "sources": ["overture"], "website": "http://www.starbucks.com/", "phone": "2539464002", "address": "31009 Pacific Hwy S (Albertsons-Federa, L Way #496)", "stations": [{"stopCode": 68, "lines": "1", "name": "Federal Way Downtown Station", "walkingMeters": 947, "walkingSeconds": 684, "band": 15}]}, "geometry": {"type": "Point", "coordinates": [-122.3153076, 47.3228951]}}, {"type": "Feature", "properties": {"id": 1756952608, "name": "Blue", "category": "bar", "tags": ["bar"], "sources": ["osm"], "stations": [{"stopCode": 68, "lines": "1", "name": "Federal Way Downtown Station", "walkingMeters": 934, "walkingSeconds": 674, "band": 15}]}, "geometry": {"type": "Point", "coordinates": [-122.3156234, 47.3225452]}}, {"type": "Feature", "properties": {"id": 61850868, "name": "Teriyaki", "category": "restaurant", "tags": ["restaurant"], "sources": ["osm"], "stations": [{"stopCode": 68, "lines": "1", "name": "Federal Way Downtown Station", "walkingMeters": 838, "walkingSeconds": 603, "band": 15}]}, "geometry": {"type": "Point", "coordinates": [-122.3122977, 47.3227953]}}, {"type": "Feature", "properties": {"id": "2faad75f-3274-4ac2-80a2-373c79c3f116", "name": "Tortas Locas", "category": "restaurant", "tags": ["restaurant", "mexican", "taco"], "sources": ["overture"], "website": "https://tortas-locas-wa-2.hub.biz/", "phone": "+12534229899", "address": "30420 Pacific Hwy S"}, "geometry": {"type": "Point", "coordinates": [-122.3122025, 47.3288116]}}, {"type": "Feature", "properties": {"id": 42641231, "name": "Jack's BBQ", "category": "restaurant", "tags": ["restaurant", "barbecue"], "sources": ["osm"], "website": "http://jacksbbq.com/federal-way", "address": "31254 Pacific Highway South", "stations": [{"stopCode": 68, "lines": "1", "name": "Federal Way Downtown Station", "walkingMeters": 584, "walkingSeconds": 421, "band": 10}]}, "geometry": {"type": "Point", "coordinates": [-122.3130541, 47.3208483]}}, {"type": "Feature", "properties": {"id": 13676709469, "name": "Birrieria Tijuana", "category": "restaurant", "tags": ["restaurant", "mexican"], "sources": ["osm"], "stations": [{"stopCode": 68, "lines": "1", "name": "Federal Way Downtown Station", "walkingMeters": 865, "walkingSeconds": 623, "band": 15}]}, "geometry": {"type": "Point", "coordinates": [-122.3116272, 47.3225895]}}, {"type": "Feature", "properties": {"id": 7831721030, "name": "Pho Trang", "category": "restaurant", "tags": ["restaurant", "vietnamese", "asian", "noodles"], "sources": ["osm", "overture"], "phone": "+12062498356", "address": "31248 Pacific Hwy S", "stations": [{"stopCode": 68, "lines": "1", "name": "Federal Way Downtown Station", "walkingMeters": 609, "walkingSeconds": 439, "band": 10}]}, "geometry": {"type": "Point", "coordinates": [-122.3130657, 47.3210753]}}, {"type": "Feature", "properties": {"id": 7831721032, "name": "Taquer\u00eda la Tentaci\u00f3n", "category": "restaurant", "tags": ["restaurant", "mexican", "latin-american"], "sources": ["osm", "overture"], "website": "https://www.mapquest.com/.../taqueria-la-tentacion-284934751", "phone": "+12538394246", "address": "31248 Pacific Hwy S", "stations": [{"stopCode": 68, "lines": "1", "name": "Federal Way Downtown Station", "walkingMeters": 623, "walkingSeconds": 449, "band": 10}]}, "geometry": {"type": "Point", "coordinates": [-122.3128851, 47.3210814]}}, {"type": "Feature", "properties": {"id": 7831721033, "name": "Yi\u2019s Traditional Korean Beef Soup", "category": "restaurant", "tags": ["restaurant", "korean", "air-conditioned", "asian", "soup"], "sources": ["osm", "overture"], "phone": "+12539461101", "address": "31248 Pacific Hwy S", "hours": "08:30-21:00", "stations": [{"stopCode": 68, "lines": "1", "name": "Federal Way Downtown Station", "walkingMeters": 638, "walkingSeconds": 460, "band": 10}]}, "geometry": {"type": "Point", "coordinates": [-122.3126811, 47.3210786]}}, {"type": "Feature", "properties": {"id": 7831801629, "name": "Hanabi", "category": "restaurant", "tags": ["restaurant", "japanese", "sushi"], "sources": ["osm"], "stations": [{"stopCode": 68, "lines": "1", "name": "Federal Way Downtown Station", "walkingMeters": 667, "walkingSeconds": 480, "band": 10}]}, "geometry": {"type": "Point", "coordinates": [-122.311767, 47.3207755]}}, {"type": "Feature", "properties": {"id": 7831802000, "name": "Mi Rak Restaurant", "category": "restaurant", "tags": ["restaurant", "korean"], "sources": ["osm"], "stations": [{"stopCode": 68, "lines": "1", "name": "Federal Way Downtown Station", "walkingMeters": 602, "walkingSeconds": 433, "band": 10}]}, "geometry": {"type": "Point", "coordinates": [-122.3126361, 47.3207713]}}, {"type": "Feature", "properties": {"id": 7831802005, "name": "Youngwol Noodle", "category": "restaurant", "tags": ["restaurant", "korean", "noodles"], "sources": ["osm", "overture"], "website": "https://youngwol-noodle.hub.biz", "phone": "(253) 941-2002", "address": "31260 Pacific Hwy S", "stations": [{"stopCode": 68, "lines": "1", "name": "Federal Way Downtown Station", "walkingMeters": 638, "walkingSeconds": 459, "band": 10}]}, "geometry": {"type": "Point", "coordinates": [-122.3121584, 47.3207745]}}, {"type": "Feature", "properties": {"id": 7831818262, "name": "Malrihyang", "category": "restaurant", "tags": ["restaurant", "noodles", "korean", "chinese", "asian"], "sources": ["osm", "overture"], "website": "http://malrihyangfederalway4.gastrobars.com", "phone": "+12539460848", "address": "31217 Pacific Hwy S", "hours": "Mo-Su 10:00-21:00", "stations": [{"stopCode": 68, "lines": "1", "name": "Federal Way Downtown Station", "walkingMeters": 772, "walkingSeconds": 556, "band": 10}]}, "geometry": {"type": "Point", "coordinates": [-122.3149727, 47.3215313]}}, {"type": "Feature", "properties": {"id": 8565861105, "name": "Barnes & Noble Caf\u00e9 Serving Starbucks Coffee", "category": "cafe", "tags": ["cafe"], "sources": ["osm"], "stations": [{"stopCode": 68, "lines": "1", "name": "Federal Way Downtown Station", "walkingMeters": 723, "walkingSeconds": 521, "band": 10}]}, "geometry": {"type": "Point", "coordinates": [-122.315276, 47.3210898]}}, {"type": "Feature", "properties": {"id": 8780316919, "name": "Goraesa Fishcake", "category": "restaurant", "tags": ["restaurant"], "sources": ["osm"], "stations": [{"stopCode": 68, "lines": "1", "name": "Federal Way Downtown Station", "walkingMeters": 901, "walkingSeconds": 650, "band": 15}]}, "geometry": {"type": "Point", "coordinates": [-122.3154339, 47.3221279]}}, {"type": "Feature", "properties": {"id": 8780316927, "name": "Wa Bar", "category": "bar", "tags": ["bar"], "sources": ["osm"], "stations": [{"stopCode": 68, "lines": "1", "name": "Federal Way Downtown Station", "walkingMeters": 1088, "walkingSeconds": 788, "band": 15}]}, "geometry": {"type": "Point", "coordinates": [-122.3145059, 47.3247037]}}, {"type": "Feature", "properties": {"id": 10076149974, "name": "Karibuni Cafe", "category": "cafe", "tags": ["cafe", "african"], "sources": ["osm"], "stations": [{"stopCode": 68, "lines": "1", "name": "Federal Way Downtown Station", "walkingMeters": 689, "walkingSeconds": 497, "band": 10}]}, "geometry": {"type": "Point", "coordinates": [-122.3130365, 47.3217906]}}, {"type": "Feature", "properties": {"id": 12812746022, "name": "Melody Boba House", "category": "cafe", "tags": ["cafe"], "sources": ["osm"], "stations": [{"stopCode": 68, "lines": "1", "name": "Federal Way Downtown Station", "walkingMeters": 594, "walkingSeconds": 428, "band": 10}]}, "geometry": {"type": "Point", "coordinates": [-122.3127348, 47.320572]}}, {"type": "Feature", "properties": {"id": 13334940992, "name": "Make It Healthy", "category": "cafe", "tags": ["cafe"], "sources": ["osm", "overture"], "website": "https://g.co/kgs/AFj1DPM", "phone": "+12537375691", "address": "1620 S 312th St", "stations": [{"stopCode": 68, "lines": "1", "name": "Federal Way Downtown Station", "walkingMeters": 824, "walkingSeconds": 594, "band": 10}]}, "geometry": {"type": "Point", "coordinates": [-122.3122401, 47.3225919]}}, {"type": "Feature", "properties": {"id": "96b7e051-437d-4287-a9ce-fa942d81ec6d", "name": "Jack in the Box", "category": "fast_food", "tags": ["fast-food", "fast", "food"], "sources": ["overture"], "website": "https://www.jackinthebox.com", "phone": "+18003785225", "address": "31130 Pacific Hwy S", "stations": [{"stopCode": 68, "lines": "1", "name": "Federal Way Downtown Station", "walkingMeters": 878, "walkingSeconds": 632, "band": 15}]}, "geometry": {"type": "Point", "coordinates": [-122.3128815, 47.3231506]}}, {"type": "Feature", "properties": {"id": 42641215, "name": "Stars", "category": "bar", "tags": ["bar"], "sources": ["osm"], "address": "31216 Pacific Highway South", "stations": [{"stopCode": 68, "lines": "1", "name": "Federal Way Downtown Station", "walkingMeters": 688, "walkingSeconds": 496, "band": 10}]}, "geometry": {"type": "Point", "coordinates": [-122.3129538, 47.3217838]}}, {"type": "Feature", "properties": {"id": 42641219, "name": "Akasaka", "category": "restaurant", "tags": ["restaurant", "japanese"], "sources": ["osm"], "address": "31246 Pacific Highway South", "stations": [{"stopCode": 68, "lines": "1", "name": "Federal Way Downtown Station", "walkingMeters": 644, "walkingSeconds": 464, "band": 10}]}, "geometry": {"type": "Point", "coordinates": [-122.3128992, 47.3213609]}}, {"type": "Feature", "properties": {"id": 42641230, "name": "Seoul Tofu House", "category": "restaurant", "tags": ["restaurant", "korean"], "sources": ["osm"], "address": "31406 Pacific Highway South", "stations": [{"stopCode": 68, "lines": "1", "name": "Federal Way Downtown Station", "walkingMeters": 582, "walkingSeconds": 419, "band": 10}]}, "geometry": {"type": "Point", "coordinates": [-122.3128975, 47.3205107]}}, {"type": "Feature", "properties": {"id": 61850858, "name": "Afghan Restaurant", "category": "restaurant", "tags": ["restaurant", "afghan"], "sources": ["osm"], "address": "31140 Pacific Highway South", "stations": [{"stopCode": 68, "lines": "1", "name": "Federal Way Downtown Station", "walkingMeters": 855, "walkingSeconds": 616, "band": 15}]}, "geometry": {"type": "Point", "coordinates": [-122.3128131, 47.3231212]}}, {"type": "Feature", "properties": {"id": 61850863, "name": "Pop's Pizza &Pasta", "category": "restaurant", "tags": ["restaurant", "pizza"], "sources": ["osm", "overture"], "phone": "2538397100", "address": "1620 S 312th St", "stations": [{"stopCode": 68, "lines": "1", "name": "Federal Way Downtown Station", "walkingMeters": 900, "walkingSeconds": 648, "band": 15}]}, "geometry": {"type": "Point", "coordinates": [-122.3121398, 47.3226954]}}, {"type": "Feature", "properties": {"id": 167786889, "name": "Foxy Ladies Espresso", "category": "cafe", "tags": ["cafe"], "sources": ["osm"], "stations": [{"stopCode": 68, "lines": "1", "name": "Federal Way Downtown Station", "walkingMeters": 847, "walkingSeconds": 610, "band": 15}]}, "geometry": {"type": "Point", "coordinates": [-122.3130797, 47.3231439]}}, {"type": "Feature", "properties": {"id": "50a99e67-4d9d-41ea-bacb-fa1e32832e36", "name": "El Rincon de las Delicias", "category": "restaurant", "tags": ["restaurant", "latin-american", "american", "spanish"], "sources": ["overture"], "phone": "+12532934988", "address": "30406 Pacific Hwy S"}, "geometry": {"type": "Point", "coordinates": [-122.3119888, 47.3293724]}}, {"type": "Feature", "properties": {"id": "dbc2954f-1f63-4b33-913c-c506cdf545c7", "name": "Los Bigotes de Villa", "category": "restaurant", "tags": ["restaurant", "mexican", "latin-american", "taco"], "sources": ["overture"], "website": "https://los-bigotes-de-villa.hub.biz/", "phone": "+12539412071", "address": "30420 Pacific Hwy S"}, "geometry": {"type": "Point", "coordinates": [-122.3120804, 47.3288078]}}, {"type": "Feature", "properties": {"id": "fb717158-fac9-4c76-bb01-4bc913ba0e6f", "name": "Birrieria Tijuana Number 4", "category": "restaurant", "tags": ["restaurant", "mexican"], "sources": ["overture"], "phone": "+14252129185", "address": "1636 S 312th St", "stations": [{"stopCode": 68, "lines": "1", "name": "Federal Way Downtown Station", "walkingMeters": 865, "walkingSeconds": 623, "band": 15}]}, "geometry": {"type": "Point", "coordinates": [-122.3116608, 47.3225899]}}, {"type": "Feature", "properties": {"id": "aeea6d33-31ff-45b9-ba4a-99d56d4a1d1d", "name": "Pho Bach Vietnamese Restaurant", "category": "restaurant", "tags": ["restaurant", "vietnamese", "asian", "noodles"], "sources": ["overture"], "website": "http://phobachsvietnameserestaurant.com", "phone": "+12538398386", "address": "1634 S 312th St", "stations": [{"stopCode": 68, "lines": "1", "name": "Federal Way Downtown Station", "walkingMeters": 897, "walkingSeconds": 646, "band": 15}]}, "geometry": {"type": "Point", "coordinates": [-122.3119049, 47.3227005]}}, {"type": "Feature", "properties": {"id": "134ca8c7-df88-493e-83a4-30f403c1b388", "name": "Midnight 12 O'clock", "category": "restaurant", "tags": ["restaurant", "korean"], "sources": ["overture"], "phone": "+12539467675", "address": "31218 Pacific Hwy S", "stations": [{"stopCode": 68, "lines": "1", "name": "Federal Way Downtown Station", "walkingMeters": 758, "walkingSeconds": 546, "band": 10}]}, "geometry": {"type": "Point", "coordinates": [-122.3116455, 47.3216934]}}, {"type": "Feature", "properties": {"id": "bdb3e72b-958a-46bb-ae38-4723a3071e27", "name": "Nami Sushi", "category": "restaurant", "tags": ["restaurant", "sushi", "fast-food"], "sources": ["overture"], "website": "https://namisushi.menu11.com/", "phone": "+12539410888", "address": "31260 Pacific Hwy S", "stations": [{"stopCode": 68, "lines": "1", "name": "Federal Way Downtown Station", "walkingMeters": 663, "walkingSeconds": 477, "band": 10}]}, "geometry": {"type": "Point", "coordinates": [-122.3118286, 47.3207474]}}, {"type": "Feature", "properties": {"id": "0edb7e78-95fa-42c5-87f9-2f83d17f4c4c", "name": "Hanabi Sushi Restaurant", "category": "restaurant", "tags": ["restaurant", "sushi"], "sources": ["overture"], "website": "http://www.hanabi-sushi.com", "phone": "(253) 941-0797", "address": "31260 Pacific Hwy S Ste 12", "stations": [{"stopCode": 68, "lines": "1", "name": "Federal Way Downtown Station", "walkingMeters": 679, "walkingSeconds": 489, "band": 10}]}, "geometry": {"type": "Point", "coordinates": [-122.3121338, 47.3208504]}}, {"type": "Feature", "properties": {"id": "f6202552-664a-4110-a7e2-a95e6415bc54", "name": "International Teriyaki House", "category": "restaurant", "tags": ["restaurant", "japanese", "asian"], "sources": ["overture"], "website": "http://cishenanigans.com", "phone": "+12538398588", "address": "1620 S 312th St", "stations": [{"stopCode": 68, "lines": "1", "name": "Federal Way Downtown Station", "walkingMeters": 833, "walkingSeconds": 600, "band": 15}]}, "geometry": {"type": "Point", "coordinates": [-122.3123016, 47.3227577]}}, {"type": "Feature", "properties": {"id": "75cdee3c-3d5b-4f12-97ad-ba3f8a26324b", "name": "Star Bar and Grill", "category": "restaurant", "tags": ["restaurant", "bar-and-grill", "bar", "grill"], "sources": ["overture"], "website": "http://calendar.thenewstribune.com/", "phone": "+12539469734", "address": "31216 Pacific Hwy S", "stations": [{"stopCode": 68, "lines": "1", "name": "Federal Way Downtown Station", "walkingMeters": 687, "walkingSeconds": 495, "band": 10}]}, "geometry": {"type": "Point", "coordinates": [-122.3129807, 47.3217697]}}, {"type": "Feature", "properties": {"id": "93074c46-6411-41d6-8c29-d95937fd80dc", "name": "Akasaka Restaurant", "category": "restaurant", "tags": ["restaurant", "japanese", "asian"], "sources": ["overture"], "website": "http://www.akasakafederalway.com/", "phone": "+12539463858", "address": "31246 Pacific Hwy S", "stations": [{"stopCode": 68, "lines": "1", "name": "Federal Way Downtown Station", "walkingMeters": 641, "walkingSeconds": 462, "band": 10}]}, "geometry": {"type": "Point", "coordinates": [-122.3129196, 47.3213043]}}, {"type": "Feature", "properties": {"id": "9fa6c9c1-e9b9-4b61-9c33-9382e998fc33", "name": "Mirak Korean BBQ Restaurant", "category": "restaurant", "tags": ["restaurant", "korean", "barbecue", "asian"], "sources": ["overture"], "phone": "+12538396522", "address": "31260 Pacific Hwy S", "stations": [{"stopCode": 68, "lines": "1", "name": "Federal Way Downtown Station", "walkingMeters": 597, "walkingSeconds": 430, "band": 10}]}, "geometry": {"type": "Point", "coordinates": [-122.3127365, 47.3207893]}}, {"type": "Feature", "properties": {"id": "066447bc-4a62-4994-a994-2178a2c2c138", "name": "Taqueria El Emperador", "category": "restaurant", "tags": ["restaurant", "mexican", "taco", "latin-american"], "sources": ["overture"], "phone": "+12066310490", "address": "30405 Pacific Hwy S"}, "geometry": {"type": "Point", "coordinates": [-122.3129272, 47.3293076]}}, {"type": "Feature", "properties": {"id": "c4ea636b-310d-44c2-a56c-679fa21b5cec", "name": "Gogi on the Go Korean Fusion", "category": "restaurant", "tags": ["restaurant", "korean", "asian"], "sources": ["overture"], "website": "http://gogionthego.com/", "phone": "+12062126020", "address": "1400 S 312th St", "stations": [{"stopCode": 68, "lines": "1", "name": "Federal Way Downtown Station", "walkingMeters": 943, "walkingSeconds": 681, "band": 15}]}, "geometry": {"type": "Point", "coordinates": [-122.3157425, 47.3226051]}}, {"type": "Feature", "properties": {"id": "6e9e529a-7bb3-447a-8254-147bbc20fb03", "name": "K-Ton", "category": "restaurant", "tags": ["restaurant", "japanese"], "sources": ["overture"], "website": "http://www.kton.com", "phone": "(253) 941-3148", "address": "31217 Pacific Hwy S", "stations": [{"stopCode": 68, "lines": "1", "name": "Federal Way Downtown Station", "walkingMeters": 818, "walkingSeconds": 589, "band": 15}]}, "geometry": {"type": "Point", "coordinates": [-122.315239, 47.3218803]}}, {"type": "Feature", "properties": {"id": "908dbe3b-d114-4064-8932-28d0a1df8e1b", "name": "Noodle House", "category": "restaurant", "tags": ["restaurant", "noodles", "asian", "chinese"], "sources": ["overture"], "website": "http://noodlehouse.net", "phone": "+12539460848", "address": "31217 Pacific Hwy S", "stations": [{"stopCode": 68, "lines": "1", "name": "Federal Way Downtown Station", "walkingMeters": 782, "walkingSeconds": 563, "band": 10}]}, "geometry": {"type": "Point", "coordinates": [-122.3148804, 47.3215637]}}, {"type": "Feature", "properties": {"id": "acc06dc8-3eca-4acf-9d07-946b3dcb413a", "name": "Seoul Bakery", "category": "bakery", "tags": ["bakery"], "sources": ["overture"], "website": "https://m.facebook.com/seoulbakeryfw", "phone": "+12538396200", "address": "31217 Pacific Hwy S", "stations": [{"stopCode": 68, "lines": "1", "name": "Federal Way Downtown Station", "walkingMeters": 778, "walkingSeconds": 560, "band": 10}]}, "geometry": {"type": "Point", "coordinates": [-122.3149796, 47.3215599]}}, {"type": "Feature", "properties": {"id": "63bb3e03-86d6-4bae-b678-58c9404ae88d", "name": "Vons Chicken", "category": "restaurant", "tags": ["restaurant", "korean"], "sources": ["overture"], "website": "https://vonschickenfw.com", "phone": "(206) 212-6149", "address": "1400 S 312th St", "stations": [{"stopCode": 68, "lines": "1", "name": "Federal Way Downtown Station", "walkingMeters": 968, "walkingSeconds": 699, "band": 15}]}, "geometry": {"type": "Point", "coordinates": [-122.3157578, 47.3226509]}}, {"type": "Feature", "properties": {"id": "a789700f-823c-4fa8-af65-8771f19d54a4", "name": "Surasang", "category": "restaurant", "tags": ["restaurant", "korean"], "sources": ["overture"], "website": "https://surasang-korean-restaurant.business.site/", "phone": "+12064292116", "address": "1636 S 312th St", "stations": [{"stopCode": 68, "lines": "1", "name": "Federal Way Downtown Station", "walkingMeters": 867, "walkingSeconds": 625, "band": 15}]}, "geometry": {"type": "Point", "coordinates": [-122.311615, 47.3226089]}}, {"type": "Feature", "properties": {"id": "8a61dcf5-d243-42bf-beeb-45ef55900b9e", "name": "Mommy's Dumpling House", "category": "restaurant", "tags": ["restaurant", "dumplings"], "sources": ["overture"], "website": "http://www.mommysdumplinghouse.com", "phone": "(253) 941-2483", "address": "1636 S 312th St", "stations": [{"stopCode": 68, "lines": "1", "name": "Federal Way Downtown Station", "walkingMeters": 871, "walkingSeconds": 628, "band": 15}]}, "geometry": {"type": "Point", "coordinates": [-122.3115463, 47.3226433]}}, {"type": "Feature", "properties": {"id": "5a88147f-44bd-4639-b1a9-e491abccc684", "name": "Barbacoa De Borrego La Oveja Descarriada", "category": "restaurant", "tags": ["restaurant"], "sources": ["overture"], "phone": "+12534874574"}, "geometry": {"type": "Point", "coordinates": [-122.3114319, 47.3262329]}}, {"type": "Feature", "properties": {"id": "04f4bd2e-7c54-4662-95cb-2194b9056fba", "name": "Liberty Lake Condominiums", "category": "attraction", "tags": ["attraction", "landmark", "historical", "building"], "sources": ["overture"], "website": "http://libertylakescondo.org", "phone": "+12539468959", "address": "31003 14th Ave S", "stations": [{"stopCode": 68, "lines": "1", "name": "Federal Way Downtown Station", "walkingMeters": 1084, "walkingSeconds": 782, "band": 15}]}, "geometry": {"type": "Point", "coordinates": [-122.3165894, 47.3233032]}}, {"type": "Feature", "properties": {"id": "1341c9da-70b6-4a15-a8a2-83e1b23a5f69", "name": "Brookhaven Apartment Homes", "category": "attraction", "tags": ["attraction", "landmark", "historical", "building"], "sources": ["overture"], "website": "https://www.brookhaven-apartments.com/", "phone": "+12539469325", "address": "30823 18th Ave S", "stations": [{"stopCode": 68, "lines": "1", "name": "Federal Way Downtown Station", "walkingMeters": 1286, "walkingSeconds": 926, "band": 15}]}, "geometry": {"type": "Point", "coordinates": [-122.3114243, 47.3253365]}}, {"type": "Feature", "properties": {"id": "dd62ba07-0cac-4248-9157-13f7ace0ca46", "name": "Parkwood Apartments", "category": "attraction", "tags": ["attraction", "landmark", "historical", "building"], "sources": ["overture"], "website": "http://parkwood-apartments.com", "phone": "+12539410171", "address": "1650 S 308th St"}, "geometry": {"type": "Point", "coordinates": [-122.3109665, 47.3266144]}}, {"type": "Feature", "properties": {"id": 61850860, "name": "7-Eleven", "category": "convenience", "tags": ["convenience"], "sources": ["osm", "overture"], "website": "https://www.7-eleven.com/locations/wa/federal-way/31006-pacific-hwy-s-23228", "phone": "+12539415711", "address": "31006 Pacific Hwy S", "hours": "24/7", "stations": [{"stopCode": 68, "lines": "1", "name": "Federal Way Downtown Station", "walkingMeters": 1026, "walkingSeconds": 739, "band": 15}]}, "geometry": {"type": "Point", "coordinates": [-122.3127297, 47.3239697]}}, {"type": "Feature", "properties": {"id": 5857343950, "name": "Barnes & Noble", "category": "books", "tags": ["books", "wheelchair-accessible"], "sources": ["osm"], "address": "31325 Pacific Highway South", "hours": "Mo-Th 10:00-20:00; Fr,Sa 10:00-21:00; Su 10:00-19:00", "stations": [{"stopCode": 68, "lines": "1", "name": "Federal Way Downtown Station", "walkingMeters": 701, "walkingSeconds": 504, "band": 10}]}, "geometry": {"type": "Point", "coordinates": [-122.3153612, 47.3208851]}}, {"type": "Feature", "properties": {"id": "4ca68e02-42cb-4bb7-942e-beed74d2830f", "name": "Just Food For Dogs", "category": "pet", "tags": ["pet"], "sources": ["overture"], "website": "https://www.justfoodfordogs.com", "phone": "(253) 839-7423", "address": "31419 Pacific Highway South, Inside Petco- Federal Way", "stations": [{"stopCode": 68, "lines": "1", "name": "Federal Way Downtown Station", "walkingMeters": 628, "walkingSeconds": 452, "band": 10}]}, "geometry": {"type": "Point", "coordinates": [-122.315506, 47.3202362]}}, {"type": "Feature", "properties": {"id": 5857343952, "name": "Petco", "category": "pet", "tags": ["pet"], "sources": ["osm", "overture"], "website": "https://stores.petco.com/wa/federalway/pet-supplies-federalway-wa-258.html", "phone": "+12538397423", "address": "31419 Pacific Hwy S", "hours": "Mo-Sa 09:00-21:00; Su 09:00-20:00", "stations": [{"stopCode": 68, "lines": "1", "name": "Federal Way Downtown Station", "walkingMeters": 624, "walkingSeconds": 449, "band": 10}]}, "geometry": {"type": "Point", "coordinates": [-122.315273, 47.320196]}}, {"type": "Feature", "properties": {"id": 648075780, "name": "Circle K", "category": "convenience", "tags": ["convenience"], "sources": ["osm"], "address": "30405 Pacific Highway South"}, "geometry": {"type": "Point", "coordinates": [-122.3129813, 47.3293924]}}, {"type": "Feature", "properties": {"id": 8780316921, "name": "Metro by T-Mobile", "category": "mobile_phone", "tags": ["mobile-phone", "mobile"], "sources": ["osm", "overture"], "website": "https://www.metrobyt-mobile.com/stores/bd/metro-by-t-mobile-federal-way-wa-10301151/?utm_source=facebook&utm_medium=lastmile&utm_campaign=33825", "phone": "+12539465596", "address": "31007 Pacific Hwy S", "stations": [{"stopCode": 68, "lines": "1", "name": "Federal Way Downtown Station", "walkingMeters": 926, "walkingSeconds": 670, "band": 15}]}, "geometry": {"type": "Point", "coordinates": [-122.313709, 47.3236438]}}, {"type": "Feature", "properties": {"id": 61850857, "name": "Dollar Tree", "category": "variety_store", "tags": ["variety-store", "wheelchair-accessible", "discount"], "sources": ["osm", "overture"], "website": "https://locations.dollartree.com/wa/federal-way/31014-pacific-hwy-south", "phone": "+15099311017", "address": "31014 Pacific Hwy S", "hours": "Mo-Su 08:00-22:00", "stations": [{"stopCode": 68, "lines": "1", "name": "Federal Way Downtown Station", "walkingMeters": 1046, "walkingSeconds": 753, "band": 15}]}, "geometry": {"type": "Point", "coordinates": [-122.3122212, 47.323666]}}, {"type": "Feature", "properties": {"id": 161638170, "name": "H Mart", "category": "supermarket", "tags": ["supermarket", "asian", "wheelchair-accessible"], "sources": ["osm", "overture"], "website": "https://nj.hmart.com/", "phone": "+12535280500", "address": "31217 Pacific Hwy S", "hours": "Mo-Su 08:00-21:30", "stations": [{"stopCode": 68, "lines": "1", "name": "Federal Way Downtown Station", "walkingMeters": 815, "walkingSeconds": 587, "band": 15}]}, "geometry": {"type": "Point", "coordinates": [-122.3153163, 47.3218539]}}, {"type": "Feature", "properties": {"id": 42641212, "name": "ExtraMile", "category": "convenience", "tags": ["convenience"], "sources": ["osm"], "address": "31204 Pacific Highway South", "stations": [{"stopCode": 68, "lines": "1", "name": "Federal Way Downtown Station", "walkingMeters": 729, "walkingSeconds": 526, "band": 10}]}, "geometry": {"type": "Point", "coordinates": [-122.3128524, 47.3219676]}}, {"type": "Feature", "properties": {"id": "4fee930f-f57c-4aa4-aab8-09d58d9f7446", "name": "Hallmark", "category": "gift", "tags": ["gift"], "sources": ["overture"], "website": "http://www.hallmark.com", "phone": "(253) 839-5519", "address": "31309 Pacific Hwy S", "stations": [{"stopCode": 68, "lines": "1", "name": "Federal Way Downtown Station", "walkingMeters": 739, "walkingSeconds": 532, "band": 10}]}, "geometry": {"type": "Point", "coordinates": [-122.3152237, 47.3212852]}}, {"type": "Feature", "properties": {"id": 5857343949, "name": "HallmarkCreations", "category": "gift", "tags": ["gift", "wheelchair-accessible"], "sources": ["osm"], "hours": "Mo-Sa 10:00-19:00; Su 11:00-18:00", "stations": [{"stopCode": 68, "lines": "1", "name": "Federal Way Downtown Station", "walkingMeters": 740, "walkingSeconds": 533, "band": 10}]}, "geometry": {"type": "Point", "coordinates": [-122.3152328, 47.3213033]}}, {"type": "Feature", "properties": {"id": 8780316933, "name": "AL's Music - Games & Video", "category": "music", "tags": ["music"], "sources": ["osm"], "stations": [{"stopCode": 68, "lines": "1", "name": "Federal Way Downtown Station", "walkingMeters": 1117, "walkingSeconds": 809, "band": 15}]}, "geometry": {"type": "Point", "coordinates": [-122.3139157, 47.3254652]}}, {"type": "Feature", "properties": {"id": 13676709470, "name": "Flowers by Chi", "category": "florist", "tags": ["florist"], "sources": ["osm"], "stations": [{"stopCode": 68, "lines": "1", "name": "Federal Way Downtown Station", "walkingMeters": 904, "walkingSeconds": 651, "band": 15}]}, "geometry": {"type": "Point", "coordinates": [-122.3110655, 47.3225454]}}, {"type": "Feature", "properties": {"id": 13676709471, "name": "Salam Deli Market", "category": "deli", "tags": ["deli"], "sources": ["osm"], "stations": [{"stopCode": 68, "lines": "1", "name": "Federal Way Downtown Station", "walkingMeters": 818, "walkingSeconds": 589, "band": 10}]}, "geometry": {"type": "Point", "coordinates": [-122.312326, 47.3225199]}}, {"type": "Feature", "properties": {"id": 61948817, "name": "Campe\u00f3n Market", "category": "supermarket", "tags": ["supermarket"], "sources": ["osm", "overture"], "website": "http://www.campeonmarket.com/", "phone": "+12062124555", "address": "31009 Pacific Hwy S", "stations": [{"stopCode": 68, "lines": "1", "name": "Federal Way Downtown Station", "walkingMeters": 999, "walkingSeconds": 721, "band": 15}]}, "geometry": {"type": "Point", "coordinates": [-122.3153381, 47.3234331]}}, {"type": "Feature", "properties": {"id": 167786885, "name": "Trinity Ace Hardware", "category": "doityourself", "tags": ["doityourself"], "sources": ["osm"], "phone": "+1-206-651-7759", "address": "30650 Pacific Highway South", "hours": "Mo-Sa 08:00-19:00, Su 09:00-16:00"}, "geometry": {"type": "Point", "coordinates": [-122.3125249, 47.3262893]}}, {"type": "Feature", "properties": {"id": "7b220b76-cdf2-4332-977b-7581b6a5e1fa", "name": "My Little Thrift Shop", "category": "variety_store", "tags": ["variety-store", "discount"], "sources": ["overture"], "website": "http://mylittlethriftshop.ecwid.com/", "phone": "+12064293625", "address": "1620 S 312th St", "stations": [{"stopCode": 68, "lines": "1", "name": "Federal Way Downtown Station", "walkingMeters": 889, "walkingSeconds": 640, "band": 15}]}, "geometry": {"type": "Point", "coordinates": [-122.3121185, 47.3228645]}}, {"type": "Feature", "properties": {"id": "a43f9b10-957c-4706-a5d2-6680d332f63f", "name": "Salam Deli Mart", "category": "supermarket", "tags": ["supermarket"], "sources": ["overture"], "phone": "+12062126486", "address": "1620 S 312th St", "stations": [{"stopCode": 68, "lines": "1", "name": "Federal Way Downtown Station", "walkingMeters": 829, "walkingSeconds": 597, "band": 15}]}, "geometry": {"type": "Point", "coordinates": [-122.3121719, 47.3226662]}}, {"type": "Feature", "properties": {"id": "1f4f81fd-3848-4160-89f4-bb0aeee38947", "name": "Puppy Luv", "category": "pet", "tags": ["pet"], "sources": ["overture"], "website": "http://www.puppyluvseattle.com/", "phone": "+12534559884", "address": "1620 S 312th St", "stations": [{"stopCode": 68, "lines": "1", "name": "Federal Way Downtown Station", "walkingMeters": 816, "walkingSeconds": 588, "band": 10}]}, "geometry": {"type": "Point", "coordinates": [-122.3123703, 47.3226013]}}, {"type": "Feature", "properties": {"id": "709f2c3a-20ae-46ce-939f-a8b733f43d78", "name": "The Lock Shop", "category": "hardware", "tags": ["hardware"], "sources": ["overture"], "website": "http://www.lockguys.com", "phone": "(253) 839-3443", "address": "30819 Pacific Hwy S", "stations": [{"stopCode": 68, "lines": "1", "name": "Federal Way Downtown Station", "walkingMeters": 1145, "walkingSeconds": 829, "band": 15}]}, "geometry": {"type": "Point", "coordinates": [-122.3139648, 47.3253746]}}, {"type": "Feature", "properties": {"id": "04b683f4-aa54-429e-aabf-3786959921e1", "name": "Unifi Mobile", "category": "mobile_phone", "tags": ["mobile-phone", "mobile"], "sources": ["overture"], "website": "https://unifimobile.com/", "phone": "+12539465596", "address": "31007 Pacific Hwy S", "stations": [{"stopCode": 68, "lines": "1", "name": "Federal Way Downtown Station", "walkingMeters": 931, "walkingSeconds": 674, "band": 15}]}, "geometry": {"type": "Point", "coordinates": [-122.313736, 47.3236923]}}, {"type": "Feature", "properties": {"id": "5a7ad592-4125-4b22-aef5-5d806cdad739", "name": "Barnes and Noble Cafe", "category": "books", "tags": ["books"], "sources": ["overture"], "website": "http://www.bn.com/", "phone": "+12538392535", "address": "31325 Pacific Hwy S", "stations": [{"stopCode": 68, "lines": "1", "name": "Federal Way Downtown Station", "walkingMeters": 705, "walkingSeconds": 508, "band": 10}]}, "geometry": {"type": "Point", "coordinates": [-122.3153076, 47.3209267]}}, {"type": "Feature", "properties": {"id": "5a24b02f-c924-4244-b6a5-f36e474a7fcb", "name": "Metropcs Hmart", "category": "mobile_phone", "tags": ["mobile-phone", "mobile", "chinese"], "sources": ["overture"], "website": "http://www.metropcs.com/", "phone": "+12538202917", "address": "31217 Pacific Hwy S", "stations": [{"stopCode": 68, "lines": "1", "name": "Federal Way Downtown Station", "walkingMeters": 827, "walkingSeconds": 596, "band": 15}]}, "geometry": {"type": "Point", "coordinates": [-122.3152618, 47.3219643]}}, {"type": "Feature", "properties": {"id": "d73c5304-3172-4ddb-861d-3d73654fe3eb", "name": "Midas Joyeria", "category": "jewelry", "tags": ["jewelry"], "sources": ["overture"], "website": "http://www.MidasJoyeria.com/", "phone": "+12064293744", "address": "31009 Pacific Hwy S", "stations": [{"stopCode": 68, "lines": "1", "name": "Federal Way Downtown Station", "walkingMeters": 942, "walkingSeconds": 680, "band": 15}]}, "geometry": {"type": "Point", "coordinates": [-122.3149338, 47.3232422]}}, {"type": "Feature", "properties": {"id": 42641217, "name": "Sea Mar", "category": "clinic", "tags": ["clinic"], "sources": ["osm"], "address": "31218 Pacific Highway South", "stations": [{"stopCode": 68, "lines": "1", "name": "Federal Way Downtown Station", "walkingMeters": 794, "walkingSeconds": 572, "band": 10}]}, "geometry": {"type": "Point", "coordinates": [-122.311539, 47.3217607]}}, {"type": "Feature", "properties": {"id": "c7ad5abb-28b2-4931-bd99-888b629a9569", "name": "Highland Pharmacy", "category": "pharmacy", "tags": ["pharmacy"], "sources": ["overture"], "website": "http://highlandpharmacy.com", "phone": "(253) 839-1399", "address": "32160 Pacific highway south", "stations": [{"stopCode": 68, "lines": "1", "name": "Federal Way Downtown Station", "walkingMeters": 657, "walkingSeconds": 474, "band": 10}]}, "geometry": {"type": "Point", "coordinates": [-122.3118973, 47.3207512]}}, {"type": "Feature", "properties": {"id": "166e4c2b-52c4-4916-b74c-5edb5244b33e", "name": "La Abejita Farmacia", "category": "pharmacy", "tags": ["pharmacy"], "sources": ["overture"], "phone": "+12536069154", "address": "30420 Pacific Hwy S"}, "geometry": {"type": "Point", "coordinates": [-122.3122025, 47.3288383]}}, {"type": "Feature", "properties": {"id": "ef302490-ed30-4f0c-b49f-1619b8bde2c5", "name": "Intercept Associates", "category": "clinic", "tags": ["clinic", "medical"], "sources": ["overture"], "website": "http://www.interceptassociates.com", "phone": "(253) 941-7555", "address": "30620 Pacific Hwy S"}, "geometry": {"type": "Point", "coordinates": [-122.3122025, 47.3273125]}}, {"type": "Feature", "properties": {"id": "4d1c7253-f460-46aa-9215-258f0ea726dc", "name": "Natural Wellness Center", "category": "clinic", "tags": ["clinic", "medical"], "sources": ["overture"], "website": "http://www.mynwc.com", "phone": "(253) 839-8608", "stations": [{"stopCode": 68, "lines": "1", "name": "Federal Way Downtown Station", "walkingMeters": 1098, "walkingSeconds": 795, "band": 15}]}, "geometry": {"type": "Point", "coordinates": [-122.3138809, 47.3252945]}}, {"type": "Feature", "properties": {"id": "ceac450a-8a3e-4a35-a53b-bc1a5256b687", "name": "Angel Pharmacy", "category": "pharmacy", "tags": ["pharmacy"], "sources": ["overture"], "website": "https://www.healthmart.com/store-details?storeId=9453", "phone": "+12536427850", "address": "31217 Pacific Hwy S", "stations": [{"stopCode": 68, "lines": "1", "name": "Federal Way Downtown Station", "walkingMeters": 836, "walkingSeconds": 602, "band": 15}]}, "geometry": {"type": "Point", "coordinates": [-122.3148956, 47.3220444]}}, {"type": "Feature", "properties": {"id": "34ae98c3-a1ba-443f-a906-4f8e2423caa8", "name": "Sea Mar Federal Way Medical Clinic", "category": "clinic", "tags": ["clinic", "medical"], "sources": ["overture"], "website": "http://www.seamar.org/king-medical-federalway.html", "phone": "2536816600", "address": "31405 18th Ave S", "stations": [{"stopCode": 68, "lines": "1", "name": "Federal Way Downtown Station", "walkingMeters": 806, "walkingSeconds": 580, "band": 10}]}, "geometry": {"type": "Point", "coordinates": [-122.311142, 47.3203239]}}, {"type": "Feature", "properties": {"id": "d20b2268-93cc-4918-aebb-fe7b5a05095c", "name": "Sea Mar Federal Way MSS", "category": "clinic", "tags": ["clinic", "medical"], "sources": ["overture"], "website": "https://www.seamar.org/mss-infant-case.html", "phone": "2066816600", "address": "31405 18th Ave S", "stations": [{"stopCode": 68, "lines": "1", "name": "Federal Way Downtown Station", "walkingMeters": 809, "walkingSeconds": 583, "band": 10}]}, "geometry": {"type": "Point", "coordinates": [-122.3107376, 47.3202934]}}, {"type": "Feature", "properties": {"id": 61948820, "name": "U.S. Bank", "category": "bank", "tags": ["bank", "credit", "union"], "sources": ["osm", "overture"], "website": "http://www.usbank.com/", "phone": "2538391010", "address": "1436 S 312th St", "stations": [{"stopCode": 68, "lines": "1", "name": "Federal Way Downtown Station", "walkingMeters": 866, "walkingSeconds": 626, "band": 15}]}, "geometry": {"type": "Point", "coordinates": [-122.3142922, 47.3227423]}}, {"type": "Feature", "properties": {"id": 5857343945, "name": "BECU", "category": "bank", "tags": ["bank", "wheelchair-accessible"], "sources": ["osm"], "address": "31411 Pacific Highway South", "stations": [{"stopCode": 68, "lines": "1", "name": "Federal Way Downtown Station", "walkingMeters": 585, "walkingSeconds": 421, "band": 10}]}, "geometry": {"type": "Point", "coordinates": [-122.3139986, 47.3202527]}}, {"type": "Feature", "properties": {"id": "25bff291-0cd0-47c0-8eef-ad907ad1b77a", "name": "U.S. Bank ATM", "category": "bank", "tags": ["bank", "credit", "union"], "sources": ["overture"], "website": "http://www.usbank.com/locations", "phone": "8008722657", "address": "1436 S 312th St", "stations": [{"stopCode": 68, "lines": "1", "name": "Federal Way Downtown Station", "walkingMeters": 834, "walkingSeconds": 602, "band": 15}]}, "geometry": {"type": "Point", "coordinates": [-122.3142776, 47.3224411]}}, {"type": "Feature", "properties": {"id": "e5f218ea-7390-480e-abe0-0741eb5d5849", "name": "HOTWORX", "category": "fitness_centre", "tags": ["fitness-centre", "yoga", "studio"], "sources": ["overture"], "website": "https://www.hotworx.net", "phone": "(253) 214-3537", "address": "2016 S. 320th, Ste. K", "stations": [{"stopCode": 68, "lines": "1", "name": "Federal Way Downtown Station", "walkingMeters": 605, "walkingSeconds": 436, "band": 10}]}, "geometry": {"type": "Point", "coordinates": [-122.3142242, 47.3204422]}}, {"type": "Feature", "properties": {"id": 168552013, "name": "Climb Nora", "category": "sports_centre", "tags": ["sports-centre", "climbing"], "sources": ["osm"], "website": "https://www.climbnora.com", "phone": "+1 253-200-1413", "address": "30820 Pacific Highway South", "hours": "Mo-Fr 10:00-22:00; Sa-Su 10:00-20:00", "stations": [{"stopCode": 68, "lines": "1", "name": "Federal Way Downtown Station", "walkingMeters": 1081, "walkingSeconds": 779, "band": 15}]}, "geometry": {"type": "Point", "coordinates": [-122.3127729, 47.3252199]}}]}