{"type": "FeatureCollection", "features": [{"type": "Feature", "properties": {"id": "adc054f0-6f39-4fa6-99ca-40751868b388", "name": "KFC", "category": "restaurant", "tags": ["restaurant", "chicken", "wings", "fast-food"], "sources": ["overture"], "website": "http://www.kfc.com/storelocator/Default.aspx?address=10433%20S.E.%20Carr%20Rd.,Renton,WA", "phone": "4254308232", "address": "10433 SE Carr Rd #338"}, "geometry": {"type": "Point", "coordinates": [-122.2009583, 47.4445038]}}, {"type": "Feature", "properties": {"id": 640772780, "name": "California Burrito", "category": "fast_food", "tags": ["fast-food", "mexican", "takeaway"], "sources": ["osm"], "phone": "+1-206-888-7725", "address": "10433 Southeast Carr Road", "hours": "24/7"}, "geometry": {"type": "Point", "coordinates": [-122.2007225, 47.444307]}}, {"type": "Feature", "properties": {"id": "deada843-95fe-4602-830d-ab4fd616ec54", "name": "El Gallito Mexican Food Truck", "category": "restaurant", "tags": ["restaurant", "mexican", "taco"], "sources": ["overture"], "phone": "+14256470660", "address": "10545 SE Carr Rd"}, "geometry": {"type": "Point", "coordinates": [-122.2001266, 47.4444275]}}, {"type": "Feature", "properties": {"id": "75e6849a-e642-4f62-8b14-cad4443319ca", "name": "Redtown Apartments", "category": "attraction", "tags": ["attraction", "landmark", "historical", "building"], "sources": ["overture"], "website": "http://www.redtownapartments.com/", "phone": "+14252268696", "address": "10436 SE Carr Rd"}, "geometry": {"type": "Point", "coordinates": [-122.20121, 47.4447327]}}, {"type": "Feature", "properties": {"id": "1105f34e-696d-4c6b-bb3f-55fc4fca114a", "name": "Westview Village", "category": "attraction", "tags": ["attraction", "landmark", "historical", "building"], "sources": ["overture"], "website": "https://www.westviewvillageapts.com/?utm_knock=sm", "phone": "+14255411347", "address": "17735 105th Pl SE"}, "geometry": {"type": "Point", "coordinates": [-122.2016678, 47.4431839]}}, {"type": "Feature", "properties": {"id": "b0a2dd9f-e747-4bd6-8c15-d1afa6c8acc1", "name": "Avaya at Town Center Apartments", "category": "attraction", "tags": ["attraction", "landmark", "historical", "building"], "sources": ["overture"], "website": "http://www.avayatowncenter-renton.com/", "phone": "+14259993930", "address": "10436 SE Carr Rd"}, "geometry": {"type": "Point", "coordinates": [-122.2005005, 47.4450188]}}, {"type": "Feature", "properties": {"id": 471928349, "name": "The Pointe Neighborhood Park", "category": "park", "tags": ["park"], "sources": ["osm"]}, "geometry": {"type": "Point", "coordinates": [-122.2086399, 47.4474959]}}]}