{"type": "FeatureCollection", "features": [{"type": "Feature", "properties": {"id": "7e4d8180-1129-45b0-9bbd-36d5f7b30515", "name": "Good Brewing Company", "category": "bar", "tags": ["bar", "brewery"], "sources": ["overture"], "website": "http://www.goodbrewingco.com", "phone": "(425) 247-3245", "address": "5817 238th St SE Ste 3"}, "geometry": {"type": "Point", "coordinates": [-122.1545868, 47.782383]}}, {"type": "Feature", "properties": {"id": "b906fef2-cee9-4eb4-88e6-bd6c697da9ab", "name": "Ales and Tails", "category": "park", "tags": ["park", "dog"], "sources": ["overture"], "website": "http://www.alesandtails.com/", "phone": "4254712636", "address": "5809 238th St SE Ste 3"}, "geometry": {"type": "Point", "coordinates": [-122.1544724, 47.7820168]}}, {"type": "Feature", "properties": {"id": "3141d558-fb4c-4951-b369-68891e3d0985", "name": "Cadman, Inc.", "category": "doityourself", "tags": ["doityourself", "building", "supply"], "sources": ["overture"], "website": "https://www.lehighhanson.com/sites/cadman", "phone": "(425) 398-0138", "address": "6014 238th Street SE,Woodinville RMC and Asphalt"}, "geometry": {"type": "Point", "coordinates": [-122.1521072, 47.7801132]}}, {"type": "Feature", "properties": {"id": "59a446c3-9174-4bbf-a658-5c51ef210213", "name": "PARR Truss Woodinville", "category": "doityourself", "tags": ["doityourself", "building", "supply"], "sources": ["overture"], "website": "http://www.rooftrusssupply.com/", "phone": "4254810900", "address": "5910 234th Street Southeast"}, "geometry": {"type": "Point", "coordinates": [-122.1534576, 47.7848206]}}, {"type": "Feature", "properties": {"id": "60241188-84e0-4fae-bf23-922cf6287ba1", "name": "Cloud Nine Sheepskin", "category": "clothes", "tags": ["clothes"], "sources": ["overture"], "website": "http://www.sheepskin.com", "phone": "(425) 776-1650"}, "geometry": {"type": "Point", "coordinates": [-122.1514359, 47.7843857]}}, {"type": "Feature", "properties": {"id": "f83d4726-1ebf-4fc0-b712-277c53dc9d8c", "name": "PARR Door-Millwork Woodinville", "category": "doityourself", "tags": ["doityourself", "building", "supply"], "sources": ["overture"], "website": "https://suburbandoor.com/", "phone": "4254810900", "address": "5909 238th ST SE."}, "geometry": {"type": "Point", "coordinates": [-122.1531448, 47.7823906]}}, {"type": "Feature", "properties": {"id": "556c34f5-2f61-42a1-85e8-a621ebb78102", "name": "Blinnergy", "category": "fitness_centre", "tags": ["fitness-centre", "gym"], "sources": ["overture"], "website": "https://www.blinnergy.com/", "phone": "+14254143488", "address": "5817 238th St SE"}, "geometry": {"type": "Point", "coordinates": [-122.1547318, 47.7820892]}}, {"type": "Feature", "properties": {"id": "4d3f387c-6843-4eb8-a780-744fbc4f3682", "name": "Blinn Fitness", "category": "fitness_centre", "tags": ["fitness-centre", "gym"], "sources": ["overture"], "website": "https://www.blinnfitstudio.com/trainers", "phone": "4256060552", "address": "5809 238th St SE Ste 1"}, "geometry": {"type": "Point", "coordinates": [-122.15448, 47.7819405]}}]}