{"type": "FeatureCollection", "features": [{"type": "Feature", "properties": {"id": "b6026030-4dc2-4e93-8326-e61ae65c3afd", "name": "Starbucks", "category": "cafe", "tags": ["cafe", "coffee"], "sources": ["overture"], "website": "https://www.starbucks.com/store-locator/store/1025723", "phone": "+14258272205", "address": "425 Urban Plz"}, "geometry": {"type": "Point", "coordinates": [-122.1994934, 47.6774445]}}, {"type": "Feature", "properties": {"id": "e20978b1-9275-47d0-aec6-c1d0a5d6042c", "name": "Caffe Ladro", "category": "cafe", "tags": ["cafe", "coffee"], "sources": ["overture"], "website": "https://www.caffeladro.com/locations/kirkland-urban-caffe-ladro", "phone": "+14258222952", "address": "400 Urban Plz"}, "geometry": {"type": "Point", "coordinates": [-122.1990662, 47.6781425]}}, {"type": "Feature", "properties": {"id": 6724965186, "name": "Tutta Bella", "category": "restaurant", "tags": ["restaurant", "italian"], "sources": ["osm"]}, "geometry": {"type": "Point", "coordinates": [-122.1995757, 47.6777388]}}, {"type": "Feature", "properties": {"id": "2bc4b8e3-4063-40b4-b188-aa9ff295a4dd", "name": "Einstein Bros Bagels", "category": "restaurant", "tags": ["restaurant", "bagel"], "sources": ["overture"], "website": "http://www.einsteinbros.com/", "phone": "4258277382", "address": "320 Parkplace Ctr"}, "geometry": {"type": "Point", "coordinates": [-122.1990891, 47.6773872]}}, {"type": "Feature", "properties": {"id": "df734f17-10a0-4369-a257-d51a42dae3c9", "name": "Plantiful Superfoods", "category": "restaurant", "tags": ["restaurant", "vegan"], "sources": ["overture"], "website": "http://plantiful.us", "phone": "(425) 822-4868", "address": "425 Urban Plz Ste 245"}, "geometry": {"type": "Point", "coordinates": [-122.1990585, 47.6778488]}}, {"type": "Feature", "properties": {"id": 11983706978, "name": "Dough Zone", "category": "restaurant", "tags": ["restaurant", "chinese"], "sources": ["osm"], "hours": "Mo-Su 11:00-21:00"}, "geometry": {"type": "Point", "coordinates": [-122.1983312, 47.6786913]}}, {"type": "Feature", "properties": {"id": 3324457432, "name": "Cafe Sabah", "category": "restaurant", "tags": ["restaurant", "turkish"], "sources": ["osm"], "website": "https://cafesabahkirkland.com", "address": "456 Central Way", "hours": "Mo-Su 10:00-22:00"}, "geometry": {"type": "Point", "coordinates": [-122.1999039, 47.678677]}}, {"type": "Feature", "properties": {"id": 10767407567, "name": "Rare Tea", "category": "cafe", "tags": ["cafe"], "sources": ["osm"]}, "geometry": {"type": "Point", "coordinates": [-122.1991661, 47.6778863]}}, {"type": "Feature", "properties": {"id": 11983690674, "name": "Ladro", "category": "cafe", "tags": ["cafe", "coffee-shop"], "sources": ["osm"], "hours": "Mo-Su 07:00-18:00"}, "geometry": {"type": "Point", "coordinates": [-122.1990795, 47.6782705]}}, {"type": "Feature", "properties": {"id": 11904422901, "name": "Soi", "category": "restaurant", "tags": ["restaurant", "thai"], "sources": ["osm", "overture"], "website": "http://www.soirestaurant-kirkland.com", "phone": "(425) 202-7465", "address": "425 Urban Plz Ste 285", "hours": "Mo-Th 11:00-21:00,Fr 11:00-22:00,Sa 12:00-22:00,Su 12:00-21:00"}, "geometry": {"type": "Point", "coordinates": [-122.1986062, 47.6779107]}}, {"type": "Feature", "properties": {"id": 12627833501, "name": "Q20 Public House", "category": "bar", "tags": ["bar"], "sources": ["osm"], "hours": "Th-Sa 12:00-23:00; Su-We 12:00-22:00"}, "geometry": {"type": "Point", "coordinates": [-122.1997528, 47.6778256]}}, {"type": "Feature", "properties": {"id": "7b5b31bd-42e8-4c20-a85b-d29bdecfe970", "name": "Tutta Bella Neapolitan Pizzeria", "category": "restaurant", "tags": ["restaurant", "pizza", "italian"], "sources": ["overture"], "website": "https://www.tuttabella.com/location/tutta-bella-kirkland-urban-qfc", "phone": "+14258222882", "address": "425 Urban Plz"}, "geometry": {"type": "Point", "coordinates": [-122.1993256, 47.6778793]}}, {"type": "Feature", "properties": {"id": 325831617, "name": "Acropolis Pizza & Pasta", "category": "restaurant", "tags": ["restaurant", "greek", "pasta", "pizza"], "sources": ["osm"], "phone": "+1-425-827-3777", "address": "500 Central Way"}, "geometry": {"type": "Point", "coordinates": [-122.1985483, 47.6791433]}}, {"type": "Feature", "properties": {"id": 731248626, "name": "Vinason Pho Kitchen - Kirkland", "category": "restaurant", "tags": ["restaurant", "vietnamese", "pho", "vegetarian"], "sources": ["osm"], "website": "https://www.vinason.net"}, "geometry": {"type": "Point", "coordinates": [-122.198516, 47.6781725]}}, {"type": "Feature", "properties": {"id": 731248627, "name": "Chainline Brewing Company", "category": "pub", "tags": ["pub", "beer", "craft-beer", "pizza", "bavarian-pretzel", "pretzel", "outdoor-seating", "microbrew", "bar", "brewery"], "sources": ["osm", "overture"], "website": "http://www.chainlinebrewing.com/", "phone": "+14258223455", "address": "500 Uptown Ct", "hours": "Mo-We 15:00-20:00; Th 15:00-21:00; Fr 14:00-21:00; Sa 12:00-21:00; Su 12:00-20:00"}, "geometry": {"type": "Point", "coordinates": [-122.1982471, 47.6783715]}}, {"type": "Feature", "properties": {"id": "05d7fa1e-68da-407f-9067-7e74ef41af43", "name": "Dough Zone Dumpling House", "category": "restaurant", "tags": ["restaurant", "chinese", "asian"], "sources": ["overture"], "website": "http://doughzonedumplinghouse.com/", "phone": "+14256418000", "address": "520 Uptown Ct"}, "geometry": {"type": "Point", "coordinates": [-122.1983948, 47.6786346]}}, {"type": "Feature", "properties": {"id": "8fb4dcba-b354-48f5-bdfd-a7438c0f638f", "name": "Vinason Pho Kitchen", "category": "restaurant", "tags": ["restaurant", "vietnamese", "asian"], "sources": ["overture"], "website": "https://www.vinason.net", "phone": "+14258968037", "address": "499 Urban Plz"}, "geometry": {"type": "Point", "coordinates": [-122.1986694, 47.678154]}}, {"type": "Feature", "properties": {"id": "bd5df55a-e497-49a5-9a55-3bd3cf1fd961", "name": "Lucia Italian Restaurant", "category": "restaurant", "tags": ["restaurant", "italian"], "sources": ["overture"], "website": "http://www.iloveluciakirkland.com", "phone": "(425) 889-0200", "address": "222 Parkplace Ctr"}, "geometry": {"type": "Point", "coordinates": [-122.19944, 47.6771126]}}, {"type": "Feature", "properties": {"id": "e0f5a15d-70f3-4af4-baf8-8a80f7683836", "name": "Purple Cafe & Wine Bar", "category": "bar", "tags": ["bar", "wine"], "sources": ["overture"], "website": "http://www.thepurplecafe.com", "phone": "(425) 828-3772", "address": "323 Parkplace Ctr"}, "geometry": {"type": "Point", "coordinates": [-122.1998138, 47.6778412]}}, {"type": "Feature", "properties": {"id": "28c76626-488d-46ca-a377-259fc4ba73ea", "name": "Noahs Bagels", "category": "bakery", "tags": ["bakery", "bagel"], "sources": ["overture"], "website": "http://www.noahs.com/", "phone": "(425) 827-7382", "address": "320 Parkplace Ctr"}, "geometry": {"type": "Point", "coordinates": [-122.1995773, 47.6791573]}}, {"type": "Feature", "properties": {"id": "63d6de2d-6c68-41f6-bd31-7e5227d0a841", "name": "Acropolis Pizza and Pasta", "category": "restaurant", "tags": ["restaurant", "italian", "greek", "pizza"], "sources": ["overture"], "website": "http://www.Acropolispizzapasta.com/", "phone": "+14258273777", "address": "500 Central Way"}, "geometry": {"type": "Point", "coordinates": [-122.198555, 47.6791306]}}, {"type": "Feature", "properties": {"id": "845a2387-80ea-4f9e-b8ac-c40599b648dc", "name": "Rikki Rikki", "category": "restaurant", "tags": ["restaurant", "sushi"], "sources": ["overture"], "website": "http://www.rikkirikki.com/", "phone": "(425) 828-0707", "address": "442 Parkplace Ctr"}, "geometry": {"type": "Point", "coordinates": [-122.1988144, 47.6783104]}}, {"type": "Feature", "properties": {"id": "ebfe234d-2757-4f68-a720-2096848af85e", "name": "SOI Thai Restaurant and Bar", "category": "restaurant", "tags": ["restaurant", "thai", "asian"], "sources": ["overture"], "website": "http://Soi-kirkland.com/", "phone": "+14252027465", "address": "425 Urban Plz"}, "geometry": {"type": "Point", "coordinates": [-122.1986542, 47.67799]}}, {"type": "Feature", "properties": {"id": "ba4e5339-9302-4ee8-a66d-38ad6c840a8f", "name": "Chainline Station", "category": "bar", "tags": ["bar", "brewery"], "sources": ["overture"], "website": "http://Www.chainlinebrewing.com/", "phone": "+14255424550", "address": "604 5th Pl S"}, "geometry": {"type": "Point", "coordinates": [-122.1975479, 47.6712265]}}, {"type": "Feature", "properties": {"id": "250a0cbe-7deb-4af7-9aee-b4dd9a9d91b1", "name": "Chainline Brewing", "category": "bar", "tags": ["bar"], "sources": ["overture"], "website": "http://chainlinebrew.com/", "phone": "+14252420923", "address": "503 6th St S"}, "geometry": {"type": "Point", "coordinates": [-122.1969833, 47.6717453]}}, {"type": "Feature", "properties": {"id": 10767407556, "name": "Ryan James", "category": "gallery", "tags": ["gallery"], "sources": ["osm"]}, "geometry": {"type": "Point", "coordinates": [-122.198838, 47.6778984]}}, {"type": "Feature", "properties": {"id": "f58ed7c3-537a-4fe6-b22e-9dd02a0b1f9d", "name": "Tera Apartments", "category": "attraction", "tags": ["attraction", "landmark", "historical", "building"], "sources": ["overture"], "website": "https://www.teraapts.com/", "phone": "+14255417578", "address": "528 Central Way"}, "geometry": {"type": "Point", "coordinates": [-122.1976166, 47.6793556]}}, {"type": "Feature", "properties": {"id": "30b599e1-858a-4c57-afd0-98e50c3757ec", "name": "Kirkland Art Center Store", "category": "gallery", "tags": ["gallery", "art"], "sources": ["overture"], "website": "http://www.kirklandartscenter.org/", "phone": "4258278219", "address": "336 Parkplace Ctr"}, "geometry": {"type": "Point", "coordinates": [-122.1991806, 47.6786919]}}, {"type": "Feature", "properties": {"id": "57f8c023-cde1-4798-86b5-51d95653372e", "name": "Ryan James Fine Arts", "category": "gallery", "tags": ["gallery", "art"], "sources": ["overture"], "website": "http://www.ryanjamesfinearts.com/", "phone": "+14258149500", "address": "425 Urban Plz"}, "geometry": {"type": "Point", "coordinates": [-122.1988754, 47.6779823]}}, {"type": "Feature", "properties": {"id": "b648c590-728d-4b19-8538-25c0c00d0809", "name": "Uptown at Kirkland Urban", "category": "attraction", "tags": ["attraction", "landmark", "historical", "building"], "sources": ["overture"], "website": "https://washington.weidner.com/apartments/wa/kirkland/uptown-at-kirkland-urban?rcstdid=MTE%3D-aKFOxiSL8lQ%3D", "phone": "+14252726028", "address": "550 Uptown Ct"}, "geometry": {"type": "Point", "coordinates": [-122.1979599, 47.678257]}}, {"type": "Feature", "properties": {"id": "f08fc06c-4a60-41ea-90cd-2d7c83877986", "name": "Highlander East Apartments", "category": "attraction", "tags": ["attraction", "landmark", "historical", "building"], "sources": ["overture"], "website": "http://www.highlandereastkirkland.com/", "phone": "+14259995660", "address": "470 2nd Ave S"}, "geometry": {"type": "Point", "coordinates": [-122.1990967, 47.6741257]}}, {"type": "Feature", "properties": {"id": "624fa3c3-f416-4666-a44c-4065da205a41", "name": "Boardwalk", "category": "attraction", "tags": ["attraction", "landmark", "historical", "building"], "sources": ["overture"], "website": "https://kirklandboardwalk.com/", "phone": "+14255224974", "address": "434 Kirkland Way"}, "geometry": {"type": "Point", "coordinates": [-122.1998367, 47.6759186]}}, {"type": "Feature", "properties": {"id": "4a9dc4c8-83b5-4a10-9842-184c6c0118f0", "name": "Townhomes At Kirkland", "category": "attraction", "tags": ["attraction", "landmark", "historical", "building"], "sources": ["overture"], "address": "410 2nd Ave S"}, "geometry": {"type": "Point", "coordinates": [-122.1999664, 47.6746597]}}, {"type": "Feature", "properties": {"id": 55950297, "name": "Everest Memorial Park", "category": "park", "tags": ["park"], "sources": ["osm"], "website": "https://www.kirklandwa.gov/Government/Departments/Parks-and-Community-Services/Find-a-Park/Everest-Park"}, "geometry": {"type": "Point", "coordinates": [-122.1915563, 47.6719322]}}, {"type": "Feature", "properties": {"id": 605393023, "name": "Neal-Landguth Wetland Park", "category": "park", "tags": ["park"], "sources": ["osm", "overture"], "website": "https://www.kirklandwa.gov/Home", "phone": "+14255873300", "address": "214 10th St S"}, "geometry": {"type": "Point", "coordinates": [-122.190409, 47.6738917]}}, {"type": "Feature", "properties": {"id": 1180154433, "name": "Feriton Spur Park", "category": "park", "tags": ["park"], "sources": ["osm"], "website": "https://www.kirklandwa.gov/Government/Departments/Parks-and-Community-Services/Find-a-Park/Feriton-Spur-Park"}, "geometry": {"type": "Point", "coordinates": [-122.1978352, 47.6706736]}}, {"type": "Feature", "properties": {"id": "cf81ab86-9e50-4f01-9256-8e547d89e373", "name": "Feriton Spur Park", "category": "park", "tags": ["park"], "sources": ["overture"], "phone": "+14255873300", "address": "509 6th St S"}, "geometry": {"type": "Point", "coordinates": [-122.1973877, 47.6718864]}}, {"type": "Feature", "properties": {"id": 1255422952, "name": "Fisk Family Park", "category": "park", "tags": ["park"], "sources": ["osm"], "website": "https://www.kirklandwa.gov/Government/Departments/Parks-and-Community-Services/Find-a-Park/Fisk-Family-Park", "address": "212 6th Street South", "hours": "sunrise-23:00"}, "geometry": {"type": "Point", "coordinates": [-122.1959396, 47.67366]}}, {"type": "Feature", "properties": {"id": "604e9df9-689e-48dd-8b4b-5e39031e578d", "name": "Cross Kirkland Corridor", "category": "park", "tags": ["park"], "sources": ["overture"], "website": "www.kirklandwa.gov/Residents/Community/Cross_Kirkland_Corridor.htm", "address": "Kirkland, WA, Cross Kirkland Corridor/Eastrail"}, "geometry": {"type": "Point", "coordinates": [-122.196312, 47.6731071]}}, {"type": "Feature", "properties": {"id": "7c194f8f-4804-40a4-859b-2fcb994a2e0e", "name": "Everest Park", "category": "park", "tags": ["park"], "sources": ["overture"], "website": "http://www.kirklandwa.gov/depart/parks/Facility_Rentals/Everest_Park_Picnic_Shelter.htm", "phone": "+14255873300", "address": "500 8th St S"}, "geometry": {"type": "Point", "coordinates": [-122.1936264, 47.672039]}}, {"type": "Feature", "properties": {"id": "66049efa-dd33-497b-bbf2-f484b1450e93", "name": "City Of Kirkland Everest Park", "category": "park", "tags": ["park"], "sources": ["overture"], "website": "https://www.kirklandwa.gov/depart/parks/Parks_and_Open_Spaces/Online_Parks_Guide/Parks_Pop-up_Main/Parks_and_Community_Services__Everest_Park.htm", "phone": "+14255873871", "address": "551 8th St S"}, "geometry": {"type": "Point", "coordinates": [-122.1928482, 47.6711998]}}, {"type": "Feature", "properties": {"id": "e0390633-7f3f-4043-9a46-52c4ec20227a", "name": "Noble House Hotels & Resorts", "category": "hotel", "tags": ["hotel"], "sources": ["overture"], "website": "https://www.noblehousehotels.com/", "phone": "+14258278737", "address": "600 6th St S"}, "geometry": {"type": "Point", "coordinates": [-122.196106, 47.6706696]}}, {"type": "Feature", "properties": {"id": "185cab91-35cc-4781-8149-1d7a6ea80eb9", "name": "Casabella", "category": "guest_house", "tags": ["guest-house", "bed", "breakfast"], "sources": ["overture"], "phone": "2065039001", "address": "450 Central Way"}, "geometry": {"type": "Point", "coordinates": [-122.1996918, 47.6786575]}}, {"type": "Feature", "properties": {"id": 6849066835, "name": "QFC", "category": "supermarket", "tags": ["supermarket"], "sources": ["osm", "overture"], "website": "https://www.qfc.com/stores/grocery/wa/kirkland/kirkland-urban/705/00894?cid=loc_70500894_fb", "phone": "+14258272205", "address": "425 Urban Plz", "hours": "Mo-Su 05:00-01:00"}, "geometry": {"type": "Point", "coordinates": [-122.1997935, 47.6776266]}}, {"type": "Feature", "properties": {"id": 10767407568, "name": "Mud Bay", "category": "pet", "tags": ["pet"], "sources": ["osm", "overture"], "website": "https://www.mudbay.com/pet-store/KIR-kirkland-WA", "phone": "4254487880", "address": "425 Urban Plz"}, "geometry": {"type": "Point", "coordinates": [-122.1986841, 47.6779228]}}, {"type": "Feature", "properties": {"id": 11983690675, "name": "Walla Walla Clothing Company", "category": "clothes", "tags": ["clothes"], "sources": ["osm"]}, "geometry": {"type": "Point", "coordinates": [-122.1995947, 47.6780902]}}, {"type": "Feature", "properties": {"id": "3f373f99-7161-45df-9c23-9b1e51b79010", "name": "AT&T Store", "category": "mobile_phone", "tags": ["mobile-phone", "mobile"], "sources": ["overture"], "website": "https://www.att.com/stores/washington/kirkland/174267", "phone": "(425) 827-0117", "address": "400 Urban Plz Ste 135"}, "geometry": {"type": "Point", "coordinates": [-122.1995239, 47.6784058]}}, {"type": "Feature", "properties": {"id": "0eb17453-2ebe-4d51-95c1-453499506695", "name": "PCC Community Markets", "category": "supermarket", "tags": ["supermarket"], "sources": ["overture"], "website": "http://www.pccnaturalmarkets.com", "phone": "(425) 828-4622", "address": "430 Kirkland Way"}, "geometry": {"type": "Point", "coordinates": [-122.1996841, 47.6761665]}}, {"type": "Feature", "properties": {"id": "4c7d4f61-d689-426c-b1f8-2e307ffd9f85", "name": "Walla Walla Clothing Co.", "category": "clothes", "tags": ["clothes", "womens"], "sources": ["overture"], "phone": "+14252859448", "address": "400 Urban Plz"}, "geometry": {"type": "Point", "coordinates": [-122.1992874, 47.6781654]}}, {"type": "Feature", "properties": {"id": "0a1e6083-aa65-4895-bd05-6c3140be9e74", "name": "Wood Care Systems", "category": "doityourself", "tags": ["doityourself", "home", "improvement"], "sources": ["overture"], "website": "http://www.ewoodcare.com/", "phone": "4258276000", "address": "719 Kirkland Ave"}, "geometry": {"type": "Point", "coordinates": [-122.1949692, 47.6753197]}}, {"type": "Feature", "properties": {"id": "00aa6a22-43e0-4708-9e5c-efaf339f6b7e", "name": "Eakman Construction", "category": "doityourself", "tags": ["doityourself", "building", "supply"], "sources": ["overture"], "website": "http://eakmanconstruction.com", "phone": "(206) 972-2275", "address": "751 Kirkland Ave"}, "geometry": {"type": "Point", "coordinates": [-122.1949997, 47.674202]}}, {"type": "Feature", "properties": {"id": "d994cee0-4b93-4660-887d-d66cc6560f69", "name": "Primary Care - Virginia Mason Kirkland", "category": "clinic", "tags": ["clinic", "medical"], "sources": ["overture"], "website": "http://vmfh.org", "phone": "(425) 814-5100", "address": "620 Fifth Ave S"}, "geometry": {"type": "Point", "coordinates": [-122.1956635, 47.6720123]}}, {"type": "Feature", "properties": {"id": 107384008, "name": "Wells Fargo", "category": "bank", "tags": ["bank", "drive-through", "credit", "union"], "sources": ["osm", "overture"], "website": "http://www.wellsfargo.com", "phone": "+14258271413", "address": "460 Central Way", "hours": "Mo-Fr 9:00-18:00; Sa 10:00-16:00"}, "geometry": {"type": "Point", "coordinates": [-122.1995764, 47.6790798]}}, {"type": "Feature", "properties": {"id": 10720215140, "name": "First Tech Federal Credit Union", "category": "bank", "tags": ["bank"], "sources": ["osm"]}, "geometry": {"type": "Point", "coordinates": [-122.1994551, 47.6784016]}}, {"type": "Feature", "properties": {"id": "0730e4b5-e453-491c-9b6a-f2ed38aa1685", "name": "US Post Office", "category": "post_office", "tags": ["post-office", "office"], "sources": ["overture"], "website": "https://tools.usps.com/find-location.htm?location=1368576", "phone": "(800) 275-8777", "address": "721 4th Ave"}, "geometry": {"type": "Point", "coordinates": [-122.1945801, 47.678421]}}, {"type": "Feature", "properties": {"id": 302693431, "name": "Kirkland Post Office", "category": "post_office", "tags": ["post-office", "office"], "sources": ["osm", "overture"], "website": "www.usps.com", "phone": "+14257396727", "address": "721 4th Ave", "hours": "Mo-Fr 08:30-17:30; Sa 10:00-14:30"}, "geometry": {"type": "Point", "coordinates": [-122.1945928, 47.6784217]}}, {"type": "Feature", "properties": {"id": "0a566bca-8335-4b90-b282-9e998dfbacbb", "name": "United States Postal Service", "category": "post_office", "tags": ["post-office", "office"], "sources": ["overture"], "website": "https://tools.usps.com/locations/details/1368576?utm_source=website-url&utm_medium=search&utm_campaign=yext", "phone": "8002758777", "address": "721 4th Ave"}, "geometry": {"type": "Point", "coordinates": [-122.1945724, 47.6783981]}}, {"type": "Feature", "properties": {"id": 11983690679, "name": "Power Hour 360", "category": "fitness_centre", "tags": ["fitness-centre"], "sources": ["osm"], "website": "https://www.powerhour360.wa.com"}, "geometry": {"type": "Point", "coordinates": [-122.1994831, 47.6781192]}}, {"type": "Feature", "properties": {"id": 12963729816, "name": "LazerX Arena", "category": "sports_centre", "tags": ["sports-centre", "laser-tag"], "sources": ["osm"], "website": "https://www.lazerxarena.com", "address": "210 8th Street South"}, "geometry": {"type": "Point", "coordinates": [-122.1928501, 47.6740948]}}, {"type": "Feature", "properties": {"id": "4c0c2c74-8a4a-4818-80b1-84addb2ae8ab", "name": "EndZone Athletics", "category": "fitness_centre", "tags": ["fitness-centre", "gym"], "sources": ["overture"], "website": "http://www.endzoneathletics.com", "phone": "(425) 739-9295", "address": "423 6th St S"}, "geometry": {"type": "Point", "coordinates": [-122.1967926, 47.6714325]}}, {"type": "Feature", "properties": {"id": "5e21b48c-9668-4533-81bf-8f7a1b18e67c", "name": "Invictus Fitness Seattle", "category": "fitness_centre", "tags": ["fitness-centre", "gym"], "sources": ["overture"], "website": "https://invictusfitnessseattle.com/", "phone": "+14258020774", "address": "210 8th St S"}, "geometry": {"type": "Point", "coordinates": [-122.1929398, 47.6742249]}}]}