{"type": "FeatureCollection", "features": [{"type": "Feature", "properties": {"id": "ebef9c75-1c55-4356-b4cc-f452dffffb09", "name": "T3MA Muay Thai", "category": "restaurant", "tags": ["restaurant", "thai"], "sources": ["overture"], "website": "http://www.t3ma.com/", "phone": "+18002109424", "address": "13222 SE 30th St"}, "geometry": {"type": "Point", "coordinates": [-122.1642227, 47.5852394]}}, {"type": "Feature", "properties": {"id": "ef707598-4001-45a3-8984-e010d589dcdf", "name": "The Standard Bellevue", "category": "attraction", "tags": ["attraction", "landmark", "historical", "building"], "sources": ["overture"], "website": "http://pacificliving.com", "phone": "+14255980953", "address": "2801 130th Ave SE"}, "geometry": {"type": "Point", "coordinates": [-122.1670914, 47.5853233]}}, {"type": "Feature", "properties": {"id": "c962af48-98e9-47b9-b596-a67915b6eb5c", "name": "Surrey Downs Apartments", "category": "attraction", "tags": ["attraction", "landmark", "historical", "building"], "sources": ["overture"], "website": "https://home.securityproperties.com/surreydowns/?utm_source=Facebook", "phone": "+14254032928", "address": "13035 SE 26th St"}, "geometry": {"type": "Point", "coordinates": [-122.1657028, 47.5867271]}}, {"type": "Feature", "properties": {"id": "28910d72-5b57-4ad6-9511-42e98f68dc4b", "name": "SiteOne Landscape Supply", "category": "doityourself", "tags": ["doityourself", "building", "supply"], "sources": ["overture"], "website": "https://terrazzostone.com/", "phone": "+14256445577", "address": "13162 SE 32nd St"}, "geometry": {"type": "Point", "coordinates": [-122.1647873, 47.58218]}}, {"type": "Feature", "properties": {"id": "ac950f54-f030-4f50-a182-03e7ea648309", "name": "Sherwin-Williams", "category": "hardware", "tags": ["hardware"], "sources": ["overture"], "website": "https://www.sherwin-williams.com/store-locator/commercial-paint-store/bellevue/wa/727642", "phone": "+14259579419", "address": "13205 SE 30th St"}, "geometry": {"type": "Point", "coordinates": [-122.1640396, 47.5836449]}}, {"type": "Feature", "properties": {"id": "c94f8f0e-d4bb-46f5-a1a4-faa99d242c47", "name": "White Cap", "category": "doityourself", "tags": ["doityourself", "building", "supply"], "sources": ["overture"], "website": "https://www.whitecap.com/branches/507", "phone": "+14254362600", "address": "13215 SE 30th St"}, "geometry": {"type": "Point", "coordinates": [-122.1633835, 47.5836525]}}, {"type": "Feature", "properties": {"id": "7c35c2fa-16b5-4a47-bfc2-9a08cf85d107", "name": "Mr. Handyman of SE Bellevue", "category": "doityourself", "tags": ["doityourself", "building", "supply"], "sources": ["overture"], "website": "https://www.mrhandyman.com/southeast-bellevue/", "phone": "(425) 276-6344", "address": "13300 SE 30th St #209"}, "geometry": {"type": "Point", "coordinates": [-122.1632614, 47.5843925]}}, {"type": "Feature", "properties": {"id": "bfe320fc-4456-4f4f-8ab0-14c2abccfc1d", "name": "Johnstone Supply Bellevue", "category": "furniture", "tags": ["furniture"], "sources": ["overture"], "website": "https://www.johnstonesupply.com/storefront/store301/home.ep", "phone": "(425) 641-5732", "address": "13200 SE 30TH STREET"}, "geometry": {"type": "Point", "coordinates": [-122.1640625, 47.584259]}}, {"type": "Feature", "properties": {"id": "8f347f3b-05f1-491f-89c3-6a563b3b5d88", "name": "HD Supply White Cap", "category": "doityourself", "tags": ["doityourself", "building", "supply"], "sources": ["overture"], "website": "https://www.whitecap.com/locations/", "phone": "4254362600", "address": "13215 SE 30th St"}, "geometry": {"type": "Point", "coordinates": [-122.1633835, 47.5837669]}}, {"type": "Feature", "properties": {"id": "1e3c2173-4fd3-4a5e-a22c-943ea6c9eee4", "name": "Terrazzo & Stone Supply Company, A SiteOne Company", "category": "doityourself", "tags": ["doityourself", "building", "supply"], "sources": ["overture"], "website": "http://terrazzostone.com/", "phone": "4256445577", "address": "13162 SE 32nd St"}, "geometry": {"type": "Point", "coordinates": [-122.1646576, 47.5822792]}}, {"type": "Feature", "properties": {"id": "c3e4c465-ce76-44ca-9629-2de5b755a4ed", "name": "Yardmaster", "category": "doityourself", "tags": ["doityourself", "building", "supply"], "sources": ["overture"], "website": "http://www.yardmasterinc.com", "phone": "(206) 232-9273", "address": "13429 SE 30th St"}, "geometry": {"type": "Point", "coordinates": [-122.1600037, 47.5833244]}}, {"type": "Feature", "properties": {"id": "cf6af7e2-af8b-4de2-a1b8-64f388accfb8", "name": "USPS Bellevue Carrier Annex", "category": "post_office", "tags": ["post-office", "office"], "sources": ["overture"], "website": "https://www.usps.com/", "phone": "+14256438351", "address": "13400 SE 30th St"}, "geometry": {"type": "Point", "coordinates": [-122.1611252, 47.5841064]}}, {"type": "Feature", "properties": {"id": "17af302a-8468-4cd1-8b9d-5278727148c8", "name": "Bellevue Badminton Club", "category": "sports_centre", "tags": ["sports-centre", "sports", "club", "league"], "sources": ["overture"], "website": "http://bellevuebadminton.com/", "phone": "+14255622950", "address": "13405 SE 30th St"}, "geometry": {"type": "Point", "coordinates": [-122.1614685, 47.5830917]}}, {"type": "Feature", "properties": {"id": 256405725, "name": "West Coast Armory Indoor Range", "category": "sports_centre", "tags": ["sports-centre", "shooting"], "sources": ["osm"], "website": "https://www.westcoastarmory.com/", "phone": "+1-425-641-2877", "address": "13216 Southeast 32nd Street"}, "geometry": {"type": "Point", "coordinates": [-122.1635809, 47.5822935]}}, {"type": "Feature", "properties": {"id": "35404d4a-8939-4718-b6b3-9c657f11d402", "name": "Ford Sports Performance", "category": "fitness_centre", "tags": ["fitness-centre", "gym"], "sources": ["overture"], "website": "http://gofordsports.com", "phone": "+14257462600", "address": "13425 SE 30th St"}, "geometry": {"type": "Point", "coordinates": [-122.160675, 47.5828209]}}, {"type": "Feature", "properties": {"id": "3c5575e4-f95c-4b73-88f8-5aeda4e07a7d", "name": "Compound Strength and Performance", "category": "fitness_centre", "tags": ["fitness-centre", "gym"], "sources": ["overture"], "website": "http://www.compoundstrengthandperformance.com/", "address": "2930 Richards Rd SE"}, "geometry": {"type": "Point", "coordinates": [-122.1656418, 47.5845261]}}, {"type": "Feature", "properties": {"id": "600ca7df-4045-49e4-8b58-7cac6aa89c51", "name": "The MOUVment", "category": "fitness_centre", "tags": ["fitness-centre", "gym"], "sources": ["overture"], "website": "https://www.themouvment.com/", "phone": "+12063544698", "address": "13420 SE 32nd St"}, "geometry": {"type": "Point", "coordinates": [-122.1607742, 47.5828209]}}, {"type": "Feature", "properties": {"id": "b42367e9-ac96-4a8d-a4d4-be1fa85e8044", "name": "CrossFit Bellevue", "category": "fitness_centre", "tags": ["fitness-centre", "gym"], "sources": ["overture"], "website": "http://www.crossfitbellevue.com/", "phone": "2063513481", "address": "13425 SE 30th St Ste 2c"}, "geometry": {"type": "Point", "coordinates": [-122.1606445, 47.5825119]}}, {"type": "Feature", "properties": {"id": "9de7cd84-f69e-47af-ada7-5e0d4a25dd78", "name": "BodySchock Fitness", "category": "fitness_centre", "tags": ["fitness-centre", "gym"], "sources": ["overture"], "website": "http://bodyschockfitness.com/", "phone": "+12065957752", "address": "13410 SE 32nd St"}, "geometry": {"type": "Point", "coordinates": [-122.161438, 47.5822906]}}, {"type": "Feature", "properties": {"id": "955bd6a3-01c1-493d-b534-4472fcbcce51", "name": "InSights Training Center", "category": "fitness_centre", "tags": ["fitness-centre", "gym"], "sources": ["overture"], "website": "http://www.InSightsTraining.com/", "phone": "+14258272552", "address": "13216 SE 32nd St"}, "geometry": {"type": "Point", "coordinates": [-122.1636734, 47.5823326]}}, {"type": "Feature", "properties": {"id": "a64d0c65-0da9-48cc-a6e7-bc5733c7f7f8", "name": "Action Athletics, Inc", "category": "fitness_centre", "tags": ["fitness-centre", "gym"], "sources": ["overture"], "website": "http://www.actioncheer.com", "phone": "(425) 401-8501", "address": "13425 SE 30th St"}, "geometry": {"type": "Point", "coordinates": [-122.1605988, 47.5828629]}}, {"type": "Feature", "properties": {"id": "673e97fe-dc97-4a5f-93cf-daae8eec9fcc", "name": "Sudden Impact Volleyball Club", "category": "sports_centre", "tags": ["sports-centre", "sports", "club", "league"], "sources": ["overture"], "website": "https://suredhawk.wixsite.com/sivbc", "phone": "+12067993934", "address": "13405 SE 30th St"}, "geometry": {"type": "Point", "coordinates": [-122.1612396, 47.5833588]}}]}