{"type": "FeatureCollection", "features": [{"type": "Feature", "properties": {"id": "26d2ab43-7c16-4e7c-8b03-9582a3a4c5c5", "name": "Taco Time", "category": "restaurant", "tags": ["restaurant", "mexican"], "sources": ["overture"], "website": "http://www.TacoTimeNW.com", "phone": "(206) 762-5830", "address": "6442 E Marginal Way S"}, "geometry": {"type": "Point", "coordinates": [-122.3310318, 47.5452614]}}, {"type": "Feature", "properties": {"id": "7503af72-c16b-4a8f-b510-afd0ac973b09", "name": "McDonald's", "category": "fast_food", "tags": ["fast-food", "fast", "food"], "sources": ["overture"], "website": "http://www.mcdonalds.com", "phone": "(206) 762-2686", "address": "6145 4th Ave S"}, "geometry": {"type": "Point", "coordinates": [-122.3302383, 47.5462799]}}, {"type": "Feature", "properties": {"id": 231287984, "name": "Jack in the Box", "category": "fast_food", "tags": ["fast-food", "burger", "takeaway", "drive-through", "fast", "food"], "sources": ["osm", "overture"], "website": "https://www.jackinthebox.com", "phone": "+12067649564", "address": "5903 1st Ave S", "hours": "24/7"}, "geometry": {"type": "Point", "coordinates": [-122.3345976, 47.5499931]}}, {"type": "Feature", "properties": {"id": 231287941, "name": "Matt's Famous Chili Dogs", "category": "fast_food", "tags": ["fast-food", "hot-dog", "restaurant", "hot", "dog", "american"], "sources": ["osm", "overture"], "website": "http://www.mattshotdogs.com/", "phone": "+12067680418", "address": "6615 E Marginal Way S"}, "geometry": {"type": "Point", "coordinates": [-122.330112, 47.543901]}}, {"type": "Feature", "properties": {"id": "826a6589-76ea-4366-b507-e79e1b68fd74", "name": "Northwest Seafood Processors", "category": "restaurant", "tags": ["restaurant", "seafood"], "sources": ["overture"], "website": "http://www.odysseyenterprisesinc.com/nwsp", "phone": "(206) 762-7256", "address": "206 SW Michigan St"}, "geometry": {"type": "Point", "coordinates": [-122.3372574, 47.5409431]}}, {"type": "Feature", "properties": {"id": "aa4f0bdd-300a-45a9-96a3-fadb0d984f07", "name": "Dawn Food Products", "category": "bakery", "tags": ["bakery"], "sources": ["overture"], "website": "http://www.dawnfoods.com", "phone": "+12066237740", "address": "6901 Fox Ave S"}, "geometry": {"type": "Point", "coordinates": [-122.3301926, 47.5405617]}}, {"type": "Feature", "properties": {"id": "829ab85b-cab1-49d1-ae10-b0f46096998f", "name": "Animated Cafe", "category": "cafe", "tags": ["cafe"], "sources": ["overture"], "website": "http://animatedseattle.com/", "phone": "+12069624953", "address": "303 S Michigan St"}, "geometry": {"type": "Point", "coordinates": [-122.3303299, 47.5448761]}}, {"type": "Feature", "properties": {"id": "d3fa04ec-fcfb-45ef-b258-620ba396c4aa", "name": "Westco-Bakemark", "category": "bakery", "tags": ["bakery"], "sources": ["overture"], "website": "http://www.bakemarkusa.com", "phone": "+12067682430", "address": "5958 1st Ave S"}, "geometry": {"type": "Point", "coordinates": [-122.3335037, 47.5486031]}}, {"type": "Feature", "properties": {"id": "dc7e8755-f2eb-4787-9ee6-daf70389720c", "name": "Ener-G Gluten Free Bakery", "category": "bakery", "tags": ["bakery"], "sources": ["overture"], "website": "http://www.ener-g.com/", "phone": "+18003315222", "address": "5960 1st Ave S"}, "geometry": {"type": "Point", "coordinates": [-122.3335266, 47.5483322]}}, {"type": "Feature", "properties": {"id": "8e32cbdd-51bf-4602-8d2b-dc9dae4610ec", "name": "1st Avenue Bridge", "category": "attraction", "tags": ["attraction", "landmark", "historical", "building"], "sources": ["overture"], "website": "http://www.wsdot.wa.gov/northwest/king/1stavesbridge", "phone": "+12064404475", "address": "1st Ave S"}, "geometry": {"type": "Point", "coordinates": [-122.3339691, 47.5427246]}}, {"type": "Feature", "properties": {"id": "941ce99b-4259-4b06-b248-0ec39e67526d", "name": "Fright Gallery", "category": "gallery", "tags": ["gallery", "art"], "sources": ["overture"], "website": "http://www.glaciernw.com", "phone": "(206) 768-2262", "address": "6335 1st Ave S"}, "geometry": {"type": "Point", "coordinates": [-122.3349304, 47.5462532]}}, {"type": "Feature", "properties": {"id": 399781440, "name": "Terminal 115 Park", "category": "park", "tags": ["park"], "sources": ["osm"]}, "geometry": {"type": "Point", "coordinates": [-122.3352397, 47.5417282]}}, {"type": "Feature", "properties": {"id": 858773084, "name": "1st Avenue South Street End", "category": "park", "tags": ["park"], "sources": ["osm"]}, "geometry": {"type": "Point", "coordinates": [-122.3339769, 47.5430044]}}, {"type": "Feature", "properties": {"id": 231287929, "name": "ExtraMile", "category": "convenience", "tags": ["convenience", "wheelchair-accessible"], "sources": ["osm", "overture"], "website": "https://www.chevronextramile.com/station-finder/5940-e-marginal-way-s-seattle-wa-98134-2415-id90636", "phone": "+12067631567", "address": "5940 E Marginal Way S"}, "geometry": {"type": "Point", "coordinates": [-122.3345774, 47.5497054]}}, {"type": "Feature", "properties": {"id": 231287919, "name": "The Reef", "category": "cannabis", "tags": ["cannabis"], "sources": ["osm"], "address": "303 South Michigan Street"}, "geometry": {"type": "Point", "coordinates": [-122.3302791, 47.5448842]}}, {"type": "Feature", "properties": {"id": "cb5d4369-0908-42e8-bfd8-0e4338d1e9cf", "name": "Inline Design", "category": "doityourself", "tags": ["doityourself", "building", "supply"], "sources": ["overture"], "website": "https://inlinedesign.com/", "phone": "4254055505", "address": "6335 1st Ave S Unit Main"}, "geometry": {"type": "Point", "coordinates": [-122.3348923, 47.546196]}}, {"type": "Feature", "properties": {"id": "524ecb0d-5432-4638-95d2-c045cc341438", "name": "CertainTeed", "category": "doityourself", "tags": ["doityourself", "building", "supply"], "sources": ["overture"], "website": "http://certainteed.com", "phone": "+12067631550", "address": "5931 E Marginal Way S"}, "geometry": {"type": "Point", "coordinates": [-122.3354416, 47.5493431]}}, {"type": "Feature", "properties": {"id": "20a7cb8b-df26-4429-949b-24c8ebad8011", "name": "The Reef \u00b0 Georgetown", "category": "cannabis", "tags": ["cannabis"], "sources": ["overture"], "website": "http://thereefstores.com", "phone": "(206) 420-2137", "address": "303 S Michigan St"}, "geometry": {"type": "Point", "coordinates": [-122.3302078, 47.5449028]}}, {"type": "Feature", "properties": {"id": "36060846-5dea-438e-8c90-03c48eec5a72", "name": "Grainger", "category": "hardware", "tags": ["hardware"], "sources": ["overture"], "website": "https://www.grainger.com", "address": "6141 4th Ave S"}, "geometry": {"type": "Point", "coordinates": [-122.3302536, 47.5466347]}}, {"type": "Feature", "properties": {"id": "7a83d73c-cb74-472b-ac0b-bda6afd3180c", "name": "Seattle Kosher", "category": "supermarket", "tags": ["supermarket"], "sources": ["overture"], "website": "http://www.seattlekosher.com/", "phone": "+12067721616", "address": "5980 1st Ave S"}, "geometry": {"type": "Point", "coordinates": [-122.3334503, 47.5479927]}}, {"type": "Feature", "properties": {"id": "f573a1e0-2351-474a-8a7b-7f96b54ba35b", "name": "Affordable Kosher", "category": "supermarket", "tags": ["supermarket"], "sources": ["overture"], "website": "http://www.affordablekosher.com", "phone": "(206) 772-1616", "address": "5980 1st Ave S"}, "geometry": {"type": "Point", "coordinates": [-122.3333817, 47.5479965]}}, {"type": "Feature", "properties": {"id": "7ac07da9-c8d0-42b6-85b5-ab34459f2843", "name": "Acme Food Sales", "category": "supermarket", "tags": ["supermarket"], "sources": ["overture"], "website": "http://www.acmefood.com", "phone": "+12067625150", "address": "5940 1st Ave S"}, "geometry": {"type": "Point", "coordinates": [-122.3330612, 47.5491714]}}, {"type": "Feature", "properties": {"id": "a61a5f3c-3101-442e-954e-f71643205003", "name": "U.S. Bank", "category": "bank", "tags": ["bank", "credit", "union"], "sources": ["overture"], "website": "https://www.usbank.com/locations", "phone": "2067620837", "address": "303 S Michigan St"}, "geometry": {"type": "Point", "coordinates": [-122.3302307, 47.5448914]}}, {"type": "Feature", "properties": {"id": "e70eb75d-0929-4397-bf17-c0de1ee0d1a0", "name": "Blueprint Athletic Performance", "category": "fitness_centre", "tags": ["fitness-centre", "gym"], "sources": ["overture"], "website": "http://blueprintathleticperformance.com/", "phone": "(206) 371-7326", "address": "6335 1st Ave S"}, "geometry": {"type": "Point", "coordinates": [-122.3347778, 47.5462036]}}, {"type": "Feature", "properties": {"id": "aa89e4c2-3772-4ee2-a0ae-638fd2df4eaf", "name": "Ironstone Performance", "category": "fitness_centre", "tags": ["fitness-centre", "fitness", "trainer"], "sources": ["overture"], "website": "https://ironstoneperformance.com/", "phone": "+12063046633", "address": "6601 E Marginal Way S"}, "geometry": {"type": "Point", "coordinates": [-122.3303223, 47.5439873]}}]}