{"type": "FeatureCollection", "features": [{"type": "Feature", "properties": {"id": 6238815766, "name": "Just Pok\u00e9", "category": "cafe", "tags": ["cafe", "outdoor-seating"], "sources": ["osm"], "website": "https://justpoke.com/locations/fremont", "address": "734 North 34th Street"}, "geometry": {"type": "Point", "coordinates": [-122.3483269, 47.649489]}}, {"type": "Feature", "properties": {"id": 1248749815, "name": "Sabbverr", "category": "restaurant", "tags": ["restaurant", "thai"], "sources": ["osm"], "website": "https://zapverr.com/", "address": "3410 Fremont Avenue North"}, "geometry": {"type": "Point", "coordinates": [-122.3495767, 47.6499101]}}, {"type": "Feature", "properties": {"id": 1292452729, "name": "Schilling Cider House", "category": "pub", "tags": ["pub", "cider", "wheelchair-accessible", "bar"], "sources": ["osm", "overture"], "website": "http://www.schillingcider.com/", "phone": "+12064207088", "address": "708 N 34th St", "hours": "We-Th 15:00-21:00; Fr 01:00-22:00; Sa 12:00-22:00; Su 12:00-20:00"}, "geometry": {"type": "Point", "coordinates": [-122.3492088, 47.6496206]}}, {"type": "Feature", "properties": {"id": 1292453901, "name": "Kayava.", "category": "restaurant", "tags": ["restaurant", "ramen", "wheelchair-accessible"], "sources": ["osm"], "website": "https://www.kayavausa.com/menu/", "phone": "+1-206-503-2190", "address": "704 North 34th Street", "hours": "We-Su 11:30-15:00,17:00-21:00"}, "geometry": {"type": "Point", "coordinates": [-122.3493242, 47.6496345]}}, {"type": "Feature", "properties": {"id": 1306266678, "name": "Mini Bar Seattle", "category": "pub", "tags": ["pub", "wheelchair-accessible"], "sources": ["osm"], "address": "1100 North Northlake Way"}, "geometry": {"type": "Point", "coordinates": [-122.3431933, 47.6484836]}}, {"type": "Feature", "properties": {"id": 1309515704, "name": "I Love Teriyaki", "category": "fast_food", "tags": ["fast-food", "japanese", "outdoor-seating", "indoor-seating", "takeaway", "vegetarian", "vegan", "restaurant", "asian"], "sources": ["osm", "overture"], "website": "http://www.iloveteriyaki.com", "phone": "+12065475330", "address": "3409 Stone Way N", "hours": "Mo-Fr 10:30-20:30; Sa 11:00-19:00"}, "geometry": {"type": "Point", "coordinates": [-122.3431612, 47.6489046]}}, {"type": "Feature", "properties": {"id": 5152668154, "name": "Evergreens", "category": "fast_food", "tags": ["fast-food", "salad", "takeaway", "wheelchair-accessible"], "sources": ["osm"], "website": "https://www.evergreens.com", "address": "738 North 34th Street", "hours": "10:00-19:00"}, "geometry": {"type": "Point", "coordinates": [-122.3480781, 47.6494509]}}, {"type": "Feature", "properties": {"id": 1855120128, "name": "Wet Clay Cafe", "category": "cafe", "tags": ["cafe", "pottery", "outdoor-seating", "indoor-seating"], "sources": ["osm", "overture"], "website": "https://www.wetclaycafe.com", "phone": "+12067982585", "address": "1109 N 35th St", "hours": "Mo-Th,Su 10:00-20:00; Fr-Sa 09:00-21:00"}, "geometry": {"type": "Point", "coordinates": [-122.343591, 47.6494094]}}, {"type": "Feature", "properties": {"id": 1856692127, "name": "Joule", "category": "restaurant", "tags": ["restaurant", "american", "korean", "outdoor-seating", "wheelchair-accessible", "barbecue"], "sources": ["osm", "overture"], "website": "http://www.joulerestaurant.com/", "phone": "+12066325685", "address": "3506 Stone Way N", "hours": "Su-Th 17:00-21:00; Fr-Sa 17:00-22:00"}, "geometry": {"type": "Point", "coordinates": [-122.3424, 47.6497249]}}, {"type": "Feature", "properties": {"id": 2135544318, "name": "Hushy\u2019s Sandwiches", "category": "cafe", "tags": ["cafe", "sandwich"], "sources": ["osm"], "website": "https://hushyssandwiches.com", "address": "3400 Stone Way North", "hours": "Mo-Fr 11:00-18:00; Sa-Su 10:00-18:00"}, "geometry": {"type": "Point", "coordinates": [-122.3424887, 47.6489855]}}, {"type": "Feature", "properties": {"id": 2135544322, "name": "Purple Caf\u00e9", "category": "restaurant", "tags": ["restaurant", "pizza", "regional", "outdoor-seating", "takeaway", "reservations", "wheelchair-accessible"], "sources": ["osm"], "website": "https://www.purplecafe.com/stone-way", "address": "3400 Stone Way North", "hours": "Su-Mo 16:00-21:00; Tu-Sa 16:00-22:00"}, "geometry": {"type": "Point", "coordinates": [-122.3424759, 47.6491869]}}, {"type": "Feature", "properties": {"id": 6238815765, "name": "DIY Tea Lab", "category": "cafe", "tags": ["cafe", "bubble-tea", "takeaway", "wheelchair-accessible"], "sources": ["osm"], "website": "https://www.diytealab.com/", "phone": "+1-206-457-4283", "address": "734 North 34th Street", "hours": "11:00-19:45"}, "geometry": {"type": "Point", "coordinates": [-122.3482169, 47.6494722]}}, {"type": "Feature", "properties": {"id": 2143322925, "name": "Figurehead Stone Way", "category": "pub", "tags": ["pub", "brewery", "outdoor-seating", "restaurant"], "sources": ["osm", "overture"], "website": "http://www.figureheadbrewingcompany.com/", "phone": "+12062571719", "address": "3513 Stone Way N", "hours": "11:00-22:00"}, "geometry": {"type": "Point", "coordinates": [-122.3429942, 47.6499568]}}, {"type": "Feature", "properties": {"id": 2167340900, "name": "Caf\u00e9 Turko", "category": "restaurant", "tags": ["restaurant", "turkish", "outdoor-seating", "takeaway", "wheelchair-accessible"], "sources": ["osm", "overture"], "website": "http://www.cafeturko.com/", "phone": "+12062849954", "address": "750 N 34th St", "hours": "Tu-Th, Su 10:00-20:30; Fr-Sa 10:00-21:00"}, "geometry": {"type": "Point", "coordinates": [-122.347834, 47.6494266]}}, {"type": "Feature", "properties": {"id": 2167340902, "name": "Milstead & Co.", "category": "cafe", "tags": ["cafe", "coffee-shop", "takeaway", "wheelchair-accessible", "wifi", "coffee"], "sources": ["osm", "overture"], "website": "http://www.milsteadandco.com", "phone": "+12066594814", "address": "754 N 34th St", "hours": "Mo-Fr 06:00-18:00; Sa-Su 07:00-18:00"}, "geometry": {"type": "Point", "coordinates": [-122.3476154, 47.649393]}}, {"type": "Feature", "properties": {"id": 5253422600, "name": "Tivoli", "category": "restaurant", "tags": ["restaurant", "pizza", "outdoor-seating", "takeaway", "reservations", "wheelchair-accessible", "italian"], "sources": ["osm", "overture"], "website": "http://tivoliseattle.com/", "phone": "+12065356054", "address": "730 N 34th St", "hours": "Mo-Fr 11:30-21:00; Sa-Su 17:00-21:00"}, "geometry": {"type": "Point", "coordinates": [-122.3484774, 47.649559]}}, {"type": "Feature", "properties": {"id": 11829469808, "name": "Midnite Ramen", "category": "restaurant", "tags": ["restaurant", "ramen", "outdoor-seating"], "sources": ["osm"], "website": "https://info955137.wixsite.com/mysite", "address": "3513 Stone Way North", "hours": "We-Su 11:30-14:00, 17:00-20:40"}, "geometry": {"type": "Point", "coordinates": [-122.3432313, 47.6499328]}}, {"type": "Feature", "properties": {"id": 11829469809, "name": "Nanking Ramen", "category": "restaurant", "tags": ["restaurant", "japanese"], "sources": ["osm"], "address": "3513 Stone Way North"}, "geometry": {"type": "Point", "coordinates": [-122.3432307, 47.6499977]}}, {"type": "Feature", "properties": {"id": 13271376535, "name": "Mansion Creek Cellars", "category": "bar", "tags": ["bar", "outdoor-seating", "indoor-seating", "wine", "winery"], "sources": ["osm", "overture"], "website": "http://www.mansioncreekcellars.com/", "phone": "+15096769311", "address": "900 N 34th St", "hours": "We-Fr 16:00-21:00; Sa 14:00-21:00; Su 14:00-20:00"}, "geometry": {"type": "Point", "coordinates": [-122.3470126, 47.6493086]}}, {"type": "Feature", "properties": {"id": 115681579, "name": "Fremont Dock", "category": "pub", "tags": ["pub", "outdoor-seating", "wheelchair-accessible"], "sources": ["osm"], "website": "https://fremontdock.com/", "address": "1102 North 34th Street", "hours": "Mo 11:00-23:00; Tu-We 11:00-24:00; Th 08:00-12:00; Fr-Sa 08:00-02:00; Su 08:00-22:00"}, "geometry": {"type": "Point", "coordinates": [-122.3437903, 47.6488655]}}, {"type": "Feature", "properties": {"id": 115683693, "name": "Fremont Brewing Urban Beer Garden", "category": "pub", "tags": ["pub", "outdoor-seating", "takeaway", "wheelchair-accessible", "microbrew"], "sources": ["osm"], "website": "https://www.fremontbrewing.com/urban-beer-garden/", "phone": "+1-206-420-2407", "address": "1050 North 34th Street", "hours": "Su-We 11:00-21:00; Th-Sa 11:00-22:00"}, "geometry": {"type": "Point", "coordinates": [-122.3444487, 47.649064]}}, {"type": "Feature", "properties": {"id": 144676250, "name": "Pacific Inn Pub", "category": "pub", "tags": ["pub", "fish-and-chips", "outdoor-seating", "brewery", "bar-and-grill"], "sources": ["osm", "overture"], "website": "https://www.pacinnpub.com/", "phone": "+12065472967", "address": "3501 Stone Way N", "hours": "Mo-Fr 11:00-02:00; Sa-Su 12:00-02:00"}, "geometry": {"type": "Point", "coordinates": [-122.3430692, 47.6496389]}}, {"type": "Feature", "properties": {"id": 226140146, "name": "Conduit Coffee", "category": "cafe", "tags": ["cafe", "coffee-shop"], "sources": ["osm"], "address": "2501 Westlake Avenue North", "hours": "Mo, Tu, Th, Fr 10:00-15:00"}, "geometry": {"type": "Point", "coordinates": [-122.3437724, 47.6424267]}}, {"type": "Feature", "properties": {"id": 226140209, "name": "Canlis", "category": "restaurant", "tags": ["restaurant", "regional", "american"], "sources": ["osm", "overture"], "website": "http://canlis.com/", "phone": "+12062833313", "address": "2576 Aurora Ave N"}, "geometry": {"type": "Point", "coordinates": [-122.3467332, 47.6430531]}}, {"type": "Feature", "properties": {"id": "a26404ac-ae34-411d-b0c1-ec67bff74bea", "name": "Just Burgers Fremont", "category": "restaurant", "tags": ["restaurant", "burger"], "sources": ["overture"], "website": "http://justburgersco.com", "phone": "(425) 276-1824", "address": "743 N 35th St"}, "geometry": {"type": "Point", "coordinates": [-122.3479309, 47.6499023]}}, {"type": "Feature", "properties": {"id": "2a950f87-1c86-46dd-8cdd-cc4fed1a9f68", "name": "Yellow Dot Cafe", "category": "cafe", "tags": ["cafe"], "sources": ["overture"], "website": "http://www.yellowdotcafe.com", "phone": "(206) 588-0659", "address": "701 N 34th St"}, "geometry": {"type": "Point", "coordinates": [-122.3489838, 47.6488152]}}, {"type": "Feature", "properties": {"id": "2c875306-870c-4b97-9e1a-736680a34cbf", "name": "Blue Moon Burgers Fremont", "category": "restaurant", "tags": ["restaurant", "burger"], "sources": ["overture"], "website": "http://bluemoonburgers.com", "phone": "(206) 547-1907", "address": "703 North 34th Street"}, "geometry": {"type": "Point", "coordinates": [-122.3491211, 47.6492004]}}, {"type": "Feature", "properties": {"id": "430d9f18-0b14-4232-a2f4-19cb209c87a3", "name": "Eve Fremont", "category": "restaurant", "tags": ["restaurant", "asian", "fusion", "international"], "sources": ["overture"], "website": "https://www.evefremont.com/", "phone": "2069007186", "address": "704 N 34th St"}, "geometry": {"type": "Point", "coordinates": [-122.3492966, 47.6496658]}}, {"type": "Feature", "properties": {"id": "828e140b-4ec8-4608-baae-89a25dc3b689", "name": "Just Poke Fremont", "category": "restaurant", "tags": ["restaurant", "poke", "seafood"], "sources": ["overture"], "website": "https://justpoke.com/", "phone": "+12065880025", "address": "734 N 34th St"}, "geometry": {"type": "Point", "coordinates": [-122.3483047, 47.6495056]}}, {"type": "Feature", "properties": {"id": "41271356-2780-4203-b3ca-5a26fa20a8f4", "name": "The Masonry", "category": "restaurant", "tags": ["restaurant", "pizza"], "sources": ["overture"], "website": "https://themasonryseattle.com", "phone": "(206) 557-4907", "address": "730 N 34th St"}, "geometry": {"type": "Point", "coordinates": [-122.3486176, 47.6495132]}}, {"type": "Feature", "properties": {"id": "61647a19-18f3-4d6e-ad9e-3cafec748485", "name": "ZapVerr Thai Restaurant & Lounge", "category": "restaurant", "tags": ["restaurant", "thai"], "sources": ["overture"], "website": "http://zapverr.com", "phone": "(206) 632-2898", "address": "3410 Fremont Ave N"}, "geometry": {"type": "Point", "coordinates": [-122.3493652, 47.6498299]}}, {"type": "Feature", "properties": {"id": "d8cc98e4-7555-4a7b-8ea2-394b4de60199", "name": "Peet's Coffee & Tea", "category": "cafe", "tags": ["cafe", "tea", "room"], "sources": ["overture"], "website": "http://www.peets.com", "phone": "(206) 267-4688", "address": "3401 Fremont Ave N"}, "geometry": {"type": "Point", "coordinates": [-122.349968, 47.6497383]}}, {"type": "Feature", "properties": {"id": "39da8022-7ff8-439e-a5dd-76af008b8b30", "name": "SabbVerr Thai Bar & Grill", "category": "restaurant", "tags": ["restaurant", "thai", "asian"], "sources": ["overture"], "website": "http://www.zapverr.com/", "phone": "+12066322898", "address": "3410 Fremont Ave N"}, "geometry": {"type": "Point", "coordinates": [-122.3497009, 47.6499176]}}, {"type": "Feature", "properties": {"id": "6036192a-752a-4ba7-b9e6-00653815ba09", "name": "Costas Opa", "category": "restaurant", "tags": ["restaurant", "greek"], "sources": ["overture"], "website": "http://www.costasopa.com/", "phone": "(206) 633-4141", "address": "3400 Fremont Ave N"}, "geometry": {"type": "Point", "coordinates": [-122.3496704, 47.6497002]}}, {"type": "Feature", "properties": {"id": "dff8218b-35ec-4344-beef-fa2dc0191998", "name": "Sammy's Sonoran Dogs", "category": "fast_food", "tags": ["fast-food", "fast", "food", "hot-dog"], "sources": ["overture"], "phone": "+15204069559", "address": "790 N 34th St"}, "geometry": {"type": "Point", "coordinates": [-122.349617, 47.6497307]}}, {"type": "Feature", "properties": {"id": "8f3a6303-c17d-4d21-805f-ae9b412667b0", "name": "The Dock Sports Bar & Grill", "category": "bar", "tags": ["bar", "sports", "bar-and-grill"], "sources": ["overture"], "website": "http://www.fremontdock.com/", "phone": "+12068298372", "address": "1102 N 34th St"}, "geometry": {"type": "Point", "coordinates": [-122.343689, 47.6487846]}}, {"type": "Feature", "properties": {"id": "dddb83aa-4aa0-45e5-8915-2905ad1f7f7b", "name": "The Dock", "category": "bar", "tags": ["bar", "dive"], "sources": ["overture"], "website": "http://www.fremontdock.com/", "phone": "2068298372", "address": "1102 N 34th St"}, "geometry": {"type": "Point", "coordinates": [-122.343811, 47.6488609]}}, {"type": "Feature", "properties": {"id": "b6a21fea-9a5e-4540-a2ca-30425dd500c0", "name": "Smash That Burger Co", "category": "restaurant", "tags": ["restaurant", "burger"], "sources": ["overture"], "website": "http://smashthatburger.co/", "phone": "+12063715225", "address": "1220 W Nickerson St"}, "geometry": {"type": "Point", "coordinates": [-122.3444824, 47.6490631]}}, {"type": "Feature", "properties": {"id": "f6bbd1aa-b511-4f8d-9b34-c779f72dcb62", "name": "Fremont Brewing", "category": "bar", "tags": ["bar", "brewery"], "sources": ["overture"], "website": "http://www.fremontbrewing.com/"}, "geometry": {"type": "Point", "coordinates": [-122.3444443, 47.6489487]}}, {"type": "Feature", "properties": {"id": "8b7ac22e-75d5-435a-9fe0-a035c11d67b2", "name": "The Whale Wins", "category": "restaurant", "tags": ["restaurant", "american"], "sources": ["overture"], "website": "http://www.thewhalewins.com", "phone": "(206) 632-9425", "address": "3506 Stone Way N"}, "geometry": {"type": "Point", "coordinates": [-122.3425217, 47.6496849]}}, {"type": "Feature", "properties": {"id": "16c5b611-10dd-4300-b192-6d32d421a573", "name": "Whale Wins Mural", "category": "restaurant", "tags": ["restaurant", "american", "french"], "sources": ["overture"], "website": "http://www.thewhalewins.com/", "phone": "+12066329425", "address": "3506 Stone Way N"}, "geometry": {"type": "Point", "coordinates": [-122.3425446, 47.6496849]}}, {"type": "Feature", "properties": {"id": "c72428e9-edc9-4fe7-a98c-a60063a4ed57", "name": "Claret Wine Bar", "category": "bar", "tags": ["bar", "wine"], "sources": ["overture"], "website": "https://claretseattle.com/", "phone": "2064520511", "address": "3400 Stone Way N"}, "geometry": {"type": "Point", "coordinates": [-122.342392, 47.6491966]}}, {"type": "Feature", "properties": {"id": "0319c6bc-4143-4162-ba36-f8edcd8ea3e3", "name": "Livbud Cafe", "category": "cafe", "tags": ["cafe"], "sources": ["overture"], "website": "http://www.livbudcafe.com", "phone": "(206) 855-6117", "address": "3400 Stone Way N #4"}, "geometry": {"type": "Point", "coordinates": [-122.3423538, 47.6488953]}}, {"type": "Feature", "properties": {"id": "f7174a88-7d2d-4431-9fe0-2045ae5bf08a", "name": "MiiR", "category": "restaurant", "tags": ["restaurant"], "sources": ["overture"], "website": "http://www.miir.com", "phone": "+12065667207", "address": "3400 Stone Way N"}, "geometry": {"type": "Point", "coordinates": [-122.3424988, 47.6487122]}}, {"type": "Feature", "properties": {"id": "641a71e4-a877-436b-9bb2-f27627172621", "name": "Purple Stone Way", "category": "cafe", "tags": ["cafe"], "sources": ["overture"], "website": "https://www.purplecafe.com/stone-way", "phone": "+12067378743", "address": "3400 Stone Way N"}, "geometry": {"type": "Point", "coordinates": [-122.3424759, 47.649147]}}, {"type": "Feature", "properties": {"id": "f81dcfac-468e-43fc-bdd7-dc7034e5c7bf", "name": "Fiasco", "category": "restaurant", "tags": ["restaurant", "pizza"], "sources": ["overture"], "website": "https://fiascoseattle.com/", "phone": "2067378743", "address": "3400 Stone Way"}, "geometry": {"type": "Point", "coordinates": [-122.3424301, 47.6491699]}}, {"type": "Feature", "properties": {"id": "1ae44225-25d6-44d0-9451-f3acb64500ff", "name": "Thackeray: Kitchen & Bar", "category": "restaurant", "tags": ["restaurant", "pub"], "sources": ["overture"], "website": "https://thackerayseattle.com", "phone": "(206) 737-8743", "address": "3400 Stone Way N"}, "geometry": {"type": "Point", "coordinates": [-122.3425522, 47.6491928]}}, {"type": "Feature", "properties": {"id": 1293552405, "name": "Sri Chinmoy Statue", "category": "artwork", "tags": ["artwork"], "sources": ["osm"]}, "geometry": {"type": "Point", "coordinates": [-122.3478261, 47.6475331]}}, {"type": "Feature", "properties": {"id": 1300368348, "name": "Late for the Interurban", "category": "artwork", "tags": ["artwork"], "sources": ["osm"], "website": "http://www.soulinbronze.com/late-for-the-interurban-2008.html"}, "geometry": {"type": "Point", "coordinates": [-122.3486621, 47.6493188]}}, {"type": "Feature", "properties": {"id": 1322649036, "name": "Waiting for the Interurban", "category": "artwork", "tags": ["artwork", "attraction", "monument"], "sources": ["osm", "overture"], "website": "http://fremont.com/about/interurban-html", "phone": "+12064615800", "address": "N 34th St @ Fremont Ave"}, "geometry": {"type": "Point", "coordinates": [-122.3494782, 47.6494562]}}, {"type": "Feature", "properties": {"id": 3003848513, "name": "Within Reach", "category": "artwork", "tags": ["artwork"], "sources": ["osm"]}, "geometry": {"type": "Point", "coordinates": [-122.3495132, 47.6491784]}}, {"type": "Feature", "properties": {"id": 3211770251, "name": "Pergola At Waiting For The Interurban", "category": "artwork", "tags": ["artwork"], "sources": ["osm"]}, "geometry": {"type": "Point", "coordinates": [-122.3495143, 47.6494628]}}, {"type": "Feature", "properties": {"id": 3957622064, "name": "Animals Riding Bikes Mural", "category": "artwork", "tags": ["artwork"], "sources": ["osm"]}, "geometry": {"type": "Point", "coordinates": [-122.3470153, 47.6490994]}}, {"type": "Feature", "properties": {"id": 4458196858, "name": "Reclaimed", "category": "artwork", "tags": ["artwork"], "sources": ["osm"]}, "geometry": {"type": "Point", "coordinates": [-122.3400928, 47.6483068]}}, {"type": "Feature", "properties": {"id": "8929f0d4-0912-44fe-9172-4be2a70b10df", "name": "St. James Tower Apartment Homes", "category": "attraction", "tags": ["attraction", "landmark", "historical", "building"], "sources": ["overture"], "website": "https://washington.weidner.com/apartments/wa/seattle/st-james-tower/index.aspx?rcstdid=MTE%3D-aKFOxiSL8lQ%3D", "phone": "+12067095418", "address": "920 N 34th St"}, "geometry": {"type": "Point", "coordinates": [-122.3462753, 47.6491776]}}, {"type": "Feature", "properties": {"id": "63b7843c-9312-4e93-863c-cdf51b2611a2", "name": "J.P. Patches Statue", "category": "attraction", "tags": ["attraction", "monument"], "sources": ["overture"], "website": "http://en.wikipedia.org/wiki/J._P._Patches", "address": "720 N 34th St"}, "geometry": {"type": "Point", "coordinates": [-122.3486404, 47.6493073]}}, {"type": "Feature", "properties": {"id": "e46a5b3b-6307-4f01-9e1f-914a8083a050", "name": "The Hudson", "category": "attraction", "tags": ["attraction", "landmark", "historical", "building"], "sources": ["overture"], "website": "https://www.thehudsonseattle.com", "phone": "+12062825777", "address": "2450 Aurora Ave N"}, "geometry": {"type": "Point", "coordinates": [-122.3458939, 47.641243]}}, {"type": "Feature", "properties": {"id": "cb742f2e-7e49-4afd-9277-6c3e6b9a3490", "name": "Drags Glass    \"RAGE CAGE\"", "category": "gallery", "tags": ["gallery", "art"], "sources": ["overture"], "website": "http://www.dragsglass.com/", "address": "2501 Westlake Ave N"}, "geometry": {"type": "Point", "coordinates": [-122.3438034, 47.642498]}}, {"type": "Feature", "properties": {"id": "6433a4e7-7853-4186-a3aa-ec632e600989", "name": "Gasworks Gallery", "category": "gallery", "tags": ["gallery", "art"], "sources": ["overture"], "website": "https://www.gasworksgallery.com/lakeside-art-studios-seattle", "phone": "+1206683426", "address": "1301 N Northlake Way"}, "geometry": {"type": "Point", "coordinates": [-122.3421631, 47.6478882]}}, {"type": "Feature", "properties": {"id": 14210847, "name": "Thomas C. Wales Park", "category": "park", "tags": ["park"], "sources": ["osm", "overture"], "website": "https://www.seattle.gov/parks/find/parks/thomas-c-wales-park", "phone": "+12066844075", "address": "2401 6th Ave N"}, "geometry": {"type": "Point", "coordinates": [-122.3452379, 47.6403316]}}, {"type": "Feature", "properties": {"id": 328488998, "name": "Waterway 22", "category": "park", "tags": ["park"], "sources": ["osm"]}, "geometry": {"type": "Point", "coordinates": [-122.3426817, 47.6480271]}}, {"type": "Feature", "properties": {"id": 409613877, "name": "Railroad Park", "category": "park", "tags": ["park"], "sources": ["osm"]}, "geometry": {"type": "Point", "coordinates": [-122.34228, 47.6411069]}}, {"type": "Feature", "properties": {"id": 462865832, "name": "Waterway 23", "category": "park", "tags": ["park"], "sources": ["osm"]}, "geometry": {"type": "Point", "coordinates": [-122.3467692, 47.6486836]}}, {"type": "Feature", "properties": {"id": 1583423043, "name": "Dusty Strings", "category": "music", "tags": ["music"], "sources": ["osm"], "website": "https://www.dustystrings.com/", "phone": "+1-206-634-1662", "address": "3406 Fremont Avenue North", "hours": "Tu-Sa 10:30-18:00"}, "geometry": {"type": "Point", "coordinates": [-122.3495743, 47.6498425]}}, {"type": "Feature", "properties": {"id": 2293956744, "name": "evo", "category": "outdoor", "tags": ["outdoor", "wheelchair-accessible"], "sources": ["osm"], "website": "https://www.evo.com/seattle", "phone": "+1-206-973-4470", "address": "3500 Stone Way North", "hours": "Mo-Sa 10:00-20:00; Su 10:00-19:00"}, "geometry": {"type": "Point", "coordinates": [-122.34241, 47.6495285]}}, {"type": "Feature", "properties": {"id": 3353170000, "name": "Brooks Trailhead", "category": "shoes", "tags": ["shoes"], "sources": ["osm"], "website": "https://www.brooksrunning.com/en_us/brooks-trailhead/", "phone": "+1-206-858-5700", "address": "3400 Stone Way North", "hours": "Mo-Sa 10:00-19:00; Su 10:00-18:00"}, "geometry": {"type": "Point", "coordinates": [-122.3423933, 47.6486779]}}, {"type": "Feature", "properties": {"id": 4548869165, "name": "Geocaching HQ", "category": "outdoor", "tags": ["outdoor"], "sources": ["osm"], "website": "https://geocachinghq.com/", "address": "837 North 34th Street"}, "geometry": {"type": "Point", "coordinates": [-122.3482287, 47.6490565]}}, {"type": "Feature", "properties": {"id": 5080352623, "name": "Olympic Hot Tubs", "category": "furniture", "tags": ["furniture"], "sources": ["osm"]}, "geometry": {"type": "Point", "coordinates": [-122.3432113, 47.6427703]}}, {"type": "Feature", "properties": {"id": 9574098835, "name": "Fremont Brewing Merchantile", "category": "alcohol", "tags": ["alcohol", "wheelchair-accessible"], "sources": ["osm"], "hours": "Th-Su 11:00-22:00; Mo-We 11:00-21:00"}, "geometry": {"type": "Point", "coordinates": [-122.3442566, 47.6490395]}}, {"type": "Feature", "properties": {"id": 12714757900, "name": "Black Diamond Equipment", "category": "outdoor", "tags": ["outdoor", "wheelchair-accessible"], "sources": ["osm"], "website": "https://blackdiamondequipment.com/pages/retail-stores", "phone": "+1-206-566-7207", "address": "3524 Stone Way North", "hours": "Mo-Su 10:00-19:00"}, "geometry": {"type": "Point", "coordinates": [-122.3423875, 47.6499042]}}, {"type": "Feature", "properties": {"id": 115681584, "name": "Davidson Handbuilt Bicycles", "category": "bicycle", "tags": ["bicycle"], "sources": ["osm"], "website": "https://www.davidsonbicycles.com/", "phone": "+1-206-441-9998", "address": "3425 Stone Way North", "hours": "Mo-Sa 10:00-18:00"}, "geometry": {"type": "Point", "coordinates": [-122.3430232, 47.6493037]}}, {"type": "Feature", "properties": {"id": 1030792780, "name": "evo Rentals", "category": "outdoor", "tags": ["outdoor"], "sources": ["osm"], "phone": "+1-206-973-4470", "address": "1320 North 35th Street", "hours": "10:00-19:00"}, "geometry": {"type": "Point", "coordinates": [-122.3417289, 47.6495161]}}, {"type": "Feature", "properties": {"id": "049d68ce-5675-41f1-98b2-ab00951e0d67", "name": "Extreme Handyman Service", "category": "doityourself", "tags": ["doityourself", "home", "improvement"], "sources": ["overture"], "website": "https://extremehandyman.com", "phone": "(206) 614-0001", "address": "744 N 34th St"}, "geometry": {"type": "Point", "coordinates": [-122.348175, 47.649498]}}, {"type": "Feature", "properties": {"id": "b4cc9466-4eda-49b2-b69c-32bc324b2b2b", "name": "Mantz Scott & Associates", "category": "doityourself", "tags": ["doityourself", "building", "supply"], "sources": ["overture"], "website": "http://scottmantzgardens.com", "phone": "(206) 547-3747", "address": "2940 Westlake Ave N Ste 303"}, "geometry": {"type": "Point", "coordinates": [-122.3492203, 47.6465912]}}, {"type": "Feature", "properties": {"id": 13232883734, "name": "One Medical", "category": "clinic", "tags": ["clinic", "walk", "in"], "sources": ["osm", "overture"], "website": "https://www.onemedical.com/locations/sea/fremont", "address": "701 N 34th St, Suite 200"}, "geometry": {"type": "Point", "coordinates": [-122.349213, 47.6492268]}}, {"type": "Feature", "properties": {"id": 1292453305, "name": "Flow Fitness", "category": "fitness_centre", "tags": ["fitness-centre", "gym"], "sources": ["osm", "overture"], "website": "http://www.flowfitnessseattle.com/", "phone": "+12062680816", "address": "710 N 34th St"}, "geometry": {"type": "Point", "coordinates": [-122.3491364, 47.6496061]}}, {"type": "Feature", "properties": {"id": 1569368562, "name": "Anytime Fitness", "category": "fitness_centre", "tags": ["fitness-centre", "fitness", "gym"], "sources": ["osm", "overture"], "website": "https://www.anytimefitness.com/locations/seattle-washington-106/", "phone": "+12065454348", "address": "837 N 34th St"}, "geometry": {"type": "Point", "coordinates": [-122.3485678, 47.6491855]}}, {"type": "Feature", "properties": {"id": 2143322826, "name": "Experience Momentum", "category": "fitness_centre", "tags": ["fitness-centre", "fitness", "gym"], "sources": ["osm", "overture"], "website": "https://www.experiencemomentum.com/be-a-fremont-original-pricing", "phone": "+12063093966", "address": "1100 N 35th St"}, "geometry": {"type": "Point", "coordinates": [-122.3437929, 47.6497763]}}, {"type": "Feature", "properties": {"id": 3324428626, "name": "All Together Skatepark", "category": "sports_centre", "tags": ["sports-centre", "skateboard"], "sources": ["osm"], "website": "https://www.alltogetherskatepark.com/", "phone": "+1-206-632-7090", "address": "3500 Stone Way North"}, "geometry": {"type": "Point", "coordinates": [-122.342175, 47.6495912]}}, {"type": "Feature", "properties": {"id": 9847318321, "name": "Studio Jack's Pilates", "category": "fitness_centre", "tags": ["fitness-centre"], "sources": ["osm"]}, "geometry": {"type": "Point", "coordinates": [-122.3451012, 47.6444479]}}, {"type": "Feature", "properties": {"id": 13037954809, "name": "Fremont Health Club", "category": "fitness_centre", "tags": ["fitness-centre", "wheelchair-accessible", "gym"], "sources": ["osm", "overture"], "website": "http://fremonthc.com/", "phone": "+12066322200", "address": "920 N 34th St", "hours": "24/7"}, "geometry": {"type": "Point", "coordinates": [-122.3461313, 47.6492389]}}, {"type": "Feature", "properties": {"id": 114214918, "name": "Lake Washington Rowing Club", "category": "sports_centre", "tags": ["sports-centre", "rowing"], "sources": ["osm"], "website": "https://www.lakewashingtonrowing.com/", "address": "910 North Northlake Way"}, "geometry": {"type": "Point", "coordinates": [-122.3464685, 47.6488899]}}, {"type": "Feature", "properties": {"id": "8b40b2b8-7c1c-4ddb-8d9c-b385bb31ad5b", "name": "Aatma Fitness Studios", "category": "fitness_centre", "tags": ["fitness-centre", "gym"], "sources": ["overture"], "website": "https://aatma-fitness-studios-wa.hub.biz", "phone": "(206) 420-2138", "address": "710 N 34th St"}, "geometry": {"type": "Point", "coordinates": [-122.3491287, 47.6497116]}}, {"type": "Feature", "properties": {"id": "bca91b8b-0a9b-4b43-bc9f-aa103c63049c", "name": "Lake Union Crew", "category": "fitness_centre", "tags": ["fitness-centre", "gym"], "sources": ["overture"], "website": "http://www.lakeunioncrew.com/", "phone": "+12068604199", "address": "2520 Westlake Ave N"}, "geometry": {"type": "Point", "coordinates": [-122.3433533, 47.6429405]}}, {"type": "Feature", "properties": {"id": "6fcbeec7-b31c-4f43-a0db-5021514ae911", "name": "FUELhouse Gym", "category": "fitness_centre", "tags": ["fitness-centre", "gym"], "sources": ["overture"], "phone": "(425) 766-2834", "address": "1320 N 35th St"}, "geometry": {"type": "Point", "coordinates": [-122.3417587, 47.6495323]}}]}