{"type": "FeatureCollection", "features": [{"type": "Feature", "properties": {"id": 4403646152, "name": "Concessions", "category": "fast_food", "tags": ["fast-food"], "sources": ["osm"]}, "geometry": {"type": "Point", "coordinates": [-122.1481167, 47.3454244]}}, {"type": "Feature", "properties": {"id": 442692706, "name": "Service Club Ballfields", "category": "park", "tags": ["park"], "sources": ["osm"], "address": "14608 Southeast 288th Street"}, "geometry": {"type": "Point", "coordinates": [-122.1479511, 47.3449309]}}, {"type": "Feature", "properties": {"id": 1486110390, "name": "Neighborhood Park", "category": "park", "tags": ["park"], "sources": ["osm"]}, "geometry": {"type": "Point", "coordinates": [-122.14993, 47.3464229]}}, {"type": "Feature", "properties": {"id": "bfb04355-65a7-45ca-93da-e22c7a7b21e6", "name": "Service Club Community Park", "category": "park", "tags": ["park"], "sources": ["overture"], "address": "SE 288th St"}, "geometry": {"type": "Point", "coordinates": [-122.1489334, 47.343235]}}, {"type": "Feature", "properties": {"id": "b6a97b0c-7be7-463a-956b-90c3befb69fb", "name": "Kent Service Club Ballpark", "category": "park", "tags": ["park"], "sources": ["overture"], "website": "http://www.kentwa.gov/Home/Components/FacilityDirectory/FacilityDirectory/222/318", "phone": "+12532770780", "address": "14608 SE 288th St"}, "geometry": {"type": "Point", "coordinates": [-122.1479874, 47.3454399]}}, {"type": "Feature", "properties": {"id": "2861ac9d-73a0-47d8-a110-83adfdf24e80", "name": "Service Club Community Park and Ballfields", "category": "park", "tags": ["park"], "sources": ["overture"], "website": "https://www.kent.edu/recservices/student-recreation-fields", "phone": "+12538565000", "address": "14608 SE 288th St"}, "geometry": {"type": "Point", "coordinates": [-122.1479874, 47.3454285]}}]}