{"type": "FeatureCollection", "features": [{"type": "Feature", "properties": {"id": 7526978874, "name": "Starbucks", "category": "cafe", "tags": ["cafe", "coffee-shop", "takeaway", "coffee"], "sources": ["osm", "overture"], "website": "https://www.starbucks.com/store-locator", "phone": "4254851991", "address": "22833 Bothell Everett Hwy"}, "geometry": {"type": "Point", "coordinates": [-122.215516, 47.7899991]}}, {"type": "Feature", "properties": {"id": 13419334645, "name": "Mercurys Coffee Co.", "category": "cafe", "tags": ["cafe", "coffee-shop", "takeaway"], "sources": ["osm"], "website": "https://mercurys.com/", "phone": "+1-425-877-1680", "address": "23433 Bothell-Everett Highway", "hours": "Mo-Fr,Su 16:30-20:00; Sa 05:00-21:00"}, "geometry": {"type": "Point", "coordinates": [-122.219639, 47.7846139]}}, {"type": "Feature", "properties": {"id": 6268264986, "name": "Jimmy John's", "category": "fast_food", "tags": ["fast-food", "sandwich", "takeaway", "restaurant"], "sources": ["osm", "overture"], "website": "https://locations.jimmyjohns.com/wa/bothell/sandwiches-1985.html", "phone": "+14254209060", "address": "22833 Bothell Everett Hwy"}, "geometry": {"type": "Point", "coordinates": [-122.21747, 47.7897886]}}, {"type": "Feature", "properties": {"id": 6268264987, "name": "Baskin-Robbins", "category": "ice_cream", "tags": ["ice-cream"], "sources": ["osm"], "website": "https://locations.baskinrobbins.com/wa/bothell/22833-bothell-everett-hwy-332178-br", "phone": "+1-425-489-3981", "address": "22833 Bothell Everett Highway", "hours": "11:00-22:00"}, "geometry": {"type": "Point", "coordinates": [-122.2166457, 47.7899981]}}, {"type": "Feature", "properties": {"id": 167025514, "name": "Taco Bell", "category": "fast_food", "tags": ["fast-food", "tex-mex", "takeaway", "fast", "food", "taco", "mexican"], "sources": ["osm", "overture"], "website": "http://www.tacobell.com/", "phone": "+14254853492", "address": "23201 Bothell Everett Hwy"}, "geometry": {"type": "Point", "coordinates": [-122.2186372, 47.7875663]}}, {"type": "Feature", "properties": {"id": 6268262187, "name": "Gyro Stop", "category": "fast_food", "tags": ["fast-food", "restaurant", "greek", "mediterranean", "middle-eastern"], "sources": ["osm", "overture"], "website": "http://www.gyrostoppita.com", "phone": "+14258065189", "address": "22833 Bothell Everett Hwy"}, "geometry": {"type": "Point", "coordinates": [-122.2175104, 47.7897498]}}, {"type": "Feature", "properties": {"id": 4363720732, "name": "Ivar's Seafood Bar", "category": "fast_food", "tags": ["fast-food", "seafood", "takeaway", "air-conditioned", "restaurant"], "sources": ["osm", "overture"], "website": "http://www.ivars.com", "phone": "(425) 892-8807", "address": "24016 Bothell Everett Hwy", "hours": "Su-Th 10:30-22:00; Fr-Sa 10:30-23:00"}, "geometry": {"type": "Point", "coordinates": [-122.2199588, 47.7800042]}}, {"type": "Feature", "properties": {"id": 480041271, "name": "Wendy's", "category": "fast_food", "tags": ["fast-food", "burger", "takeaway", "drive-through", "fast", "food", "american"], "sources": ["osm", "overture"], "website": "https://locations.wendys.com/united-states/wa/bothell/22928-bothell-everett-highway", "phone": "+14254880590", "address": "22928 Bothell Everett Hwy", "hours": "09:00-22:00"}, "geometry": {"type": "Point", "coordinates": [-122.219286, 47.7896595]}}, {"type": "Feature", "properties": {"id": 6268262087, "name": "Sumo Teriyaki", "category": "fast_food", "tags": ["fast-food"], "sources": ["osm"]}, "geometry": {"type": "Point", "coordinates": [-122.2174377, 47.7898319]}}, {"type": "Feature", "properties": {"id": 6268264985, "name": "Imperial Wok", "category": "restaurant", "tags": ["restaurant", "chinese", "asian"], "sources": ["osm", "overture"], "website": "http://www.imperialwokwashington.com", "phone": "+14254866362", "address": "22833 Bothell Everett Hwy"}, "geometry": {"type": "Point", "coordinates": [-122.2175803, 47.7896561]}}, {"type": "Feature", "properties": {"id": 653697635, "name": "Applebee's", "category": "restaurant", "tags": ["restaurant", "american", "bar-and-grill"], "sources": ["osm", "overture"], "website": "https://restaurants.applebees.com/en-us/wa/bothell/22916-bothell-everett-hwy.-98026", "phone": "+14254887755", "address": "22916 Bothell Everett Hwy"}, "geometry": {"type": "Point", "coordinates": [-122.2188077, 47.7899317]}}, {"type": "Feature", "properties": {"id": 167025513, "name": "Grazie Ristorante", "category": "restaurant", "tags": ["restaurant", "italian"], "sources": ["osm"], "phone": "+1-425-402-9600", "address": "23207 Bothell-Everett Highway"}, "geometry": {"type": "Point", "coordinates": [-122.2188095, 47.7870074]}}, {"type": "Feature", "properties": {"id": "ebe00be8-304a-47e0-a2a4-c0a3bb0865c6", "name": "Extreme Pita", "category": "restaurant", "tags": ["restaurant", "greek"], "sources": ["overture"], "website": "http://www.extremepita.com", "phone": "(425) 806-5189", "address": "22833 Bothell Everett Hwy"}, "geometry": {"type": "Point", "coordinates": [-122.217514, 47.7896805]}}, {"type": "Feature", "properties": {"id": "9c022f7a-2ec8-4efe-854b-d58ec64f8ad1", "name": "Grazie Ristorante Italiano", "category": "restaurant", "tags": ["restaurant", "italian", "european"], "sources": ["overture"], "website": "http://GrazieRestaurant.com/", "phone": "+14254029600", "address": "23207 Bothell Everett Hwy"}, "geometry": {"type": "Point", "coordinates": [-122.2188568, 47.787117]}}, {"type": "Feature", "properties": {"id": "e74bd911-b856-4682-9402-732e34223c67", "name": "Gratzies.", "category": "restaurant", "tags": ["restaurant", "italian"], "sources": ["overture"]}, "geometry": {"type": "Point", "coordinates": [-122.218895, 47.7870522]}}, {"type": "Feature", "properties": {"id": "07e10bfc-991b-4597-bb83-60ab4aa6b413", "name": "Seoul Bowl and Bar", "category": "restaurant", "tags": ["restaurant", "korean", "asian"], "sources": ["overture"], "website": "http://seoulbowlco.com", "phone": "+14259087643", "address": "22833 Bothell Everett Hwy"}, "geometry": {"type": "Point", "coordinates": [-122.2174988, 47.7898598]}}, {"type": "Feature", "properties": {"id": 152905175, "name": "Holiday Inn Express - Bothell Canyon Park", "category": "hotel", "tags": ["hotel"], "sources": ["osm"]}, "geometry": {"type": "Point", "coordinates": [-122.2137381, 47.789894]}}, {"type": "Feature", "properties": {"id": "6968301a-8276-46bf-aca5-ae19438d3212", "name": "Holiday Inn Express Bothell", "category": "hotel", "tags": ["hotel"], "sources": ["overture"], "website": "https://www.ihg.com/holidayinnexpress/hotels/us/en/bothell/botwa/hoteldetail?cm_mmc=FacebookMaps-_-EX-_-US-_-BOTWA", "phone": "+14254838100", "address": "22922 15th Ave SE"}, "geometry": {"type": "Point", "coordinates": [-122.2138367, 47.7899666]}}, {"type": "Feature", "properties": {"id": 2093037200, "name": "QFC", "category": "supermarket", "tags": ["supermarket"], "sources": ["osm", "overture"], "website": "https://www.qfc.com/stores/grocery/wa/bothell/canyon-park/705/00850?cid=loc_70500850_fb", "phone": "+14254851991", "address": "22833 Bothell Everett Hwy"}, "geometry": {"type": "Point", "coordinates": [-122.216305, 47.789853]}}, {"type": "Feature", "properties": {"id": 6268266786, "name": "Cricket Wireless", "category": "mobile_phone", "tags": ["mobile-phone"], "sources": ["osm"]}, "geometry": {"type": "Point", "coordinates": [-122.215033, 47.7899998]}}, {"type": "Feature", "properties": {"id": "893b9a8e-1c74-456d-9e75-713c95c45688", "name": "Cigar and Etc", "category": "tobacco", "tags": ["tobacco"], "sources": ["overture"], "website": "https://cigaretc.business.site/?utm_source=gmb&utm_medium=referral", "phone": "+14254832676", "address": "22922 Bothell Everett Hwy"}, "geometry": {"type": "Point", "coordinates": [-122.2197189, 47.789959]}}, {"type": "Feature", "properties": {"id": "6b8ae344-0e20-4049-b927-ec2ea571c076", "name": "Open Road Wine Company", "category": "wine", "tags": ["wine", "winery"], "sources": ["overture"], "website": "http://www.openroadwine.com/", "phone": "4257805880", "address": "23212 10th Ave SE"}, "geometry": {"type": "Point", "coordinates": [-122.2198105, 47.787056]}}, {"type": "Feature", "properties": {"id": 6268266785, "name": "Bartell Drugs", "category": "pharmacy", "tags": ["pharmacy"], "sources": ["osm"]}, "geometry": {"type": "Point", "coordinates": [-122.2170616, 47.7899982]}}, {"type": "Feature", "properties": {"id": 167025516, "name": "Immediate Clinc", "category": "clinic", "tags": ["clinic"], "sources": ["osm"], "website": "https://www.immediateclinic.com/bothell-urgent-care", "address": "23131 Bothell-Everett Highway"}, "geometry": {"type": "Point", "coordinates": [-122.2184778, 47.7882413]}}, {"type": "Feature", "properties": {"id": "6753541d-c47e-42e5-9115-1b95524509ba", "name": "MultiCare Indigo Urgent Care", "category": "clinic", "tags": ["clinic", "medical"], "sources": ["overture"], "website": "https://www.indigohealth.com/locations/urgent-care-bothell/", "phone": "+14254833335", "address": "23131 Bothell Everett Hwy"}, "geometry": {"type": "Point", "coordinates": [-122.2186661, 47.7881699]}}, {"type": "Feature", "properties": {"id": "6bf1cf0a-b472-4a33-b12e-4464dc6353bf", "name": "Immediate Clinic Bothell", "category": "clinic", "tags": ["clinic", "medical"], "sources": ["overture"], "website": "http://www.immediateclinic.com/bothell-urgent-care", "phone": "4254833335", "address": "23131 Bothell Everett Hwy Ste B"}, "geometry": {"type": "Point", "coordinates": [-122.2185211, 47.7886009]}}, {"type": "Feature", "properties": {"id": 167025517, "name": "U.S. Bank", "category": "bank", "tags": ["bank", "credit", "union"], "sources": ["osm", "overture"], "website": "http://www.usbank.com/", "phone": "4254861235", "address": "23131 Bothell Everett Hwy"}, "geometry": {"type": "Point", "coordinates": [-122.2184829, 47.7886764]}}, {"type": "Feature", "properties": {"id": "108197dd-9337-46d0-89ee-3947f3f566ca", "name": "U.S. Bank ATM", "category": "bank", "tags": ["bank", "credit", "union"], "sources": ["overture"], "website": "http://www.usbank.com/locations", "phone": "8008722657", "address": "23131 Bothell Everett Hwy Ste A"}, "geometry": {"type": "Point", "coordinates": [-122.2192459, 47.7883301]}}, {"type": "Feature", "properties": {"id": "fa5cd203-8701-4ffb-8ba7-99f397527ade", "name": "Fitness Together", "category": "fitness_centre", "tags": ["fitness-centre", "gym"], "sources": ["overture"], "website": "https://fitnesstogether.com/Bothell?utm_medium=SoCi&utm_source=extnet", "phone": "4253649860", "address": "22833 Bothell Everett Highway Ste 142"}, "geometry": {"type": "Point", "coordinates": [-122.2153015, 47.7899742]}}, {"type": "Feature", "properties": {"id": "32e614d0-2dbf-4ea0-9bdf-1a653a78a21c", "name": "StretchLab", "category": "fitness_centre", "tags": ["fitness-centre", "gym"], "sources": ["overture"], "website": "https://www.stretchlab.com/location/bothell", "phone": "+14255876388", "address": "22833 Bothell Everett Hwy"}, "geometry": {"type": "Point", "coordinates": [-122.215126, 47.7898445]}}, {"type": "Feature", "properties": {"id": "ca524d2c-ef50-4520-95c6-cc84a0c3b38e", "name": "HOTWORX - Bothell, WA", "category": "fitness_centre", "tags": ["fitness-centre", "gym"], "sources": ["overture"], "website": "https://www.hotworx.net/studio/bothell-wa?utm_source=google&utm_medium=organic&utm_campaign=gbp", "phone": "+14254747361", "address": "22922 Bothell Everett Hwy"}, "geometry": {"type": "Point", "coordinates": [-122.2197495, 47.789959]}}, {"type": "Feature", "properties": {"id": "939fadb8-195f-4cb6-bf19-7757c6b9d976", "name": "Ananda Washington", "category": "fitness_centre", "tags": ["fitness-centre", "yoga", "studio"], "sources": ["overture"], "website": "http://www.AnandaWashington.org/", "phone": "+14258063700", "address": "23305 Bothell Everett Hwy"}, "geometry": {"type": "Point", "coordinates": [-122.2190247, 47.7865562]}}, {"type": "Feature", "properties": {"id": "2d1e108d-9321-4606-bca6-b320b741b5b2", "name": "Ananda Institute of Living Yoga", "category": "fitness_centre", "tags": ["fitness-centre", "yoga", "studio"], "sources": ["overture"], "website": "https://www.anandawashington.org/ananda-yoga/", "phone": "+14258063700", "address": "23305 Bothell Everett Hwy"}, "geometry": {"type": "Point", "coordinates": [-122.2192459, 47.7865791]}}]}