{"type": "FeatureCollection", "features": [{"type": "Feature", "properties": {"id": "d9aa6b3a-0635-4e1f-a13e-33ec39bb7e4e", "name": "Knol Apartments", "category": "attraction", "tags": ["attraction", "landmark", "historical", "building"], "sources": ["overture"], "website": "http://www.liveatknol.com/", "phone": "+12538524376", "address": "11239 SE 260th St"}, "geometry": {"type": "Point", "coordinates": [-122.1912766, 47.3696861]}}, {"type": "Feature", "properties": {"id": 362154828, "name": "Tudor Square Park", "category": "park", "tags": ["park"], "sources": ["osm", "overture"], "website": "http://www.kentreporter.com/news/132208783.html?mobile=true", "phone": "+12538565000", "address": "26755 112th Ave SE"}, "geometry": {"type": "Point", "coordinates": [-122.192658, 47.3620374]}}, {"type": "Feature", "properties": {"id": "c838e0fa-db10-44e8-8b76-fca6b6399960", "name": "Campus Park", "category": "park", "tags": ["park"], "sources": ["overture"], "website": "http://kentwa.gov/content.aspx?id=11150", "address": "9890 S. 252nd Street"}, "geometry": {"type": "Point", "coordinates": [-122.1977844, 47.3654442]}}, {"type": "Feature", "properties": {"id": "51e474ac-86ff-47a4-8e92-d3e4eefeaccc", "name": "Step Forward Foot Correctors", "category": "clothes", "tags": ["clothes"], "sources": ["overture"], "website": "http://www.stepforward.com", "phone": "(253) 631-0683", "address": "11109 SE Kent Kangley Rd"}, "geometry": {"type": "Point", "coordinates": [-122.1932602, 47.3688431]}}, {"type": "Feature", "properties": {"id": 4780305922, "name": "Step Forward Flexible Orthotics", "category": "pharmacy", "tags": ["pharmacy"], "sources": ["osm"]}, "geometry": {"type": "Point", "coordinates": [-122.1932164, 47.368818]}}]}